{"updated": "Jan 05, 2025", "places": [{"name": "Indo Pak Meat & Grocery", "address": "3922 W. Lawrence Ave, Chicago, IL - 60625", "phone": "(773) 267-5800", "state": "Illinois", "products": ["Chicken", "Lamb", "Goat", "Veal", "Beef"], "expires": "2024-12-31T00:00:00", "certification": "HMS", "lat": 41.9683583, "lng": -87.72652409999999, "nav_url": "https://www.google.com/maps/search/?api=1&query=3922%20W.%20Lawrence%20Ave%2C%20Chicago%2C%20IL%20-%2060625&query_place_id=ChIJpTFomtrND4gRIl97-D8N8jo"}, {"name": "Amart and Halal Meat (Formerly Known As: Bismillah Meat & Grocery)", "address": "1964 Flatbush Avenue, Brooklyn, NY 11234", "phone": "(718) 676-2777", "state": "New York", "products": ["Chicken", "Lamb", "Goat", "Veal", "Beef"], "expires": "2024-12-31T00:00:00", "certification": "HMS", "lat": 40.6217989, "lng": -73.9362448, "nav_url": "https://www.google.com/maps/search/?api=1&query=1964%20Flatbush%20Avenue%2C%20Brooklyn%2C%20NY%2011234&query_place_id=ChIJ5wkA2FdDwokRR_zIxo7tO14"}, {"name": "Anmol Meat & Grocery", "address": "2906 W. Devon Ave., Chicago, IL - 60659", "phone": "(872) 208-3373", "state": "Illinois", "products": ["Chicken", "Lamb", "Goat", "Veal", "Beef"], "expires": "2024-12-31T00:00:00", "certification": "HMS", "lat": 41.9976247, "lng": -87.7024541, "nav_url": "https://www.google.com/maps/search/?api=1&query=2906%20W.%20Devon%20Ave.%2C%20Chicago%2C%20IL%20-%2060659&query_place_id=ChIJzVldRCDOD4gR9b87ry8o2ng"}, {"name": "Nayab Mart", "address": "2449 West Devon Avenue, Chicago, IL", "phone": "(773) 262-9200", "state": "Illinois", "products": ["Chicken", "Lamb", "Goat", "Veal", "Beef"], "expires": "2025-12-31T00:00:00", "certification": "HMS", "lat": 41.9975883, "lng": -87.69184849999999, "nav_url": "https://www.google.com/maps/search/?api=1&query=2449%20West%20Devon%20Avenue%2C%20Chicago%2C%20IL&query_place_id=ChIJpXEFz93RD4gR0ONaNaff_mY"}, {"name": "Mehrab Super Market", "address": "2433 - 37 W. Devon Ave, Chicago, IL 60659", "phone": "(773) 764-3737", "state": "Illinois", "products": ["Chicken", "Lamb", "Goat", "Veal", "Beef"], "expires": "2025-12-31T00:00:00", "certification": "HMS", "lat": 41.9976018, "lng": -87.6912696, "nav_url": "https://www.google.com/maps/search/?api=1&query=2433%20-%2037%20W.%20Devon%20Ave%2C%20Chicago%2C%20IL%2060659&query_place_id=ChIJ_-Sst93RD4gRg_9HpR6ePeA"}, {"name": "Perdesi Grocers", "address": "1184 Roosevelt Road, Glen Ellyn, IL", "phone": "(630) 678-9288", "state": "Illinois", "products": ["Chicken", "Lamb", "Goat", "Veal", "Beef"], "expires": "2025-12-31T00:00:00", "certification": "HMS", "lat": 41.8601621, "lng": -88.0328452, "nav_url": "https://www.google.com/maps/search/?api=1&query=1184%20Roosevelt%20Road%2C%20Glen%20Ellyn%2C%20IL&query_place_id=ChIJ_6uFvlhSDogR7E2CjxEu1Zc"}, {"name": "Rahmat Meat & Grocery", "address": "2158 West Devon Avenue, Chicago, IL", "phone": "(773) 338-3358", "state": "Illinois", "products": ["Chicken", "Lamb", "Goat", "Beef"], "expires": "2025-12-31T00:00:00", "certification": "HMS", "lat": 41.9979221, "lng": -87.68486399999999, "nav_url": "https://www.google.com/maps/search/?api=1&query=2158%20West%20Devon%20Avenue%2C%20Chicago%2C%20IL&query_place_id=ChIJjYD_UsLRD4gRrmNUz-nZngE"}, {"name": "Sundarbans Fish Bazar", "address": "2200 W. Devon Ave., Chicago, IL - 60659", "phone": "(773)-761-8780", "state": "Illinois", "products": ["Chicken", "Lamb", "Goat", "Veal", "Beef"], "expires": "2025-12-31T00:00:00", "certification": "HMS", "lat": 41.9981195, "lng": -87.6852589, "nav_url": "https://www.google.com/maps/search/?api=1&query=2200%20W.%20Devon%20Ave.%2C%20Chicago%2C%20IL%20-%2060659&query_place_id=ChIJiyfXHcPRD4gRDx2DHCUcktI"}, {"name": "Ruby Indo-Pak Grocery Inc.", "address": "9232 Waukegan Rd., Morton Grove, IL-60053", "phone": "(847)-663-0170", "state": "Illinois", "products": ["Chicken", "Lamb", "Goat", "Veal", "Beef"], "expires": "2025-12-31T00:00:00", "certification": "HMS", "lat": 42.0493244, "lng": -87.7996723, "nav_url": "https://www.google.com/maps/search/?api=1&query=9232%20Waukegan%20Rd.%2C%20Morton%20Grove%2C%20IL-60053&query_place_id=ChIJMX97opnID4gRW1iCjXvgrUM"}, {"name": "Owais Foods", "address": "9372 Ballard Rd, Des Plaines, IL 60016", "phone": "(847) 635-0935", "state": "Illinois", "products": ["Chicken", "Lamb", "Goat", "Veal", "Beef"], "expires": "2025-12-31T00:00:00", "certification": "HMS", "lat": 42.0436507, "lng": -87.8587884, "nav_url": "https://www.google.com/maps/search/?api=1&query=9372%20Ballard%20Rd%2C%20Des%20Plaines%2C%20IL%2060016&query_place_id=ChIJ4cLm4OO3D4gR1DeQT9Iub78"}, {"name": "Community Grocery", "address": "3633-38 W. Bryn Mawr Ave., Chicago, IL - 60659", "phone": "(773) 539-5575", "state": "Illinois", "products": ["Chicken", "Lamb", "Goat", "Beef"], "expires": "2025-12-31T00:00:00", "certification": "HMS", "lat": 41.9831266, "lng": -87.7128115, "nav_url": "https://www.google.com/maps/search/?api=1&query=3633-38%20W.%20Bryn%20Mawr%20Ave.%2C%20Chicago%2C%20IL%20-%2060659&query_place_id=ChIJIZJYLgzOD4gR1E7dK2V-NlQ"}, {"name": "New Nayab Mart (Aurora)", "address": "3577 E. New York St, Aurora, IL 60504", "phone": "(630)-585-5858", "state": "Illinois", "products": ["Chicken", "Lamb", "Goat", "Veal", "Beef"], "expires": "2025-12-31T00:00:00", "certification": "HMS", "lat": 41.7599559, "lng": -88.2288007, "nav_url": "https://www.google.com/maps/search/?api=1&query=3577%20E.%20New%20York%20St%2C%20Aurora%2C%20IL%2060504&query_place_id=ChIJgToVsen5DogRhoXd2koolvM"}, {"name": "Kamyab Mart Inc.", "address": "15921 Weber Rd. Unit B, Crest Hill, IL - 60403", "phone": "(815) 552-2452", "state": "Illinois", "products": ["Chicken", "Lamb", "Goat", "Veal", "Beef"], "expires": "2025-12-31T00:00:00", "certification": "HMS", "lat": 41.5942666, "lng": -88.1216884, "nav_url": "https://www.google.com/maps/search/?api=1&query=15921%20Weber%20Rd.%20Unit%20B%2C%20Crest%20Hill%2C%20IL%20-%2060403&query_place_id=ChIJpWhVSy5eDogRQYibs7OQbbY"}, {"name": "Q & H Grocery", "address": "2408 W. Brynmawr Ave., Chicago, IL 60659", "phone": "(773) 334-3664", "state": "Illinois", "products": ["Chicken", "Lamb", "Goat", "Veal", "Beef"], "expires": "2025-12-31T00:00:00", "certification": "HMS", "lat": 41.9832647, "lng": -87.6898392, "nav_url": "https://www.google.com/maps/search/?api=1&query=2408%20W.%20Brynmawr%20Ave.%2C%20Chicago%2C%20IL%2060659&query_place_id=ChIJSx5o__rRD4gRZauaqPqKOTU"}, {"name": "Mediterranean Market", "address": "612 E.Roosevelt Rd. Lombard IL 60148 ", "phone": "(630) 424-1397", "state": "Illinois", "products": ["Chicken", "Lamb", "Goat", "Veal", "Beef"], "expires": "2025-12-31T00:00:00", "certification": "HMS", "lat": 41.8608371, "lng": -88.0019773, "nav_url": "https://www.google.com/maps/search/?api=1&query=612%20E.Roosevelt%20Rd.%20Lombard%20IL%2060148%20&query_place_id=ChIJUWpSMp1NDogRfum590BPuKA"}, {"name": "Perdesi Grocers(GL Heights)", "address": "1545 Bloomingdale Rd., Glendale Heights, IL - 60139", "phone": "847-338-3076", "state": "Illinois", "products": ["Chicken", "Lamb", "Goat", "Veal", "Beef"], "expires": "2025-12-31T00:00:00", "certification": "HMS", "lat": 41.9154778, "lng": -88.08095259999999, "nav_url": "https://www.google.com/maps/search/?api=1&query=1545%20Bloomingdale%20Rd.%2C%20Glendale%20Heights%2C%20IL%20-%2060139&query_place_id=ChIJ61S0I6WsD4gRwnGSqU0obUo"}, {"name": "Al-Amin Grocery", "address": "6403 N Artesian, Chicago, IL - 60645", "phone": "(773) 465-9526", "state": "Illinois", "products": ["Chicken", "Lamb", "Goat", "Beef"], "expires": "2025-12-31T00:00:00", "certification": "HMS", "lat": 41.9981328, "lng": -87.6909866, "nav_url": "https://www.google.com/maps/search/?api=1&query=6403%20N%20Artesian%2C%20Chicago%2C%20IL%20-%2060645&query_place_id=ChIJD5RLsd3RD4gRsRCHfETZSRM"}, {"name": "Ameera Food", "address": "6415 N Western Ave., Chicago, IL - 60645", "phone": "(773) 338-8400", "state": "Illinois", "products": ["Chicken", "Lamb", "Goat", "Veal", "Beef"], "expires": "2025-12-31T00:00:00", "certification": "HMS", "lat": 41.9983673, "lng": -87.6897056, "nav_url": "https://www.google.com/maps/search/?api=1&query=6415%20N%20Western%20Ave.%2C%20Chicago%2C%20IL%20-%2060645&query_place_id=ChIJj-PX4tzRD4gRp_Fjvnf3Aw4"}, {"name": "Ahmed Meat and Grocery", "address": "6003 Dempster Street, Morton Grove, IL - 60053", "phone": "(847) 581-1190", "state": "Illinois", "products": ["Chicken", "Lamb", "Goat", "Beef"], "expires": "2025-12-31T00:00:00", "certification": "HMS", "lat": 42.0406015, "lng": -87.77667919999999, "nav_url": "https://www.google.com/maps/search/?api=1&query=6003%20Dempster%20Street%2C%20Morton%20Grove%2C%20IL%20-%2060053&query_place_id=ChIJi5_7tbTID4gR9hVFpWuPPVw"}, {"name": "Sasta Bazaar", "address": "709 W Mitchell St, Milwaukee, WI 53204", "phone": "(414) 672-7272", "state": "Wisconsin", "products": ["Chicken", "Lamb", "Goat", "Beef"], "expires": "2025-12-31T00:00:00", "certification": "HMS", "lat": 43.0121917, "lng": -87.9203297, "nav_url": "https://www.google.com/maps/search/?api=1&query=709%20W%20Mitchell%20St%2C%20Milwaukee%2C%20WI%2053204&query_place_id=ChIJj-TaEO8ZBYgRrgYncpBgI-g"}, {"name": "Makkah Mart", "address": "1652 S. Ardmore Ave, Villa Park, IL 60181", "phone": "(630) 495-9999", "state": "Illinois", "products": ["Chicken", "Lamb", "Goat", "Veal", "Beef"], "expires": "2025-12-31T00:00:00", "certification": "HMS", "lat": 41.8585189, "lng": -87.97841389999999, "nav_url": "https://www.google.com/maps/search/?api=1&query=1652%20S.%20Ardmore%20Ave%2C%20Villa%20Park%2C%20IL%2060181&query_place_id=ChIJadp-Y6lNDogRek3JOYnyzeA"}, {"name": "Marhaba Foods", "address": "833 Higgins Rd. Schaumburg, IL 60195", "phone": "(847) 839-3993", "state": "Illinois", "products": ["Chicken", "Lamb", "Goat", "Veal", "Beef"], "expires": "2025-12-31T00:00:00", "certification": "HMS", "lat": 42.0494051, "lng": -88.1014488, "nav_url": "https://www.google.com/maps/search/?api=1&query=833%20Higgins%20Rd.%20Schaumburg%2C%20IL%2060195&query_place_id=ChIJ01hRhbCoD4gRgZG5yYJWZr8"}, {"name": "Deshi Foods Inc. (Not Valid for Wholesale Supply)", "address": "37-15 55 St, Woodside, NY 11377", "phone": "718-205-7200", "state": "New York", "products": ["Lamb", "Goat", "Beef"], "expires": "2024-12-31T00:00:00", "certification": "HMS", "lat": 40.7503838, "lng": -73.9070928, "nav_url": "https://www.google.com/maps/search/?api=1&query=37-15%2055%20St%2C%20Woodside%2C%20NY%2011377&query_place_id=ChIJ_YG7XRlfwokRjgnXpI-UEsw"}, {"name": "Shalimar Grocery", "address": "474 N. Green Bay Rd, Waukegan, IL 60085", "phone": "(847) 599-9306", "state": "Illinois", "products": ["Chicken", "Lamb", "Goat", "Veal", "Beef"], "expires": "2025-12-31T00:00:00", "certification": "HMS", "lat": 42.3664863, "lng": -87.87980639999999, "nav_url": "https://www.google.com/maps/search/?api=1&query=474%20N.%20Green%20Bay%20Rd%2C%20Waukegan%2C%20IL%2060085&query_place_id=ChIJBw9AJxuTD4gR-uKfFdmpKHs"}, {"name": "Daallo Halal Meat and Grocery", "address": "2742 W Devon Ave, Chicago, IL 60659", "phone": "(773) 942-6783", "state": "Illinois", "products": ["Chicken", "Lamb", "Goat", "Veal", "Beef"], "expires": "2025-12-31T00:00:00", "certification": "HMS", "lat": 41.9976788, "lng": -87.6989693, "nav_url": "https://www.google.com/maps/search/?api=1&query=2742%20W%20Devon%20Ave%2C%20Chicago%2C%20IL%2060659&query_place_id=ChIJRbdJXSDOD4gRhiCXGy5g2lg"}, {"name": "Fish Corner", "address": "6408 N Campbell Ave, Chicago, IL 60645", "phone": "(773) 262-7173", "state": "Illinois", "products": ["Chicken", "Lamb", "Goat", "Veal", "Beef"], "expires": "2024-12-31T00:00:00", "certification": "HMS", "lat": 41.9980236, "lng": -87.6924678, "nav_url": "https://www.google.com/maps/search/?api=1&query=6408%20N%20Campbell%20Ave%2C%20Chicago%2C%20IL%2060645&query_place_id=ChIJR-3Y1d3RD4gRvmperWDPYKo"}, {"name": "Mina Bazar", "address": "71-10 35th Ave, Jackson Heights, NY 11372", "phone": "(718) 639-6462", "state": "New York", "products": ["Chicken", "Lamb", "Goat", "Veal", "Beef"], "expires": "2024-12-31T00:00:00", "certification": "HMS", "lat": 40.7503122, "lng": -73.89465249999999, "nav_url": "https://www.google.com/maps/search/?api=1&query=71-10%2035th%20Ave%2C%20Jackson%20Heights%2C%20NY%2011372&query_place_id=ChIJrSczfAZfwokRYLhdeNNG2jA"}, {"name": "World Fresh Market", "address": "2434 W Devon Ave, Chicago, IL 60659", "phone": "(773) 508-0700", "state": "Illinois", "products": ["Chicken", "Lamb", "Goat", "Veal", "Beef"], "expires": "2025-12-31T00:00:00", "certification": "HMS", "lat": 41.997961, "lng": -87.69156, "nav_url": "https://www.google.com/maps/search/?api=1&query=2434%20W%20Devon%20Ave%2C%20Chicago%2C%20IL%2060659&query_place_id=ChIJt0D-td3RD4gRb6QdysgBrPc"}, {"name": "Baitullaham Groceries", "address": "447 Essex St, Hackensack, NJ 07601", "phone": "(201) 820-1035", "state": "New Jersey", "products": ["Chicken", "Lamb", "Goat", "Beef"], "expires": "2025-12-31T00:00:00", "certification": "HMS", "lat": 40.8853191, "lng": -74.062095, "nav_url": "https://www.google.com/maps/search/?api=1&query=447%20Essex%20St%2C%20Hackensack%2C%20NJ%2007601&query_place_id=ChIJjUYyH8H7wokRUxC7lH9Wf5k"}, {"name": "Awami Bazar", "address": "2340 W Devon Ave, Chicago, IL 60659", "phone": "(773) 274-9600", "state": "Illinois", "products": ["Chicken", "Lamb", "Goat", "Veal", "Beef"], "expires": "1900-01-01T00:00:00", "certification": "HMS", "lat": 41.9978449, "lng": -87.68913669999999, "nav_url": "https://www.google.com/maps/search/?api=1&query=2340%20W%20Devon%20Ave%2C%20Chicago%2C%20IL%2060659&query_place_id=ChIJ8yTeHt3RD4gRcp78W9afWPg"}, {"name": "Lasani Zabiha Halal Meat & Grocers", "address": "2445 W. Devon Ave, Chicago, IL 60659", "phone": "(773) 761-5555", "state": "Illinois", "products": ["Chicken", "Lamb", "Goat", "Veal", "Beef"], "expires": "2025-12-31T00:00:00", "certification": "HMS", "lat": 41.9975931, "lng": -87.69165890000001, "nav_url": "https://www.google.com/maps/search/?api=1&query=2445%20W.%20Devon%20Ave%2C%20Chicago%2C%20IL%2060659&query_place_id=ChIJu8LmyN3RD4gRpfni21JxwaM"}, {"name": "Yaseen Zabiha Halal Meat & Grocers (New Owner)", "address": "2243 W Devon Ave, Chicago, IL 60659", "phone": "(773) 743-6934", "state": "Illinois", "products": ["Chicken", "Lamb", "Goat", "Veal", "Beef"], "expires": "2025-12-31T00:00:00", "certification": "HMS", "lat": 41.997675, "lng": -87.6866738, "nav_url": "https://www.google.com/maps/search/?api=1&query=2243%20W%20Devon%20Ave%2C%20Chicago%2C%20IL%2060659&query_place_id=ChIJNxLt3MLRD4gR9wD_36Enaic"}, {"name": "Asian Island", "address": "1202 E Dundee Rd, Palatine, IL 60074", "phone": "(847) 202-1036", "state": "Illinois", "products": ["Chicken", "Lamb", "Goat", "Veal", "Beef"], "expires": "2025-12-31T00:00:00", "certification": "HMS", "lat": 42.1403937, "lng": -88.01511149999999, "nav_url": "https://www.google.com/maps/search/?api=1&query=1202%20E%20Dundee%20Rd%2C%20Palatine%2C%20IL%2060074&query_place_id=ChIJH__Xi6qkD4gREWIekAO5dW4"}, {"name": "Mars Halal Market", "address": "2242 Woodbridge Ave, Edison, NJ 08817", "phone": "(201) 333-3301", "state": "New Jersey", "products": ["Chicken", "Lamb", "Goat", "Veal", "Beef"], "expires": "2025-12-31T00:00:00", "certification": "HMS", "lat": 40.5015194, "lng": -74.3914142, "nav_url": "https://www.google.com/maps/search/?api=1&query=2242%20Woodbridge%20Ave%2C%20Edison%2C%20NJ%2008817&query_place_id=ChIJkSXLHmDJw4kRiU4iTEV2IhQ"}, {"name": "Sheeba Meat & Grocery", "address": "4307 W. Lawrance Ave, Chicago, IL 60630", "phone": "(773) 481-1123", "state": "Illinois", "products": ["Chicken", "Lamb", "Goat", "Veal", "Beef"], "expires": "2025-12-31T00:00:00", "certification": "HMS", "lat": 41.9680603, "lng": -87.7359204, "nav_url": "https://www.google.com/maps/search/?api=1&query=4307%20W.%20Lawrance%20Ave%2C%20Chicago%2C%20IL%2060630&query_place_id=ChIJgyFSyj3ND4gRBxJwbowrGfo"}, {"name": "Desi Needs", "address": "289 Evergreen Dr, Vernon Hills, IL 60061", "phone": "(847) 549-3128", "state": "Illinois", "products": ["Chicken", "Goat"], "expires": "2025-12-31T00:00:00", "certification": "HMS", "lat": 42.2222353, "lng": -87.9705479, "nav_url": "https://www.google.com/maps/search/?api=1&query=289%20Evergreen%20Dr%2C%20Vernon%20Hills%2C%20IL%2060061&query_place_id=ChIJ3fNEECuWD4gRBXFfXcLXD08"}, {"name": "New Shamiana Meat & Grocery ", "address": "2233 Schaumburg Rd, Schaumburg, IL", "phone": "(847) 301-8500", "state": "Illinois", "products": ["Chicken", "Lamb", "Goat", "Veal", "Beef"], "expires": "2025-12-31T00:00:00", "certification": "HMS", "lat": 42.0244288, "lng": -88.1359031, "nav_url": "https://www.google.com/maps/search/?api=1&query=2233%20Schaumburg%20Rd%2C%20Schaumburg%2C%20IL&query_place_id=ChIJfaHTG1OoD4gRDhRaiIkii1k"}, {"name": "Bismillah Market", "address": "475 W. Boughton Rd, Bolingbrook, IL 60440", "phone": "(630) 759-4429", "state": "Illinois", "products": ["Chicken", "Lamb", "Goat", "Veal", "Beef"], "expires": "2025-12-31T00:00:00", "certification": "HMS", "lat": 41.7066065, "lng": -88.0861292, "nav_url": "https://www.google.com/maps/search/?api=1&query=475%20W.%20Boughton%20Rd%2C%20Bolingbrook%2C%20IL%2060440&query_place_id=ChIJdU4mnytaDogRZE_q6xXr92w"}, {"name": "Baladi Fresh Market", "address": "601 W North Ave, Villa Park, IL 60181", "phone": "(630) 516-0123", "state": "Illinois", "products": ["Chicken", "Lamb", "Goat", "Veal", "Beef"], "expires": "2025-12-31T00:00:00", "certification": "HMS", "lat": 41.904055, "lng": -87.993721, "nav_url": "https://www.google.com/maps/search/?api=1&query=601%20W%20North%20Ave%2C%20Villa%20Park%2C%20IL%2060181&query_place_id=ChIJn4QImbWyD4gRmFUuYZdLd2Y"}, {"name": "Aladin Halal Meat", "address": "495-14 South Broadway, Hicksville, NY 11801", "phone": "(516) 595-7227", "state": "New York", "products": ["Chicken", "Lamb", "Goat", "Beef"], "expires": "2025-12-31T00:00:00", "certification": "HMS", "lat": 40.7572844, "lng": -73.5103716, "nav_url": "https://www.google.com/maps/search/?api=1&query=495-14%20South%20Broadway%2C%20Hicksville%2C%20NY%2011801&query_place_id=ChIJweQklVeAwokRoD_fH3gxITg"}, {"name": "Halal Grill & Market", "address": "4043 Main St, Skokie, IL 60076", "phone": "(847) 213-0636", "state": "Illinois", "products": ["Chicken", "Lamb", "Goat", "Veal", "Beef"], "expires": "2025-12-31T00:00:00", "certification": "HMS", "lat": 42.0332093, "lng": -87.72987189999999, "nav_url": "https://www.google.com/maps/search/?api=1&query=4043%20Main%20St%2C%20Skokie%2C%20IL%2060076&query_place_id=ChIJ7RFDvUPPD4gRZDbnVNf1rqw"}, {"name": "India House", "address": "709 S. GAMMON RD, MADISON, WI 53719", "phone": "(608) 268-0241", "state": "Wisconsin", "products": ["Chicken", "Lamb", "Goat", "Veal", "Beef"], "expires": "2025-12-31T00:00:00", "certification": "HMS", "lat": 43.0494378, "lng": -89.50283999999999, "nav_url": "https://www.google.com/maps/search/?api=1&query=709%20S.%20GAMMON%20RD%2C%20MADISON%2C%20WI%2053719&query_place_id=ChIJ6TW1_E-uB4gRLrmcaYWJ5XU"}, {"name": "Abdu Market", "address": "46090 Michigan Ave, Canton, MI 48188", "phone": "(734) 545 8040 | (734) 322-9240", "state": "Michigan", "products": ["Chicken", "Lamb", "Goat", "Veal", "Beef"], "expires": "2025-12-31T00:00:00", "certification": "HMS", "lat": 42.2718463, "lng": -83.4922641, "nav_url": "https://www.google.com/maps/search/?api=1&query=46090%20Michigan%20Ave%2C%20Canton%2C%20MI%2048188&query_place_id=ChIJM7ntzJNRO4gRTSaQ9Cv7kDM"}, {"name": "Asia Grocers", "address": "27616 Middlebelt Rd, Farmington Hills, MI 48334", "phone": "(248) 426-9000", "state": "Michigan", "products": ["Chicken", "Lamb", "Goat", "Veal", "Beef"], "expires": "2025-12-31T00:00:00", "certification": "HMS", "lat": 42.4978142, "lng": -83.33762019999999, "nav_url": "https://www.google.com/maps/search/?api=1&query=27616%20Middlebelt%20Rd%2C%20Farmington%20Hills%2C%20MI%2048334&query_place_id=ChIJx-Z2VrSwJIgRMsocP2s4ie4"}, {"name": "Datar Halal Meat and Grocery", "address": "293 East Meadow Ave, East Meadow, NY 11554", "phone": "(516) 414-1740", "state": "New York", "products": ["Chicken", "Lamb", "Goat", "Veal", "Beef"], "expires": "2025-12-31T00:00:00", "certification": "HMS", "lat": 40.7166753, "lng": -73.5613383, "nav_url": "https://www.google.com/maps/search/?api=1&query=293%20East%20Meadow%20Ave%2C%20East%20Meadow%2C%20NY%2011554&query_place_id=ChIJiQSj3G19wokRDQUGDimDdEc"}, {"name": "Punjab Halal Meat & Grill", "address": "856 US Highway 206, Unit A, Building A, Hillsborough, NJ 08844", "phone": "(908) 262-7247", "state": "New Jersey", "products": ["Chicken", "Lamb", "Goat", "Beef"], "expires": "2025-12-31T00:00:00", "certification": "HMS", "lat": 40.4802959, "lng": -74.6557443, "nav_url": "https://www.google.com/maps/search/?api=1&query=856%20US%20Highway%20206%2C%20Unit%20A%2C%20Building%20A%2C%20Hillsborough%2C%20NJ%2008844&query_place_id=ChIJd422mKLpw4kRfT_yi5KXO3o"}, {"name": "Al-Haramain International Food ", "address": "24065 Orchard Lake Rd, Farmington, MI 48336", "phone": "(248) 476-0300", "state": "Michigan", "products": ["Chicken", "Lamb", "Goat", "Veal", "Beef"], "expires": "2025-12-31T00:00:00", "certification": "HMS", "lat": 42.4691774, "lng": -83.3582089, "nav_url": "https://www.google.com/maps/search/?api=1&query=24065%20Orchard%20Lake%20Rd%2C%20Farmington%2C%20MI%2048336&query_place_id=ChIJZT4UhhixJIgRBAU_H0J4m8E"}, {"name": "Palms Market", "address": "9161 N Milwaukee Ave, Niles, IL 60714", "phone": "(847) 972-1611", "state": "Illinois", "products": ["Chicken", "Lamb", "Goat", "Veal", "Beef"], "expires": "1900-01-01T00:00:00", "certification": "HMS", "lat": 42.0473006, "lng": -87.8315184, "nav_url": "https://www.google.com/maps/search/?api=1&query=9161%20N%20Milwaukee%20Ave%2C%20Niles%2C%20IL%2060714&query_place_id=ChIJm2iX7KDJD4gRC-IOYGpk9U8"}, {"name": "Mannan Halal Supermarket", "address": "37-19 73 Street, Jackson Heights, NY 11372", "phone": "(718) 255-1137", "state": "New York", "products": ["Chicken", "Lamb", "Goat", "Veal", "Beef", "Turkey"], "expires": "2025-12-31T00:00:00", "certification": "HMS", "lat": 40.7482772, "lng": -73.8923765, "nav_url": "https://www.google.com/maps/search/?api=1&query=37-19%2073%20Street%2C%20Jackson%20Heights%2C%20NY%2011372&query_place_id=ChIJ4QK46QZfwokRoX6-IviJoU0"}, {"name": "Classic Meat ", "address": "3555 Murphy Rd. #105 Richardson, TX 75082", "phone": "(214) 299-4100", "state": "Texas", "products": ["Chicken", "Lamb", "Goat", "Veal", "Beef"], "expires": "2025-12-31T00:00:00", "certification": "HMS", "lat": 32.9997642, "lng": -96.61394419999999, "nav_url": "https://www.google.com/maps/search/?api=1&query=3555%20Murphy%20Rd.%20%23105%20Richardson%2C%20TX%2075082&query_place_id=ChIJ15gWiXsbTIYRMQLj01gTnIw"}, {"name": "Al Mezaan Meat & Grocery", "address": "257 Hempstead Turnpike, Elmont, NY 11003", "phone": "(516) 305-5829", "state": "New York", "products": ["Chicken", "Lamb", "Goat", "Veal", "Beef"], "expires": "2025-12-31T00:00:00", "certification": "HMS", "lat": 40.707869, "lng": -73.7175369, "nav_url": "https://www.google.com/maps/search/?api=1&query=257%20Hempstead%20Turnpike%2C%20Elmont%2C%20NY%2011003&query_place_id=ChIJmXPENSNjwokRJSMIe9D4bJY"}, {"name": "Farm2cook", "address": "8401 W. Golf Rd, Niles, IL 60714", "phone": "(773) 683-6998", "state": "Illinois", "products": ["Chicken", "Lamb", "Goat", "Veal", "Beef"], "expires": "1910-01-01T00:00:00", "certification": "HMS", "lat": 42.0541874, "lng": -87.8360453, "nav_url": "https://www.google.com/maps/search/?api=1&query=8401%20W.%20Golf%20Rd%2C%20Niles%2C%20IL%2060714&query_place_id=ChIJi0hDTw_JD4gRVnS9GBho7co"}, {"name": "Al-Tayyab Halal Meat & Grocery", "address": "2753 W Devon Ave, Chicago, IL 60659", "phone": "(773) 572-0430", "state": "Illinois", "products": ["Chicken", "Lamb", "Goat", "Veal", "Beef"], "expires": "2025-12-31T00:00:00", "certification": "HMS", "lat": 41.9973344, "lng": -87.69919019999999, "nav_url": "https://www.google.com/maps/search/?api=1&query=2753%20W%20Devon%20Ave%2C%20Chicago%2C%20IL%2060659&query_place_id=ChIJ5TUmUdHPD4gRGizlXvnhNmA"}, {"name": "Green Valley Meat Market", "address": "886 S Greenville Ave Ste 222, Richardson, TX 75081", "phone": "(214) 238-7577", "state": "Texas", "products": ["Chicken", "Lamb", "Goat", "Veal", "Beef"], "expires": "2025-12-31T00:00:00", "certification": "HMS", "lat": 32.9382582, "lng": -96.7344038, "nav_url": "https://www.google.com/maps/search/?api=1&query=886%20S%20Greenville%20Ave%20Ste%20222%2C%20Richardson%2C%20TX%2075081&query_place_id=ChIJw9_NFZwfTIYRA5vK6fNzjTQ"}, {"name": "Mannan Supermarket", "address": "166-11 Hillside Ave, Jamaica, NY 11432", "phone": "(718) 657-4585", "state": "New York", "products": ["Chicken", "Lamb", "Goat", "Veal", "Beef", "Turkey"], "expires": "2025-12-31T00:00:00", "certification": "HMS", "lat": 40.7098774, "lng": -73.79582719999999, "nav_url": "https://www.google.com/maps/search/?api=1&query=166-11%20Hillside%20Ave%2C%20Jamaica%2C%20NY%2011432&query_place_id=ChIJVY9BFOBgwokRL27gHyKzO78"}, {"name": "Mannan Halal Supermarket", "address": "75-19 101 Ave, Ozone Park, NY 11416", "phone": "(718) 848-0895", "state": "New York", "products": ["Chicken", "Lamb", "Goat", "Veal", "Beef", "Turkey"], "expires": "2025-12-31T00:00:00", "certification": "HMS", "lat": 40.6799603, "lng": -73.86158379999999, "nav_url": "https://www.google.com/maps/search/?api=1&query=75-19%20101%20Ave%2C%20Ozone%20Park%2C%20NY%2011416&query_place_id=ChIJf0lPF-tdwokRpd9nZor8nSg"}, {"name": "Fatima Grocery Inc", "address": "167-11 Hillside Ave, Jamaica, NY 11432", "phone": "(718) 291-9642", "state": "New York", "products": ["Chicken", "Lamb", "Goat", "Veal", "Beef"], "expires": "2025-12-31T00:00:00", "certification": "HMS", "lat": 40.710034, "lng": -73.795215, "nav_url": "https://www.google.com/maps/search/?api=1&query=167-11%20Hillside%20Ave%2C%20Jamaica%2C%20NY%2011432&query_place_id=ChIJn9GeJuBgwokRpGy_xJMuR1g"}, {"name": "Adnan Halal Meat", "address": "10160 West Broad Street, Glen Allen, VA 23060", "phone": "(804) 249-4665", "state": "Virginia", "products": ["Chicken", "Lamb", "Goat", "Veal", "Beef"], "expires": "2024-12-31T00:00:00", "certification": "HMS", "lat": 37.64613689999999, "lng": -77.5742818, "nav_url": "https://www.google.com/maps/search/?api=1&query=10160%20West%20Broad%20Street%2C%20Glen%20Allen%2C%20VA%2023060&query_place_id=ChIJx0Uw67pqsYkRjrNt5QshnQc"}, {"name": "Zem Zem Grocery", "address": "888 Illinois Rte 59 STE 112Naperville, IL 60540", "phone": "(630) 922-8105", "state": "Illinois", "products": ["Chicken", "Lamb", "Goat", "Veal", "Beef"], "expires": "2025-12-31T00:00:00", "certification": "HMS", "lat": 41.7554627, "lng": -88.2041886, "nav_url": "https://www.google.com/maps/search/?api=1&query=888%20Illinois%20Rte%2059%20STE%20112Naperville%2C%20IL%2060540&query_place_id=ChIJIdmjZy34DogREc3LYCBc9Q0"}, {"name": "Moon Supermarket", "address": "69-11 Woodside Ave, Woodside, NY 11377", "phone": "(718) 335-1828", "state": "New York", "products": ["Chicken", "Lamb", "Goat", "Beef"], "expires": "2025-12-31T00:00:00", "certification": "HMS", "lat": 40.7427531, "lng": -73.8951434, "nav_url": "https://www.google.com/maps/search/?api=1&query=69-11%20Woodside%20Ave%2C%20Woodside%2C%20NY%2011377&query_place_id=ChIJY1w2JeBfwokRGE7NP_DaQhQ"}, {"name": "Foodland Supermarket", "address": "120 Cambridge Street, Burlington, MA 01803", "phone": "(781) 229-0108", "state": "Massachusetts", "products": ["Chicken", "Lamb", "Goat", "Veal", "Beef"], "expires": "2025-12-31T00:00:00", "certification": "HMS", "lat": 42.5000015, "lng": -71.193996, "nav_url": "https://www.google.com/maps/search/?api=1&query=120%20Cambridge%20Street%2C%20Burlington%2C%20MA%2001803&query_place_id=ChIJTxWTK9mf44kRilJnnoYO41Q"}, {"name": "Alsham Supermarket", "address": "1217 S Main St, Lombard, IL 60148", "phone": "(331) 307-7153", "state": "Illinois", "products": ["Chicken", "Lamb", "Goat", "Veal", "Beef"], "expires": "2025-12-31T00:00:00", "certification": "HMS", "lat": 41.8594085, "lng": -88.0167165, "nav_url": "https://www.google.com/maps/search/?api=1&query=1217%20S%20Main%20St%2C%20Lombard%2C%20IL%2060148&query_place_id=ChIJzTCtI3xSDogR_6tA64G1PQg"}, {"name": "Halal Express Mart", "address": "6065 Dempster St, Morton Grove, IL 60053", "phone": "(224) 534-7048", "state": "Illinois", "products": ["Chicken", "Lamb", "Goat", "Veal", "Beef"], "expires": "2025-12-31T00:00:00", "certification": "HMS", "lat": 42.0406632, "lng": -87.7782986, "nav_url": "https://www.google.com/maps/search/?api=1&query=6065%20Dempster%20St%2C%20Morton%20Grove%2C%20IL%2060053&query_place_id=ChIJPZuLQ7PJD4gRqENBI_1Wpuc"}, {"name": "Farmer's India Market", "address": "1814 Central Ave, Albany, NY 12205", "phone": "(508) 868-8014", "state": "New York", "products": ["Chicken", "Lamb", "Goat", "Veal", "Beef"], "expires": "2025-12-31T00:00:00", "certification": "HMS", "lat": 42.730363, "lng": -73.8491334, "nav_url": "https://www.google.com/maps/search/?api=1&query=1814%20Central%20Ave%2C%20Albany%2C%20NY%2012205&query_place_id=ChIJd9uM6oBz3okRgktBDQCmaCg"}, {"name": "Coconut Hill", "address": "1201 E Main St Suite 200, Allen, TX 75002", "phone": "(972) 332-8838", "state": "Texas", "products": ["Chicken", "Lamb", "Goat", "Veal", "Beef"], "expires": "2025-12-31T00:00:00", "certification": "HMS", "lat": 33.1009145, "lng": -96.64118169999999, "nav_url": "https://www.google.com/maps/search/?api=1&query=1201%20E%20Main%20St%20Suite%20200%2C%20Allen%2C%20TX%2075002&query_place_id=ChIJBemZu5UQTIYRv3UDFobNYWg"}, {"name": "Classic International Market", "address": "2310 Virginia Pkwy #130, McKinney, TX 75071", "phone": "(469) 714-0060", "state": "Texas", "products": ["Chicken", "Lamb", "Goat", "Veal", "Beef"], "expires": "2025-12-31T00:00:00", "certification": "HMS", "lat": 33.1989462, "lng": -96.6427252, "nav_url": "https://www.google.com/maps/search/?api=1&query=2310%20Virginia%20Pkwy%20%23130%2C%20McKinney%2C%20TX%2075071&query_place_id=ChIJ6TNLiL8TTIYRanO4OZ0S6Mg"}, {"name": "Khan Brothers Meat and Grocery", "address": "1143 Lee St, Des Plaines, IL 60016", "phone": "(847) 481-9739, (224) 388-1046", "state": "Illinois", "products": ["Chicken", "Lamb", "Goat", "Veal", "Beef"], "expires": "2025-12-31T00:00:00", "certification": "HMS", "lat": 42.0320411, "lng": -87.8941359, "nav_url": "https://www.google.com/maps/search/?api=1&query=1143%20Lee%20St%2C%20Des%20Plaines%2C%20IL%2060016&query_place_id=ChIJk9wl1IS3D4gRybiy-NvhqcQ"}, {"name": "Maa Supermarket", "address": "87-79 Parsons Blvd, Jamaica, NY 11432", "phone": "(917) 717-6879", "state": "New York", "products": ["Chicken", "Lamb", "Goat", "Veal", "Beef"], "expires": "2025-12-31T00:00:00", "certification": "HMS", "lat": 40.7071936, "lng": -73.8023214, "nav_url": "https://www.google.com/maps/search/?api=1&query=87-79%20Parsons%20Blvd%2C%20Jamaica%2C%20NY%2011432&query_place_id=ChIJn8APtd1gwokRRC0QBWFk4qs"}, {"name": "Al Noor Meat and Grocery", "address": "2514 W. DEVON AVE, CHICAGO, IL 60659", "phone": "(773) 274-6667", "state": "Illinois", "products": ["Chicken", "Lamb", "Goat", "Veal", "Beef"], "expires": "2025-12-31T00:00:00", "certification": "HMS", "lat": 41.9979306, "lng": -87.69299559999999, "nav_url": "https://www.google.com/maps/search/?api=1&query=2514%20W.%20DEVON%20AVE%2C%20CHICAGO%2C%20IL%2060659&query_place_id=ChIJ3SJmeN7RD4gRNNrICUYT_Bg"}, {"name": "Texas King Irving", "address": "3455 N Beltline Rd, Irving, TX 75062", "phone": "(469) 579-6417", "state": "Texas", "products": ["Chicken", "Lamb", "Goat", "Veal", "Beef"], "expires": "2025-12-31T00:00:00", "certification": "HMS", "lat": 32.854034, "lng": -96.99339599999999, "nav_url": "https://www.google.com/maps/search/?api=1&query=3455%20N%20Beltline%20Rd%2C%20Irving%2C%20TX%2075062&query_place_id=ChIJmQVlvTuCToYRLlSkYb4KRBs"}, {"name": "Food Paradise Meat Market", "address": "3825 W Spring Creek Pkwy Plano, TX 75023", "phone": "(972) 596-7786", "state": "Texas", "products": ["Chicken", "Lamb", "Goat", "Veal", "Beef"], "expires": "2025-12-31T00:00:00", "certification": "HMS", "lat": 33.0573944, "lng": -96.7680115, "nav_url": "https://www.google.com/maps/search/?api=1&query=3825%20W%20Spring%20Creek%20Pkwy%20Plano%2C%20TX%2075023&query_place_id=ChIJBzsuHgAjTIYR5x6xkhRC3CI"}, {"name": "Abo Halal Market", "address": "42468 Cherry Hill Rd, Canton, MI 48187", "phone": "(313) 427-4858", "state": "Michigan", "products": ["Chicken", "Lamb", "Goat", "Veal", "Beef"], "expires": "1900-01-01T00:00:00", "certification": "HMS", "lat": 42.3085477, "lng": -83.4593893, "nav_url": "https://www.google.com/maps/search/?api=1&query=42468%20Cherry%20Hill%20Rd%2C%20Canton%2C%20MI%2048187&query_place_id=ChIJ3Uo4gklSO4gRFi4kKGvrMVM"}, {"name": "Iqra Grocery and Zabiha Halal Meat", "address": "212 Roosevelt Rd, Villa Park, IL 60181", "phone": "(630) 903-6667", "state": "Illinois", "products": ["Chicken", "Lamb", "Goat", "Veal", "Beef"], "expires": "2025-12-31T00:00:00", "certification": "HMS", "lat": 41.861992, "lng": -87.984366, "nav_url": "https://www.google.com/maps/search/?api=1&query=212%20Roosevelt%20Rd%2C%20Villa%20Park%2C%20IL%2060181&query_place_id=ChIJB8TjhadNDogRWxp5RTLmVD0"}, {"name": "Aftab Supermarket", "address": "144-01 Hillside Ave, Jamaica, NY 11435", "phone": "(718) 301-8510", "state": "New York", "products": ["Chicken", "Lamb", "Goat", "Veal", "Beef"], "expires": "2025-12-31T00:00:00", "certification": "HMS", "lat": 40.7053523, "lng": -73.8116877, "nav_url": "https://www.google.com/maps/search/?api=1&query=144-01%20Hillside%20Ave%2C%20Jamaica%2C%20NY%2011435&query_place_id=ChIJicCaekFhwokRGR0WgsW0AjI"}, {"name": "Desi Needs", "address": "3900 WASHINGTON ST, SUITE J, GURNEE, IL 60031", "phone": "(847) 662-2200", "state": "Illinois", "products": ["Chicken", "Lamb", "Goat", "Veal", "Beef"], "expires": "2025-12-31T00:00:00", "certification": "HMS", "lat": 42.3605436, "lng": -87.8984085, "nav_url": "https://www.google.com/maps/search/?api=1&query=3900%20WASHINGTON%20ST%2C%20SUITE%20J%2C%20GURNEE%2C%20IL%2060031&query_place_id=ChIJsQoZ-2OSD4gRZDU_Uql-QT4"}, {"name": "Zubaidah Halal Meat & Grocery", "address": "59 Walden Ave, Buffalo, NY 14211", "phone": "(716) 240-0062", "state": "New York", "products": ["Chicken", "Lamb", "Goat", "Veal", "Beef"], "expires": "2025-12-31T00:00:00", "certification": "HMS", "lat": 42.903355, "lng": -78.833947, "nav_url": "https://www.google.com/maps/search/?api=1&query=59%20Walden%20Ave%2C%20Buffalo%2C%20NY%2014211&query_place_id=ChIJEcz1oX4N04kRXA0494KX8jQ"}, {"name": "Express Poultry & Fish", "address": "15038 W Warren Ave, Dearborn, MI 48126", "phone": "(313) 584-1020", "state": "Michigan", "products": ["Chicken"], "expires": "2000-01-01T00:00:00", "certification": "HMS", "lat": 42.3439969, "lng": -83.19169710000001, "nav_url": "https://www.google.com/maps/search/?api=1&query=15038%20W%20Warren%20Ave%2C%20Dearborn%2C%20MI%2048126&query_place_id=ChIJSeNbUck0O4gRIuNYkeA3dFQ"}, {"name": "New Madinah Market (Aurora)", "address": "646 S Frontenac St # 106, Aurora, IL 60504", "phone": "(630) 692-0990", "state": "Illinois", "products": ["Chicken", "Lamb", "Goat", "Veal", "Beef"], "expires": "2025-12-31T00:00:00", "certification": "HMS", "lat": 41.7445106, "lng": -88.2294696, "nav_url": "https://www.google.com/maps/search/?api=1&query=646%20S%20Frontenac%20St%20%23%20106%2C%20Aurora%2C%20IL%2060504&query_place_id=ChIJsbN8_V73DogRRLVAjiwqYGg"}, {"name": "Buffalo Fresh 2", "address": "284 Ontario Street, Buffalo, NY 14207", "phone": "(716) 582-0510", "state": "New York", "products": ["Chicken", "Lamb", "Goat", "Veal", "Beef"], "expires": "2024-12-31T00:00:00", "certification": "HMS", "lat": 42.9525058, "lng": -78.90145380000001, "nav_url": "https://www.google.com/maps/search/?api=1&query=284%20Ontario%20Street%2C%20Buffalo%2C%20NY%2014207&query_place_id=ChIJPbel0cht04kRjrnPD7jxjsw"}, {"name": "Buffalo Fresh", "address": "1018 Broadway, Buffalo, NY 14212", "phone": "(716) 768-3700", "state": "New York", "products": ["Chicken", "Lamb", "Goat", "Veal", "Beef"], "expires": "2024-12-31T00:00:00", "certification": "HMS", "lat": 42.8940223, "lng": -78.83702629999999, "nav_url": "https://www.google.com/maps/search/?api=1&query=1018%20Broadway%2C%20Buffalo%2C%20NY%2014212&query_place_id=ChIJfwUVRIcN04kRw4b9Np9bMwk"}, {"name": "St. Louis Halal Meat & Grocery", "address": "10276 Page Ave, St. Louis, MO 63114", "phone": "(314) 427-8500", "state": "Missouri", "products": ["Chicken", "Lamb", "Goat", "Veal", "Beef"], "expires": "2025-12-31T00:00:00", "certification": "HMS", "lat": 38.6906496, "lng": -90.3877009, "nav_url": "https://www.google.com/maps/search/?api=1&query=10276%20Page%20Ave%2C%20St.%20Louis%2C%20MO%2063114&query_place_id=ChIJ_bRg83Yz34cRuIgAk-PVN90"}, {"name": "Desi Needs 3", "address": "5270 Lincoln Ave, Skokie, IL 60077", "phone": "(847) 410-7458", "state": "Illinois", "products": ["Chicken", "Lamb", "Goat", "Veal", "Beef"], "expires": "2025-12-31T00:00:00", "certification": "HMS", "lat": 42.033848, "lng": -87.756806, "nav_url": "https://www.google.com/maps/search/?api=1&query=5270%20Lincoln%20Ave%2C%20Skokie%2C%20IL%2060077&query_place_id=ChIJOdS0Kz7PD4gRkFxpHSw2g4Q"}, {"name": "RS Halal Zabiha", "address": "2120 W. Devon Ave, Chicago, IL 60659", "phone": "(773) 274-4444", "state": "Illinois", "products": ["Chicken", "Lamb", "Goat", "Veal", "Beef"], "expires": "2025-12-31T00:00:00", "certification": "HMS", "lat": 41.997675, "lng": -87.6866738, "nav_url": "https://www.google.com/maps/search/?api=1&query=2120%20W.%20Devon%20Ave%2C%20Chicago%2C%20IL%2060659&query_place_id=ChIJNxLt3MLRD4gR9wD_36Enaic"}, {"name": "Adnan Supermarket and Halal Meat", "address": "332 Chamberlain Ave, Paterson, NJ 07502", "phone": "(862) 287-6808", "state": "New Jersey", "products": ["Chicken", "Lamb", "Goat", "Beef"], "expires": "2025-12-31T00:00:00", "certification": "HMS", "lat": 40.9228539, "lng": -74.1920566, "nav_url": "https://www.google.com/maps/search/?api=1&query=332%20Chamberlain%20Ave%2C%20Paterson%2C%20NJ%2007502&query_place_id=ChIJlVMc0pr9wokRkHmewuQliKU"}, {"name": "Great Halal", "address": "6601 S Cass Ave unit A, Westmont, IL 60559", "phone": "(630) 960-0960", "state": "Illinois", "products": ["Chicken", "Lamb", "Goat", "Veal", "Beef"], "expires": "2025-12-31T00:00:00", "certification": "HMS", "lat": 41.7677823, "lng": -87.9740466, "nav_url": "https://www.google.com/maps/search/?api=1&query=6601%20S%20Cass%20Ave%20unit%20A%2C%20Westmont%2C%20IL%2060559&query_place_id=ChIJd8vcl6lPDogRgc9URRZCjoM"}, {"name": "Walden Groceries", "address": "57 Walden Ave, Buffalo, NY 14211", "phone": "(716) 886-6989", "state": "New York", "products": ["Chicken", "Lamb", "Goat", "Veal", "Beef"], "expires": "2025-12-31T00:00:00", "certification": "HMS", "lat": 42.9033835, "lng": -78.83410289999999, "nav_url": "https://www.google.com/maps/search/?api=1&query=57%20Walden%20Ave%2C%20Buffalo%2C%20NY%2014211&query_place_id=ChIJ35F5n34N04kRwKfebsJP_H4"}, {"name": "Foster Food Market (A&Z International)", "address": "506 Foster Ave, Brooklyn, NY 11230", "phone": "(718) 437-5130", "state": "New York", "products": ["Chicken", "Lamb", "Goat", "Beef"], "expires": "2025-12-31T00:00:00", "certification": "HMS", "lat": 40.62938399999999, "lng": -73.9726103, "nav_url": "https://www.google.com/maps/search/?api=1&query=506%20Foster%20Ave%2C%20Brooklyn%2C%20NY%2011230&query_place_id=ChIJOZSm7dFEwokRvWXa1Gyo_zU"}, {"name": "Arwa Grocery", "address": "990 Rayford Rd, Spring, TX 77386", "phone": "(346) 351-1253", "state": "Texas", "products": ["Chicken", "Lamb", "Goat", "Veal", "Beef"], "expires": "2025-12-31T00:00:00", "certification": "HMS", "lat": 30.1271837, "lng": -95.42852719999999, "nav_url": "https://www.google.com/maps/search/?api=1&query=990%20Rayford%20Rd%2C%20Spring%2C%20TX%2077386&query_place_id=ChIJD_lm2fE1R4YRlelj5o7dG4M"}, {"name": "Nohadra Food Mart", "address": "5101 Washington St, Gurnee, IL 60031", "phone": "(847) 916-7060", "state": "Illinois", "products": ["Chicken", "Lamb", "Goat", "Veal", "Beef"], "expires": "2025-12-31T00:00:00", "certification": "HMS", "lat": 42.3623888, "lng": -87.9280661, "nav_url": "https://www.google.com/maps/search/?api=1&query=5101%20Washington%20St%2C%20Gurnee%2C%20IL%2060031&query_place_id=ChIJ41EQ24qTD4gRGgEBog9X4bY"}, {"name": "Arzan Market", "address": "4706 N Kimball Ave, Chicago, IL 60625", "phone": "(331) 444-6962", "state": "Illinois", "products": ["Chicken", "Lamb", "Goat", "Veal", "Beef"], "expires": "2025-12-31T00:00:00", "certification": "HMS", "lat": 41.9668774, "lng": -87.7138324, "nav_url": "https://www.google.com/maps/search/?api=1&query=4706%20N%20Kimball%20Ave%2C%20Chicago%2C%20IL%2060625&query_place_id=ChIJGW3aNcHND4gRa0z7ewU9F6U"}, {"name": "Al Falah Meats", "address": "160-02 Hillside Ave, Jamaica, NY 11432", "phone": "(917) 515-0652", "state": "New York", "products": ["Chicken", "Lamb", "Goat", "Veal", "Beef", "Turkey", "Duck"], "expires": "2025-12-31T00:00:00", "certification": "HMS", "lat": 40.7077515, "lng": -73.8015842, "nav_url": "https://www.google.com/maps/search/?api=1&query=160-02%20Hillside%20Ave%2C%20Jamaica%2C%20NY%2011432&query_place_id=ChIJA57rhCZhwokREyiYL_pcUtA"}, {"name": "Ali Baba Grocery", "address": "179 S SCHMALE RD, CAROL STREAM, IL 60188", "phone": "(630) 868-3572", "state": "Illinois", "products": ["Chicken", "Lamb", "Goat", "Veal", "Beef"], "expires": "2025-12-31T00:00:00", "certification": "HMS", "lat": 41.90073100000001, "lng": -88.1008454, "nav_url": "https://www.google.com/maps/search/?api=1&query=179%20S%20SCHMALE%20RD%2C%20CAROL%20STREAM%2C%20IL%2060188&query_place_id=ChIJPblbTlJVDogROZo5s5Baeio"}, {"name": "Halal Alshaam Market", "address": "570 E Algonquin Rd, Des Plaines, IL 60016", "phone": "(847) 376-8074", "state": "Illinois", "products": ["Chicken", "Lamb", "Goat", "Veal", "Beef"], "expires": "2024-12-31T00:00:00", "certification": "HMS", "lat": 42.0309549, "lng": -87.90979209999999, "nav_url": "https://www.google.com/maps/search/?api=1&query=570%20E%20Algonquin%20Rd%2C%20Des%20Plaines%2C%20IL%2060016&query_place_id=ChIJJc3R5ji3D4gRiHVRagxTmKQ"}, {"name": "Butcher Bros Zabiha Halal", "address": "2539 W Algonquin Rd, Algonquin, IL 60102", "phone": "(224) 333-0206", "state": "Illinois", "products": ["Chicken", "Lamb", "Goat", "Veal", "Beef"], "expires": "2025-12-31T00:00:00", "certification": "HMS", "lat": 42.175209, "lng": -88.3383297, "nav_url": "https://www.google.com/maps/search/?api=1&query=2539%20W%20Algonquin%20Rd%2C%20Algonquin%2C%20IL%2060102&query_place_id=ChIJRf0aZqsTD4gRIgIgELyttUY"}, {"name": "Madina Grocers", "address": "2507 W. Devon Ave, Chicago, IL 60659", "phone": "(773) 815-6014", "state": "Illinois", "products": ["Chicken", "Lamb", "Goat", "Veal", "Beef"], "expires": "2025-12-31T00:00:00", "certification": "HMS", "lat": 41.9975187, "lng": -87.69267649999999, "nav_url": "https://www.google.com/maps/search/?api=1&query=2507%20W.%20Devon%20Ave%2C%20Chicago%2C%20IL%2060659&query_place_id=ChIJPbLMJEHRD4gRl8CSMLwfrcU"}, {"name": "My Halal Meat", "address": "1025 W Golf Rd, Hoffman Estates, IL 60169", "phone": "(847) 524-5544", "state": "Illinois", "products": ["Chicken", "Lamb", "Goat", "Veal", "Beef"], "expires": "2025-12-31T00:00:00", "certification": "HMS", "lat": 42.047321, "lng": -88.10496499999999, "nav_url": "https://www.google.com/maps/search/?api=1&query=1025%20W%20Golf%20Rd%2C%20Hoffman%20Estates%2C%20IL%2060169&query_place_id=ChIJ6VS2awSvD4gR-44omPBqoq0"}, {"name": "Halal Mart", "address": "512 W Boughton Rd, Bolingbrook, IL 60440", "phone": "(630) 771-0011", "state": "Illinois", "products": ["Chicken", "Lamb", "Goat", "Veal", "Beef"], "expires": "2025-12-31T00:00:00", "certification": "HMS", "lat": 41.70808299999999, "lng": -88.08833, "nav_url": "https://www.google.com/maps/search/?api=1&query=512%20W%20Boughton%20Rd%2C%20Bolingbrook%2C%20IL%2060440&query_place_id=ChIJoYvUWipaDogRD6Ut8FuV0y0"}, {"name": "Amana Food Market", "address": "5661 Wansford Way, Rockford, IL 61109", "phone": "(815) 395-1233", "state": "Illinois", "products": ["Chicken", "Lamb", "Goat", "Veal", "Beef"], "expires": "2025-12-31T00:00:00", "certification": "HMS", "lat": 42.2371877, "lng": -89.0067352, "nav_url": "https://www.google.com/maps/search/?api=1&query=5661%20Wansford%20Way%2C%20Rockford%2C%20IL%2061109&query_place_id=ChIJG_zb0aW4CIgRrjw109Bm3ZA"}, {"name": "Al-Fatah Meat and Grocery", "address": "316 E Army Trail Rd, Glendale Heights, IL 60139", "phone": "(224) 653-9677", "state": "Illinois", "products": ["Chicken", "Lamb", "Goat", "Veal", "Beef"], "expires": "2025-12-31T00:00:00", "certification": "HMS", "lat": 41.93689819999999, "lng": -88.0753855, "nav_url": "https://www.google.com/maps/search/?api=1&query=316%20E%20Army%20Trail%20Rd%2C%20Glendale%20Heights%2C%20IL%2060139&query_place_id=ChIJS2bsJACtD4gRAInpWslELxw"}, {"name": "Mostafa Awkal Zabiha Halal Meat Market", "address": "856 S. RTE 59, Naperville, IL 60540", "phone": "(630) 313-4155", "state": "Illinois", "products": ["Chicken", "Lamb", "Goat", "Veal", "Beef", "CARRYING-HMS-LOGO-ONLY"], "expires": "2025-12-31T00:00:00", "certification": "HMS", "lat": 41.7554627, "lng": -88.2041886, "nav_url": "https://www.google.com/maps/search/?api=1&query=856%20S.%20RTE%2059%2C%20Naperville%2C%20IL%2060540&query_place_id=ChIJIdmjZy34DogREc3LYCBc9Q0"}, {"name": "Mecca Grocery", "address": "1016 S McLean Blvd, Elgin, IL 60123", "phone": "(224) 769-7137", "state": "Illinois", "products": ["Chicken", "Lamb", "Goat", "Veal", "Beef"], "expires": "2025-12-31T00:00:00", "certification": "HMS", "lat": 42.0076061, "lng": -88.3159471, "nav_url": "https://www.google.com/maps/search/?api=1&query=1016%20S%20McLean%20Blvd%2C%20Elgin%2C%20IL%2060123&query_place_id=ChIJR6Ro4JIFD4gRDC0Xa5lOtoY"}, {"name": "Towne Market", "address": "120 Cambridge St, Burlington, MA 01803", "phone": "(781) 221-7188", "state": "Massachusetts", "products": ["Chicken", "Lamb", "Goat", "Veal", "Beef"], "expires": "2025-12-31T00:00:00", "certification": "HMS", "lat": 42.4999843, "lng": -71.19326769999999, "nav_url": "https://www.google.com/maps/search/?api=1&query=120%20Cambridge%20St%2C%20Burlington%2C%20MA%2001803&query_place_id=ChIJa6ubP9if44kRNLDGOgHIRBs"}, {"name": "Hyderabad Palace", "address": "504 Boston Rd, Billerica, MA 01821", "phone": "(978) 362-8290", "state": "Massachusetts", "products": ["Chicken", "Lamb", "Goat", "Veal", "Beef"], "expires": "2025-12-31T00:00:00", "certification": "HMS", "lat": 42.5541579, "lng": -71.26420019999999, "nav_url": "https://www.google.com/maps/search/?api=1&query=504%20Boston%20Rd%2C%20Billerica%2C%20MA%2001821&query_place_id=ChIJ-3zRWxWh44kRkoxPrw1uxg0"}, {"name": "Sycamore Halal Meat", "address": "1061 Sycamore Street, Buffalo, NY 14212", "phone": "(716) 259-9498", "state": "New York", "products": ["Chicken", "Lamb", "Goat", "Veal", "Beef"], "expires": "2025-12-31T00:00:00", "certification": "HMS", "lat": 42.9001027, "lng": -78.8321847, "nav_url": "https://www.google.com/maps/search/?api=1&query=1061%20Sycamore%20Street%2C%20Buffalo%2C%20NY%2014212&query_place_id=ChIJZwg2yXgN04kRQAcS9JkohAk"}, {"name": "Ahsam Farms", "address": "6226 N. California Ave, Chicago, IL 60659", "phone": "(872) 302-4171", "state": "Illinois", "products": ["Chicken", "Lamb", "Goat", "Veal", "Beef"], "expires": "2024-12-31T00:00:00", "certification": "HMS", "lat": 41.994771, "lng": -87.699883, "nav_url": "https://www.google.com/maps/search/?api=1&query=6226%20N.%20California%20Ave%2C%20Chicago%2C%20IL%2060659&query_place_id=ChIJV0S0VwPPD4gRt7e9SAA_9Qg"}, {"name": "Rayan's Halal Market", "address": "5158 Main St, Skokie, IL 60077", "phone": "(847) 354-3136", "state": "Illinois", "products": ["Chicken", "Lamb", "Goat", "Veal", "Beef"], "expires": "2025-12-31T00:00:00", "certification": "HMS", "lat": 42.033848, "lng": -87.756806, "nav_url": "https://www.google.com/maps/search/?api=1&query=5158%20Main%20St%2C%20Skokie%2C%20IL%2060077&query_place_id=ChIJOdS0Kz7PD4gRkFxpHSw2g4Q"}, {"name": "A1-Food & Grocery", "address": "2319 W. Devon Ave, Chicago, IL 60659", "phone": "(773) 739-9308", "state": "Illinois", "products": ["Chicken", "Lamb", "Goat", "Veal", "Beef"], "expires": "2025-12-31T00:00:00", "certification": "HMS", "lat": 41.9975045, "lng": -87.6882795, "nav_url": "https://www.google.com/maps/search/?api=1&query=2319%20W.%20Devon%20Ave%2C%20Chicago%2C%20IL%2060659&query_place_id=ChIJQZV5bHXRD4gRH-GrFoPOIcE"}, {"name": "Sherins Halal Meat & Grocery", "address": "2090 Oak Tree Rd, Edison, NJ 08820", "phone": "(908) 244-1558", "state": "New Jersey", "products": ["Chicken", "Lamb", "Goat", "Beef"], "expires": "2025-12-31T00:00:00", "certification": "HMS", "lat": 40.5764636, "lng": -74.37716619999999, "nav_url": "https://www.google.com/maps/search/?api=1&query=2090%20Oak%20Tree%20Rd%2C%20Edison%2C%20NJ%2008820&query_place_id=ChIJk-VEFP-3w4kRqtR9JwsHkyE"}, {"name": "Halal Mart", "address": "1659 Rt 27, Edison, NJ 08817", "phone": "(848) 338-6167", "state": "New Jersey", "products": ["Chicken", "Lamb", "Goat", "Beef"], "expires": "2025-12-31T00:00:00", "certification": "HMS", "lat": 40.5100167, "lng": -74.4101532, "nav_url": "https://www.google.com/maps/search/?api=1&query=1659%20Rt%2027%2C%20Edison%2C%20NJ%2008817&query_place_id=ChIJt-zxc7fHw4kRowuqW-WIGbE"}, {"name": "Shams Halal Market", "address": "5510 Lafayette Rd Suite 100, Indianapolis, IN 46254", "phone": "(317) 964-1777", "state": "Indiana", "products": ["Chicken", "Lamb", "Goat", "Veal", "Beef"], "expires": "2025-12-31T00:00:00", "certification": "HMS", "lat": 39.8512244, "lng": -86.2625429, "nav_url": "https://www.google.com/maps/search/?api=1&query=5510%20Lafayette%20Rd%20Suite%20100%2C%20Indianapolis%2C%20IN%2046254&query_place_id=ChIJkZFJYnarbIgRlwFkSfx-Kbg"}, {"name": "Shree Sai Grocery ", "address": "816 S Rand Rd, Lake Zurich, IL 60047", "phone": "(847) 454-3362", "state": "Illinois", "products": ["Chicken", "Lamb", "Goat"], "expires": "2025-12-31T00:00:00", "certification": "HMS", "lat": 42.1858007, "lng": -88.08858769999999, "nav_url": "https://www.google.com/maps/search/?api=1&query=816%20S%20Rand%20Rd%2C%20Lake%20Zurich%2C%20IL%2060047&query_place_id=ChIJTcZoq-OjD4gRtPCOYlBkfxo"}, {"name": "Adal Meat Market", "address": "1051 Elmhurst Rd, Des Plaines, IL 60016", "phone": "(224) 817-8666", "state": "Illinois", "products": ["Chicken", "Lamb", "Goat", "Veal", "Beef"], "expires": "2025-12-31T00:00:00", "certification": "HMS", "lat": 42.0328453, "lng": -87.9399062, "nav_url": "https://www.google.com/maps/search/?api=1&query=1051%20Elmhurst%20Rd%2C%20Des%20Plaines%2C%20IL%2060016&query_place_id=ChIJz4vmx6uxD4gRDM3-5W2d2gE"}, {"name": "Asian Brothers", "address": "1820 Valley View Ln #132, Irving, TX 75061", "phone": "(972) 887-5955", "state": "Texas", "products": ["Chicken", "Lamb", "Goat", "Veal", "Beef"], "expires": "2025-12-31T00:00:00", "certification": "HMS", "lat": 32.8332444, "lng": -97.02150499999999, "nav_url": "https://www.google.com/maps/search/?api=1&query=1820%20Valley%20View%20Ln%20%23132%2C%20Irving%2C%20TX%2075061&query_place_id=ChIJ8dV_awCBToYRDXT4OBDOzhg"}, {"name": "Ozone Park Supermarket & Halal Meat", "address": "78-19 101 Ave, Ozone Park, NY 11416", "phone": "(718) 489-8740", "state": "New York", "products": ["Chicken", "Lamb", "Goat", "Beef"], "expires": "2025-12-23T00:00:00", "certification": "HMS", "lat": 40.6807233, "lng": -73.8589554, "nav_url": "https://www.google.com/maps/search/?api=1&query=78-19%20101%20Ave%2C%20Ozone%20Park%2C%20NY%2011416&query_place_id=ChIJxUsCfexdwokREUQ96luTsR0"}, {"name": "Palli Supermarket", "address": "1870 Bailey Ave, Buffalo, NY 14211", "phone": "(716) 240-9008", "state": "New York", "products": ["Chicken", "Lamb", "Goat", "Beef"], "expires": "2025-12-23T00:00:00", "certification": "HMS", "lat": 42.9054219, "lng": -78.8141666, "nav_url": "https://www.google.com/maps/search/?api=1&query=1870%20Bailey%20Ave%2C%20Buffalo%2C%20NY%2014211&query_place_id=ChIJh4Jhds4N04kRxGuZrbvA6iI"}, {"name": "Kawran Bazar Supermarket", "address": "87-54 168 Pl, Jamaica, NY 11432", "phone": "(718) 206-3913", "state": "New York", "products": ["Chicken", "Lamb", "Goat", "Veal", "Beef"], "expires": "2025-12-31T00:00:00", "certification": "HMS", "lat": 40.71062939999999, "lng": -73.7941548, "nav_url": "https://www.google.com/maps/search/?api=1&query=87-54%20168%20Pl%2C%20Jamaica%2C%20NY%2011432&query_place_id=ChIJRcVZ0h9hwokRjDm8U9BAiXc"}, {"name": "Daily Foods and Halal Market", "address": "1826 South Park Ave, Buffalo, NY 14220", "phone": "(716) 370-0070", "state": "New York", "products": ["Chicken", "Lamb", "Goat", "Beef"], "expires": "2025-01-24T00:00:00", "certification": "HMS", "lat": 42.84903430000001, "lng": -78.82356419999999, "nav_url": "https://www.google.com/maps/search/?api=1&query=1826%20South%20Park%20Ave%2C%20Buffalo%2C%20NY%2014220&query_place_id=ChIJbRPMOQAP04kRGgmS0nMa6Ho"}, {"name": "AZ Halal Meat and Grocery", "address": "1213 N Gary Ave, Carol Stream, IL 60188", "phone": "(630) 949-2189", "state": "Illinois", "products": ["Chicken", "Lamb", "Goat", "Veal", "Beef"], "expires": "2025-12-31T00:00:00", "certification": "HMS", "lat": 41.93547840000001, "lng": -88.11807019999999, "nav_url": "https://www.google.com/maps/search/?api=1&query=1213%20N%20Gary%20Ave%2C%20Carol%20Stream%2C%20IL%2060188&query_place_id=ChIJUy34iMCrD4gRyBUpHermm4k"}, {"name": "Makki Mart", "address": "2440 W Devon Ave, Chicago, IL 60659", "phone": "(773) 761-4626", "state": "Illinois", "products": ["Chicken", "Lamb", "Goat", "Veal", "Beef"], "expires": "2025-12-31T00:00:00", "certification": "HMS", "lat": 41.9979527, "lng": -87.69182769999999, "nav_url": "https://www.google.com/maps/search/?api=1&query=2440%20W%20Devon%20Ave%2C%20Chicago%2C%20IL%2060659&query_place_id=ChIJBYd9yd3RD4gRuby-e9TCF6c"}, {"name": "Hyderabad House Devon", "address": "2225 W. Devon Ave., Chicago, IL 60659", "phone": "(773)381-1230", "state": "Illinois", "products": ["Chicken", "Lamb", "Goat", "Veal", "Beef"], "expires": "2025-12-31T00:00:00", "certification": "HMS", "lat": 41.9976086, "lng": -87.6858282, "nav_url": "https://www.google.com/maps/search/?api=1&query=2225%20W.%20Devon%20Ave.%2C%20Chicago%2C%20IL%2060659&query_place_id=ChIJbWP15MLRD4gRahJkOoR68F8"}, {"name": "New Naan on Devon", "address": "2241 W. Devon Ave., Chicago, IL 60659", "phone": "(773) 262-7676", "state": "Illinois", "products": ["Chicken", "Lamb", "Goat", "Veal", "Beef"], "expires": "2025-12-31T00:00:00", "certification": "HMS", "lat": 41.9975739, "lng": -87.6866058, "nav_url": "https://www.google.com/maps/search/?api=1&query=2241%20W.%20Devon%20Ave.%2C%20Chicago%2C%20IL%2060659&query_place_id=ChIJP827LN3RD4gRnsD2bUymdJE"}, {"name": "Tahoora Sweet & Bakery", "address": "2345 W. Devon Ave. Chicago, IL 60659", "phone": "(773) 743-7272", "state": "Illinois", "products": ["Chicken", "Beef", "Misc"], "expires": "2025-12-31T00:00:00", "certification": "HMS", "lat": 41.9974987, "lng": -87.6892781, "nav_url": "https://www.google.com/maps/search/?api=1&query=2345%20W.%20Devon%20Ave.%20Chicago%2C%20IL%2060659&query_place_id=ChIJSePZG93RD4gRKPqsofmWZps"}, {"name": "Bundoo Khan Restaurant", "address": "2539 W. Devon Ave., Chicago, IL - 60659", "phone": "(872) 241-9100", "state": "Illinois", "products": ["Chicken", "Lamb", "Goat", "Veal", "Beef"], "expires": "2025-12-31T00:00:00", "certification": "HMS", "lat": 41.9975653, "lng": -87.69372949999999, "nav_url": "https://www.google.com/maps/search/?api=1&query=2539%20W.%20Devon%20Ave.%2C%20Chicago%2C%20IL%20-%2060659&query_place_id=ChIJBxXjZ97RD4gRXIoraPBYWkQ"}, {"name": "Charminar Restaurant", "address": "6350 N. Campbell Ave., Chicago, IL - 60659", "phone": "(773) 508-6766", "state": "Illinois", "products": ["Chicken", "Lamb", "Goat", "Veal", "Beef"], "expires": "2025-12-31T00:00:00", "certification": "HMS", "lat": 41.9974098, "lng": -87.6924427, "nav_url": "https://www.google.com/maps/search/?api=1&query=6350%20N.%20Campbell%20Ave.%2C%20Chicago%2C%20IL%20-%2060659&query_place_id=ChIJQeIj193RD4gRiMoc6YYL0K8"}, {"name": "Ajwaah Sweets", "address": "2453 W. Devon Ave., Chicago, IL 60645", "phone": "(773) 262-4444", "state": "Illinois", "products": ["Chicken", "Veal", "Beef", "Misc"], "expires": "2024-12-31T00:00:00", "certification": "HMS", "lat": 41.9975967, "lng": -87.69191789999999, "nav_url": "https://www.google.com/maps/search/?api=1&query=2453%20W.%20Devon%20Ave.%2C%20Chicago%2C%20IL%2060645&query_place_id=ChIJ7Ri-z93RD4gRPnKE_0jqBgI"}, {"name": "Halal Express Cusine", "address": "17W731 Roosevelt Rd. Oakbrook, Terrace, IL - 60181", "phone": "(630) 678-0790", "state": "Illinois", "products": ["Chicken", "Lamb", "Goat", "Beef"], "expires": "2025-12-31T00:00:00", "certification": "HMS", "lat": 41.859447, "lng": -87.97733149999999, "nav_url": "https://www.google.com/maps/search/?api=1&query=17W731%20Roosevelt%20Rd.%20Oakbrook%2C%20Terrace%2C%20IL%20-%2060181&query_place_id=ChIJU3Co06tNDogR3q9Q21uqbrQ"}, {"name": "Addys BBQ", "address": "799 Elmont Road, Elmont", "phone": " (516) 285-6000", "state": "New York", "products": ["Chicken", "Lamb", "Goat", "Beef"], "expires": "2024-12-31T00:00:00", "certification": "HMS", "lat": 40.6906331, "lng": -73.7205017, "nav_url": "https://www.google.com/maps/search/?api=1&query=799%20Elmont%20Road%2C%20Elmont&query_place_id=ChIJu47ysZNjwokR-_RrRU05pMs"}, {"name": "Wok & Grill", "address": "739 Elmont Road, Elmont, NY 11003", "phone": "(516) 285-1100", "state": "New York", "products": ["Chicken", "Goat", "Beef"], "expires": "2025-12-31T00:00:00", "certification": "HMS", "lat": 40.69199, "lng": -73.719425, "nav_url": "https://www.google.com/maps/search/?api=1&query=739%20Elmont%20Road%2C%20Elmont%2C%20NY%2011003&query_place_id=ChIJy9qX7ZNjwokR6YLc17QcrHs"}, {"name": "Holy Cow Restaurant Inc.", "address": "34 Canal St, New York, NY 10002", "phone": "(347)630-9155", "state": "New York", "products": ["Chicken", "Lamb", "Beef", "Turkey"], "expires": "2025-12-31T00:00:00", "certification": "HMS", "lat": 40.7144105, "lng": -73.9906865, "nav_url": "https://www.google.com/maps/search/?api=1&query=34%20Canal%20St%2C%20New%20York%2C%20NY%2010002&query_place_id=ChIJq6pmp6hZwokRVVybYtzIWr4"}, {"name": "The Halal Burger", "address": "6234 N California Ave, Chicago, IL 60659", "phone": "(773) 856-6663", "state": "Illinois", "products": ["Chicken", "Beef"], "expires": "2025-12-31T00:00:00", "certification": "HMS", "lat": 41.9950129, "lng": -87.6999213, "nav_url": "https://www.google.com/maps/search/?api=1&query=6234%20N%20California%20Ave%2C%20Chicago%2C%20IL%2060659&query_place_id=ChIJg0P2nR_OD4gRmp-k8AOMc7U"}, {"name": "Anmol Restaurant", "address": "711 W Mitchell St, Milwaukee, WI 53204", "phone": "(414) 672-7878", "state": "Wisconsin", "products": ["Chicken", "Lamb", "Goat", "Veal", "Beef"], "expires": "2025-12-31T00:00:00", "certification": "HMS", "lat": 43.0121025, "lng": -87.9203993, "nav_url": "https://www.google.com/maps/search/?api=1&query=711%20W%20Mitchell%20St%2C%20Milwaukee%2C%20WI%2053204&query_place_id=ChIJ5WJ3Gu8ZBYgRi85ncE0qbHc"}, {"name": "Anmol BBQ", "address": "2858 W Devon Ave, Chicago, IL 60659", "phone": "(773) 508-5050", "state": "Illinois", "products": ["Chicken", "Lamb", "Goat", "Veal", "Beef"], "expires": "2025-12-31T00:00:00", "certification": "HMS", "lat": 41.9975542, "lng": -87.6934137, "nav_url": "https://www.google.com/maps/search/?api=1&query=2858%20W%20Devon%20Ave%2C%20Chicago%2C%20IL%2060659&query_place_id=ChIJtUa3jyHOD4gR-oHcjGTylgo"}, {"name": "Jerusalem Cafe", "address": "300 W. Roosevelt Rd, Lombard, IL 60148", "phone": "(630) 629-6400", "state": "Illinois", "products": ["Chicken", "Lamb", "Beef"], "expires": "2024-12-31T00:00:00", "certification": "HMS", "lat": 41.86018199999999, "lng": -88.02324259999999, "nav_url": "https://www.google.com/maps/search/?api=1&query=300%20W.%20Roosevelt%20Rd%2C%20Lombard%2C%20IL%2060148&query_place_id=ChIJrbsbHGNSDogR_ap4x9FBJwo"}, {"name": "Tabaq Restaurant", "address": "1245 N. Clybourn Ave, Chicago, IL 60610", "phone": "(312) 944-1245", "state": "Illinois", "products": ["Chicken", "Lamb", "Goat", "Veal", "Beef"], "expires": "2025-12-31T00:00:00", "certification": "HMS", "lat": 41.9047776, "lng": -87.6406545, "nav_url": "https://www.google.com/maps/search/?api=1&query=1245%20N.%20Clybourn%20Ave%2C%20Chicago%2C%20IL%2060610&query_place_id=ChIJd5wenTfTD4gR12h2iKWrxwc"}, {"name": "House of Biryani", "address": "2306 W Devon Ave, Chicago, IL 60659", "phone": "(773) 654-3228", "state": "Illinois", "products": ["Chicken", "Lamb", "Goat"], "expires": "2025-12-31T00:00:00", "certification": "HMS", "lat": 41.9979339, "lng": -87.68785, "nav_url": "https://www.google.com/maps/search/?api=1&query=2306%20W%20Devon%20Ave%2C%20Chicago%2C%20IL%2060659&query_place_id=ChIJ-VLLABrRD4gR323fqUjmwxE"}, {"name": "Khan BBQ", "address": "2401 W Devon Ave, Chicago, IL 60659", "phone": "(773) 274-8600", "state": "Illinois", "products": ["Chicken", "Lamb", "Goat", "Veal", "Beef"], "expires": "2025-12-31T00:00:00", "certification": "HMS", "lat": 41.997522, "lng": -87.690192, "nav_url": "https://www.google.com/maps/search/?api=1&query=2401%20W%20Devon%20Ave%2C%20Chicago%2C%20IL%2060659&query_place_id=ChIJVSqYBt3RD4gRYGhqSbNd4II"}, {"name": "Sheeba Mandi House", "address": "3456 W. Foster Ave, Chicago, IL 60625", "phone": "(773) 654-3349", "state": "Illinois", "products": ["Chicken", "Lamb", "Beef"], "expires": "2025-12-31T00:00:00", "certification": "HMS", "lat": 41.9758973, "lng": -87.7157186, "nav_url": "https://www.google.com/maps/search/?api=1&query=3456%20W.%20Foster%20Ave%2C%20Chicago%2C%20IL%2060625&query_place_id=ChIJe0IOdubND4gRUMlFK1R2-GI"}, {"name": "Serena Restaurant", "address": "2536 W Devon Ave, Chicago, IL 60659", "phone": "(773) 338-5800", "state": "Illinois", "products": ["Chicken", "Goat", "Veal", "Beef"], "expires": "2025-12-31T00:00:00", "certification": "HMS", "lat": 41.9978266, "lng": -87.69381930000002, "nav_url": "https://www.google.com/maps/search/?api=1&query=2536%20W%20Devon%20Ave%2C%20Chicago%2C%20IL%2060659&query_place_id=ChIJlfzvLd3RD4gR-b0cL6G6U5o"}, {"name": "Kabab King Grill", "address": "2305 W. Devon Ave, Chicago, IL 60659", "phone": "(773) 856-3786", "state": "Illinois", "products": ["Chicken", "Lamb", "Goat", "Veal", "Beef"], "expires": "2025-12-31T00:00:00", "certification": "HMS", "lat": 41.9975885, "lng": -87.6877116, "nav_url": "https://www.google.com/maps/search/?api=1&query=2305%20W.%20Devon%20Ave%2C%20Chicago%2C%20IL%2060659&query_place_id=ChIJpfUT2bfRD4gRXeQwTZ9niNc"}, {"name": "Mughal Bakery", "address": "6346 - 48 N. Maplewood Ave, Chicago, IL 60659", "phone": "(773) 761-9660", "state": "Illinois", "products": ["Misc", "All Bakery Items"], "expires": "2025-12-31T00:00:00", "certification": "HMS", "lat": 41.997269, "lng": -87.693736, "nav_url": "https://www.google.com/maps/search/?api=1&query=6346%20-%2048%20N.%20Maplewood%20Ave%2C%20Chicago%2C%20IL%2060659&query_place_id=ChIJv8k8aCDOD4gRSNs_Xg1g1dE"}, {"name": "Four Seasons Steak & Grill", "address": "260 W North Ave, Addison, IL 60101", "phone": "(630) 519-5929", "state": "Illinois", "products": ["Chicken", "Lamb", "Goat", "Veal", "Beef"], "expires": "2025-12-31T00:00:00", "certification": "HMS", "lat": 41.9055547, "lng": -87.9947875, "nav_url": "https://www.google.com/maps/search/?api=1&query=260%20W%20North%20Ave%2C%20Addison%2C%20IL%2060101&query_place_id=ChIJZYGvfdizD4gR_wy6pevrpf4"}, {"name": "Centro Burgers and Shakes", "address": "1271 S. Main St, Lombard, IL 60148", "phone": "(331) 307-7902", "state": "Illinois", "products": ["Chicken", "Lamb", "Goat", "Veal", "Beef"], "expires": "2025-12-31T00:00:00", "certification": "HMS", "lat": 41.8585853, "lng": -88.016578, "nav_url": "https://www.google.com/maps/search/?api=1&query=1271%20S.%20Main%20St%2C%20Lombard%2C%20IL%2060148&query_place_id=ChIJS9rUC_tTDogRyhpyM1HemIs"}, {"name": "Makkah Catering", "address": "17W612 14th St Oakbrook Terrace, IL", "phone": "(630) 475-1234", "state": "Illinois", "products": ["Chicken", "Lamb", "Goat", "Veal", "Beef", "Caterer"], "expires": "2024-12-31T00:00:00", "certification": "HMS", "lat": 41.8573139, "lng": -87.97381, "nav_url": "https://www.google.com/maps/search/?api=1&query=17W612%2014th%20St%20Oakbrook%20Terrace%2C%20IL&query_place_id=ChIJZz1m1SBNDogRIxmBq2_J674"}, {"name": "Desi Dhaaba", "address": "3900 Washington St, Gurnee, IL 60031", "phone": "(224) 637-3233", "state": "Illinois", "products": ["Chicken", "Goat"], "expires": "2025-12-31T00:00:00", "certification": "HMS", "lat": 42.3604551, "lng": -87.8984182, "nav_url": "https://www.google.com/maps/search/?api=1&query=3900%20Washington%20St%2C%20Gurnee%2C%20IL%2060031&query_place_id=ChIJKfpu5WOSD4gRDfXH99H7Ozk"}, {"name": "Anmol South Asian Kitchen", "address": "1550 Rt 59, Ste 168 - 170, Naperville, IL 60653", "phone": "(630) 946-6760", "state": "Illinois", "products": ["Chicken", "Lamb", "Goat", "Veal", "Beef"], "expires": "2024-12-31T00:00:00", "certification": "HMS", "lat": 41.7956236, "lng": -88.20454199999999, "nav_url": "https://www.google.com/maps/search/?api=1&query=1550%20Rt%2059%2C%20Ste%20168%20-%20170%2C%20Naperville%2C%20IL%2060653&query_place_id=ChIJrZeKqzT5DogRSDI8ptOVgeU"}, {"name": "Eatzy Chinese", "address": "37 - 21 72nd Street, Jackson Heights, NY 11372", "phone": "(718) 533-9131", "state": "New York", "products": ["Chicken", "Lamb", "Goat", "Veal", "Beef"], "expires": "2025-12-31T00:00:00", "certification": "HMS", "lat": 40.7480732, "lng": -73.8935493, "nav_url": "https://www.google.com/maps/search/?api=1&query=37%20-%2021%2072nd%20Street%2C%20Jackson%20Heights%2C%20NY%2011372&query_place_id=ChIJy0VDjRVfwokR4AFVAogIVuk"}, {"name": "Bundoo Khan Express", "address": "2603 Aurora Ave Unit 123, Naperville, IL 60540", "phone": "(630) 857-9704 (and 9705)", "state": "Illinois", "products": ["Chicken", "Lamb", "Goat", "Veal", "Beef"], "expires": "2025-12-31T00:00:00", "certification": "HMS", "lat": 41.76439, "lng": -88.1981572, "nav_url": "https://www.google.com/maps/search/?api=1&query=2603%20Aurora%20Ave%20Unit%20123%2C%20Naperville%2C%20IL%2060540&query_place_id=ChIJx5TXHjv5DogRnu6n6oMsY7c"}, {"name": "Bismillah Restaurant", "address": "475 W. Boughton Rd, Bolingbrook, IL 60440", "phone": "(630) 759-4429", "state": "Illinois", "products": ["Chicken", "Lamb", "Goat", "Veal", "Beef"], "expires": "2025-12-31T00:00:00", "certification": "HMS", "lat": 41.7066065, "lng": -88.0861292, "nav_url": "https://www.google.com/maps/search/?api=1&query=475%20W.%20Boughton%20Rd%2C%20Bolingbrook%2C%20IL%2060440&query_place_id=ChIJdU4mnytaDogRZE_q6xXr92w"}, {"name": "Kababjees", "address": "495-18 South Broadway, Hicksville, NY 11801", "phone": "(516) 597-5777", "state": "New York", "products": ["Chicken", "Lamb", "Goat", "Beef"], "expires": "2025-12-31T00:00:00", "certification": "HMS", "lat": 40.7572959, "lng": -73.51020919999999, "nav_url": "https://www.google.com/maps/search/?api=1&query=495-18%20South%20Broadway%2C%20Hicksville%2C%20NY%2011801&query_place_id=ChIJQyZIvVeAwokR5xffYPDTgBM"}, {"name": "Nay Restaurant", "address": "365 E. North Ave, Glendale Heights, IL 60139", "phone": "(630) 868-3744", "state": "Illinois", "products": ["Chicken", "Lamb", "Beef"], "expires": "2024-12-31T00:00:00", "certification": "HMS", "lat": 41.9025785, "lng": -88.07461579999999, "nav_url": "https://www.google.com/maps/search/?api=1&query=365%20E.%20North%20Ave%2C%20Glendale%20Heights%2C%20IL%2060139&query_place_id=ChIJvcJxQUtTDogRPVTch4xHrUg"}, {"name": "Tasty Nihari", "address": "2255 W Schaumburg Rd, Schaumburg, IL 60194", "phone": "(847) 524-1401", "state": "Illinois", "products": ["Chicken", "Goat", "Beef"], "expires": "2025-12-31T00:00:00", "certification": "HMS", "lat": 42.024401, "lng": -88.13641799999999, "nav_url": "https://www.google.com/maps/search/?api=1&query=2255%20W%20Schaumburg%20Rd%2C%20Schaumburg%2C%20IL%2060194&query_place_id=ChIJDd6W5lKoD4gRVqTPcZ_JWuk"}, {"name": "Afghan Kabob", "address": "6002 W. Dempster St, Morton Grove, IL 60053", "phone": "(224) 534-7262", "state": "Illinois", "products": ["Chicken", "Lamb", "Beef"], "expires": "2025-12-31T00:00:00", "certification": "HMS", "lat": 42.0411742, "lng": -87.77668129999999, "nav_url": "https://www.google.com/maps/search/?api=1&query=6002%20W.%20Dempster%20St%2C%20Morton%20Grove%2C%20IL%2060053&query_place_id=ChIJY4Pnx_vJD4gRmANn1JR-vD8"}, {"name": "Hussain Catering", "address": "1214 S Highland Ave, Lombard, IL 60148", "phone": "(773) 289-8089", "state": "Illinois", "products": ["Chicken", "Lamb", "Goat", "Veal", "Beef", "Caterer"], "expires": "2025-12-31T00:00:00", "certification": "HMS", "lat": 41.8595886, "lng": -88.0127334, "nav_url": "https://www.google.com/maps/search/?api=1&query=1214%20S%20Highland%20Ave%2C%20Lombard%2C%20IL%2060148&query_place_id=ChIJldMR9btTDogRyqtFNPT7rqM"}, {"name": "Holy Cow Elmont", "address": "240-09 Linden Blvd, Elmont, NY 11003", "phone": "(516) 636-5299", "state": "New York", "products": ["Chicken", "Lamb", "Beef", "Turkey"], "expires": "2025-12-31T00:00:00", "certification": "HMS", "lat": 40.689694, "lng": -73.722105, "nav_url": "https://www.google.com/maps/search/?api=1&query=240-09%20Linden%20Blvd%2C%20Elmont%2C%20NY%2011003&query_place_id=ChIJJfRdKytjwokRt3PjGRYlQSo"}, {"name": "Vita Vita International", "address": "6315 N. Milwaukee Ave, Chicago, IL 60646", "phone": "(773) 853-0058", "state": "Illinois", "products": ["Misc", "D3", "B12", "ZINC-CITRATE", "TURMERIC-BLEND", "ZINC-ECHINACEA", "LIPOSOMAL-VITAMIN-C", "MULTIVITAMINS-MEN", "MULTIVITAMINS-WOMEN", "MULTIVITAMINS-PRENATAL"], "expires": "2024-12-31T00:00:00", "certification": "HMS", "lat": 41.9958271, "lng": -87.78593479999999, "nav_url": "https://www.google.com/maps/search/?api=1&query=6315%20N.%20Milwaukee%20Ave%2C%20Chicago%2C%20IL%2060646&query_place_id=ChIJWyridkjJD4gRiOzt0pyJN9c"}, {"name": "Eatzy Thai", "address": "33-09 Broadway, Astoria, NY 11106", "phone": "(718) 956-7117", "state": "New York", "products": ["Chicken", "Lamb", "Beef"], "expires": "2025-12-31T00:00:00", "certification": "HMS", "lat": 40.7611523, "lng": -73.92333649999999, "nav_url": "https://www.google.com/maps/search/?api=1&query=33-09%20Broadway%2C%20Astoria%2C%20NY%2011106&query_place_id=ChIJh3du_ddfwokRFatN-f8F0-U"}, {"name": "Perdesi Grill", "address": "1184 Roosevelt Rd, Glen Ellyn, IL 60137", "phone": "(630) 678-9288", "state": "Illinois", "products": ["Chicken", "Lamb", "Goat", "Veal", "Beef"], "expires": "2025-12-31T00:00:00", "certification": "HMS", "lat": 41.8601621, "lng": -88.0328452, "nav_url": "https://www.google.com/maps/search/?api=1&query=1184%20Roosevelt%20Rd%2C%20Glen%20Ellyn%2C%20IL%2060137&query_place_id=ChIJ_6uFvlhSDogR7E2CjxEu1Zc"}, {"name": "Al Maidah Indian Restaurant", "address": "1921 Main St, Tewksbury, MA 01876", "phone": "(781) 300-0100", "state": "Massachusetts", "products": ["Chicken", "Lamb", "Goat", "Beef"], "expires": "2025-12-31T00:00:00", "certification": "HMS", "lat": 42.590387, "lng": -71.2050275, "nav_url": "https://www.google.com/maps/search/?api=1&query=1921%20Main%20St%2C%20Tewksbury%2C%20MA%2001876&query_place_id=ChIJwcKypbyg44kR6OzCWR49-Dw"}, {"name": "Taj Grill & Gyro", "address": "700 Oak Tree Ave, South Plainfield, NJ 07080", "phone": "(908) 941-3430", "state": "New Jersey", "products": ["Chicken", "Lamb", "Beef"], "expires": "2025-12-31T00:00:00", "certification": "HMS", "lat": 40.57646270000001, "lng": -74.3919384, "nav_url": "https://www.google.com/maps/search/?api=1&query=700%20Oak%20Tree%20Ave%2C%20South%20Plainfield%2C%20NJ%2007080&query_place_id=ChIJYTY_OSi3w4kR1Y2x7xF6Hvo"}, {"name": "Tawakkul Restaurant", "address": "6410 N. Claremont Ave, Chicago, IL 60659", "phone": "(773) 654-1424", "state": "Illinois", "products": ["Chicken", "Lamb", "Goat", "Beef"], "expires": "2025-12-31T00:00:00", "certification": "HMS", "lat": 41.9981452, "lng": -87.6888273, "nav_url": "https://www.google.com/maps/search/?api=1&query=6410%20N.%20Claremont%20Ave%2C%20Chicago%2C%20IL%2060659&query_place_id=ChIJ6-WW5ZHRD4gRDuLnboloUEw"}, {"name": "Asia Grocers", "address": "27616 Middlebelt Rd, Farmington Hills, MI 48334", "phone": "(248) 426-9000", "state": "Michigan", "products": ["Chicken", "Lamb", "Goat", "Veal", "Beef"], "expires": "2025-12-31T00:00:00", "certification": "HMS", "lat": 42.4978142, "lng": -83.33762019999999, "nav_url": "https://www.google.com/maps/search/?api=1&query=27616%20Middlebelt%20Rd%2C%20Farmington%20Hills%2C%20MI%2048334&query_place_id=ChIJx-Z2VrSwJIgRMsocP2s4ie4"}, {"name": "Samosa Paradise", "address": "804 Newark Ave, Jersey City, NJ 07306", "phone": "(201) 414-9493", "state": "New Jersey", "products": ["Chicken", "Lamb", "Goat", "Veal", "Beef"], "expires": "2024-12-31T00:00:00", "certification": "HMS", "lat": 40.7357388, "lng": -74.0650826, "nav_url": "https://www.google.com/maps/search/?api=1&query=804%20Newark%20Ave%2C%20Jersey%20City%2C%20NJ%2007306&query_place_id=ChIJk8YqJhNXwokRGIXhOOw7eq4"}, {"name": "Ali Baba Kabab", "address": "869 S ROSELLE RD, SCHAUMBURG, IL 60193", "phone": "(630) 912-4499", "state": "Illinois", "products": ["Chicken", "Lamb", "Beef"], "expires": "2025-12-31T00:00:00", "certification": "HMS", "lat": 42.0113922, "lng": -88.0789013, "nav_url": "https://www.google.com/maps/search/?api=1&query=869%20S%20ROSELLE%20RD%2C%20SCHAUMBURG%2C%20IL%2060193&query_place_id=ChIJpfIlTrivD4gR-DCk43kSCmQ"}, {"name": "Pariwaar Delights", "address": "827 Newark Ave, Jersey City", "phone": "(201) 217-1800", "state": "New Jersey", "products": ["Chicken", "Lamb", "Goat", "Beef"], "expires": "2025-12-31T00:00:00", "certification": "HMS", "lat": 40.7354704, "lng": -74.0662024, "nav_url": "https://www.google.com/maps/search/?api=1&query=827%20Newark%20Ave%2C%20Jersey%20City&query_place_id=ChIJJ3_FgYRXwokR6dKWDxTVhXE"}, {"name": "Halal Eatz", "address": "195 Cambridge Street, Burlington, MA 01803", "phone": "(781) 203-1554", "state": "Massachusetts", "products": ["Chicken", "Lamb", "Beef"], "expires": "2025-12-31T00:00:00", "certification": "HMS", "lat": 42.5107485, "lng": -71.201223, "nav_url": "https://www.google.com/maps/search/?api=1&query=195%20Cambridge%20Street%2C%20Burlington%2C%20MA%2001803&query_place_id=ChIJge-haRSf44kRm8atGHKHf8U"}, {"name": "Tim Tim's Halal Grill", "address": "4148 W MONTROSE AVE, CHICAGO, IL 60641", "phone": "(773) 657-3180", "state": "Illinois", "products": ["Chicken", "Beef"], "expires": "2025-12-31T00:00:00", "certification": "HMS", "lat": 41.9610179, "lng": -87.7318904, "nav_url": "https://www.google.com/maps/search/?api=1&query=4148%20W%20MONTROSE%20AVE%2C%20CHICAGO%2C%20IL%2060641&query_place_id=ChIJvYTouTrND4gRuccr5Ls5QfE"}, {"name": "Hyderabad House Schaumburg", "address": "825 W. HIGGINS, SCHAUMBURG, IL 60194 ", "phone": "(847) 466-7055", "state": "Illinois", "products": ["Chicken", "Lamb", "Goat", "Veal", "Beef"], "expires": "2025-12-31T00:00:00", "certification": "HMS", "lat": 42.0495536, "lng": -88.1010078, "nav_url": "https://www.google.com/maps/search/?api=1&query=825%20W.%20HIGGINS%2C%20SCHAUMBURG%2C%20IL%2060194%20&query_place_id=ChIJLXJhMPapD4gRsU-xA25ENrE"}, {"name": "Shalimar Restaurant", "address": "474 N. GREENBAY RD, WAUKEGAN, IL 60085 ", "phone": "(847) 599-9306", "state": "Illinois", "products": ["Chicken", "Lamb", "Goat", "Veal", "Beef"], "expires": "2025-12-31T00:00:00", "certification": "HMS", "lat": 42.3664863, "lng": -87.87980639999999, "nav_url": "https://www.google.com/maps/search/?api=1&query=474%20N.%20GREENBAY%20RD%2C%20WAUKEGAN%2C%20IL%2060085%20&query_place_id=ChIJBw9AJxuTD4gR-uKfFdmpKHs"}, {"name": "BBQ King", "address": "3112 N Jupiter Rd #307, Garland, TX 75044", "phone": "(972) 807-6910", "state": "Texas", "products": ["Chicken", "Lamb", "Goat", "Veal", "Beef"], "expires": "2025-12-31T00:00:00", "certification": "HMS", "lat": 32.9456926, "lng": -96.6808676, "nav_url": "https://www.google.com/maps/search/?api=1&query=3112%20N%20Jupiter%20Rd%20%23307%2C%20Garland%2C%20TX%2075044&query_place_id=ChIJ-24KWjcfTIYR44-lnyZi_j8"}, {"name": "Mannan Bakery", "address": "71-14 35 Ave, Jackson Heights, NY 11372", "phone": "(718) 424-0262", "state": "New York", "products": ["Chicken", "Lamb", "Goat", "Veal", "Beef", "All Bakery Items"], "expires": "2025-12-31T00:00:00", "certification": "HMS", "lat": 40.7506644, "lng": -73.8943899, "nav_url": "https://www.google.com/maps/search/?api=1&query=71-14%2035%20Ave%2C%20Jackson%20Heights%2C%20NY%2011372&query_place_id=ChIJR-TDiTFfwokRfin9symmnGg"}, {"name": "Khizer's Kitchen", "address": "112 N BOLINGBROOK DR.BOLINGBROOK, IL 60440", "phone": "(630) 863-7018", "state": "Illinois", "products": ["Chicken", "Lamb", "Goat", "Veal", "Beef"], "expires": "2025-12-31T00:00:00", "certification": "HMS", "lat": 41.6990312, "lng": -88.06691409999999, "nav_url": "https://www.google.com/maps/search/?api=1&query=112%20N%20BOLINGBROOK%20DR.BOLINGBROOK%2C%20IL%2060440&query_place_id=ChIJ61hP8mFbDogRLa-bHgj7abI"}, {"name": "Mannan Bakery & Restaurant", "address": "167-15 Hillside Ave, Jamaica, NY 11432", "phone": "(718) 374-3679", "state": "New York", "products": ["Chicken", "Lamb", "Goat", "Veal", "Beef", "All Bakery Items"], "expires": "2025-12-31T00:00:00", "certification": "HMS", "lat": 40.7100794, "lng": -73.7950784, "nav_url": "https://www.google.com/maps/search/?api=1&query=167-15%20Hillside%20Ave%2C%20Jamaica%2C%20NY%2011432&query_place_id=ChIJHzcwHxRhwokR0x3k4QlCe-k"}, {"name": "Fire Stone Grill & Pizza", "address": "380 B Franklin Ave, Franklin Square, NY 11010", "phone": "(516) 326-1214", "state": "New York", "products": ["Chicken", "Lamb", "Goat", "Beef"], "expires": "2024-12-31T00:00:00", "certification": "HMS", "lat": 40.6978916, "lng": -73.6827302, "nav_url": "https://www.google.com/maps/search/?api=1&query=380%20B%20Franklin%20Ave%2C%20Franklin%20Square%2C%20NY%2011010&query_place_id=ChIJrWYJS4ZjwokRTjapL3BBF28"}, {"name": "Karahi Corner", "address": "2658 W Devon Ave Chicago IL 60659", "phone": "(773) 856-3090", "state": "Illinois", "products": ["Chicken", "Lamb", "Goat", "Veal", "Beef"], "expires": "2025-12-31T00:00:00", "certification": "HMS", "lat": 41.99771399999999, "lng": -87.69705669999999, "nav_url": "https://www.google.com/maps/search/?api=1&query=2658%20W%20Devon%20Ave%20Chicago%20IL%2060659&query_place_id=ChIJCUAFhd_RD4gRgCqVKXZoOuw"}, {"name": "Pita & Hummus", "address": "1655 Stelton Rd, Piscataway, NJ 08854", "phone": "(732) 354-4648", "state": "New Jersey", "products": ["Chicken", "Lamb", "Goat", "Beef"], "expires": "2025-12-31T00:00:00", "certification": "HMS", "lat": 40.5338231, "lng": -74.4190485, "nav_url": "https://www.google.com/maps/search/?api=1&query=1655%20Stelton%20Rd%2C%20Piscataway%2C%20NJ%2008854&query_place_id=ChIJNwplLyTHw4kRHdiVjMPu1Jk"}, {"name": "Mannan Sweets & Restaurant", "address": "75-13 101 Ave, Ozone Park, NY 11416", "phone": "(718) 480-6880", "state": "New York", "products": ["Chicken", "Lamb", "Goat", "Veal", "Beef"], "expires": "2025-12-31T00:00:00", "certification": "HMS", "lat": 40.6799204, "lng": -73.86187530000001, "nav_url": "https://www.google.com/maps/search/?api=1&query=75-13%20101%20Ave%2C%20Ozone%20Park%2C%20NY%2011416&query_place_id=ChIJV2CzMJ5dwokRhp6R0wonl8M"}, {"name": "Poblano's Piri Piri", "address": "3636 N Belt Line Rd, Irving, TX 75062", "phone": "(972) 514-1792", "state": "Texas", "products": ["Chicken", "Lamb", "Beef"], "expires": "2025-12-31T00:00:00", "certification": "HMS", "lat": 32.8561251, "lng": -96.9906987, "nav_url": "https://www.google.com/maps/search/?api=1&query=3636%20N%20Belt%20Line%20Rd%2C%20Irving%2C%20TX%2075062&query_place_id=ChIJkRcV8-yDToYRKE34sm6lIeo"}, {"name": "Star Restaurant", "address": "326 Chamberlain Ave, Paterson, NJ 07502", "phone": "(973) 653-3208", "state": "New Jersey", "products": ["Chicken", "Lamb", "Goat", "Beef"], "expires": "2025-12-31T00:00:00", "certification": "HMS", "lat": 40.9228074, "lng": -74.1922056, "nav_url": "https://www.google.com/maps/search/?api=1&query=326%20Chamberlain%20Ave%2C%20Paterson%2C%20NJ%2007502&query_place_id=ChIJEzEbfxD9wokRda0Omv3k_m0"}, {"name": "Mannan Bakery Factory", "address": "149-21 Jamaica Ave, Jamaica, NY 11435", "phone": "0000000000", "state": "New York", "products": ["Chicken", "Lamb", "Goat", "Beef", "All Bakery Items"], "expires": "2025-12-31T00:00:00", "certification": "HMS", "lat": 40.7100794, "lng": -73.7950784, "nav_url": "https://www.google.com/maps/search/?api=1&query=149-21%20Jamaica%20Ave%2C%20Jamaica%2C%20NY%2011435&query_place_id=ChIJHzcwHxRhwokR0x3k4QlCe-k"}, {"name": "Two Brothers Chicken & Sub (ONLY THIS LOCATION)", "address": "14845 Build America Dr, Woodbridge, VA 22191", "phone": "(703) 491-3663", "state": "Virginia", "products": ["Chicken", "Beef"], "expires": "2025-12-31T00:00:00", "certification": "HMS", "lat": 38.630405, "lng": -77.27295, "nav_url": "https://www.google.com/maps/search/?api=1&query=14845%20Build%20America%20Dr%2C%20Woodbridge%2C%20VA%2022191&query_place_id=ChIJm5hw6fBVtokRcr0PfdHkhus"}, {"name": "NYC Halal Eats", "address": "1939 E Wattles Rd, Troy, MI 48085", "phone": "(248) 729-7200", "state": "Michigan", "products": ["Chicken", "Lamb", "Beef"], "expires": "2025-12-31T00:00:00", "certification": "HMS", "lat": 42.5786238, "lng": -83.1105585, "nav_url": "https://www.google.com/maps/search/?api=1&query=1939%20E%20Wattles%20Rd%2C%20Troy%2C%20MI%2048085&query_place_id=ChIJ45jCASTFJIgRKtESbldgtyw"}, {"name": "Hyderabad Kitchen", "address": "6242 - 44 N. California Ave, Chicago, IL 60659", "phone": "(773) 961-7023", "state": "Illinois", "products": ["Chicken", "Lamb", "Goat", "Veal", "Beef"], "expires": "2025-12-31T00:00:00", "certification": "HMS", "lat": 41.9952299, "lng": -87.7000061, "nav_url": "https://www.google.com/maps/search/?api=1&query=6242%20-%2044%20N.%20California%20Ave%2C%20Chicago%2C%20IL%2060659&query_place_id=ChIJKXZUu9jPD4gR_puP82T4s9E"}, {"name": "Burgermania", "address": "274 West 40 Street, New York, NY 10018", "phone": "(929) 235-7861", "state": "New York", "products": ["Chicken", "Lamb", "Beef"], "expires": "2025-12-31T00:00:00", "certification": "HMS", "lat": 40.7557265, "lng": -73.99051519999999, "nav_url": "https://www.google.com/maps/search/?api=1&query=274%20West%2040%20Street%2C%20New%20York%2C%20NY%2010018&query_place_id=ChIJw-FUB3pZwokROaAFxzqHzp4"}, {"name": "Al Bawadi Grill Bridgeview", "address": "7216 W 87TH ST, BRIDGEVIEW, IL 60455", "phone": "(708) 599-1999", "state": "Illinois", "products": ["Chicken", "Lamb", "Beef"], "expires": "2025-12-31T00:00:00", "certification": "HMS", "lat": 41.7338135, "lng": -87.8012114, "nav_url": "https://www.google.com/maps/search/?api=1&query=7216%20W%2087TH%20ST%2C%20BRIDGEVIEW%2C%20IL%2060455&query_place_id=ChIJs8og9Ns5DogREeC8JXB-JZk"}, {"name": "Al Bawadi Grill Niles", "address": "8501 DEMPSTER ST, NILES, IL 60714", "phone": "(847) 957-1999", "state": "Illinois", "products": ["Chicken", "Lamb", "Beef"], "expires": "2025-12-31T00:00:00", "certification": "HMS", "lat": 42.0397963, "lng": -87.8385929, "nav_url": "https://www.google.com/maps/search/?api=1&query=8501%20DEMPSTER%20ST%2C%20NILES%2C%20IL%2060714&query_place_id=ChIJqQBFpmrJD4gRb8zhFDnciTg"}, {"name": "Healthy Sugar NYC (Yogurt La Crepe)", "address": "61 North Broadway, Tarrytown, NY 10591", "phone": "(914) 372-7037", "state": "New York", "products": ["Chicken", "Lamb", "Goat", "Beef", "All Bakery Items"], "expires": "2024-12-31T00:00:00", "certification": "HMS", "lat": 41.0784338, "lng": -73.8579034, "nav_url": "https://www.google.com/maps/search/?api=1&query=61%20North%20Broadway%2C%20Tarrytown%2C%20NY%2010591&query_place_id=ChIJYdIogDrrwokRmWNxMuPVy1g"}, {"name": "New Zaiqa", "address": "1316 N Clybourn Ave Chicago, IL 60610", "phone": "(312) 266-0786", "state": "Illinois", "products": ["Chicken", "Lamb", "Goat", "Beef"], "expires": "2025-12-31T00:00:00", "certification": "HMS", "lat": 41.9059262, "lng": -87.6429277, "nav_url": "https://www.google.com/maps/search/?api=1&query=1316%20N%20Clybourn%20Ave%20Chicago%2C%20IL%2060610&query_place_id=ChIJIbkvjGbTD4gRwyg2Bgec16k"}, {"name": "La Estacion Deli & Pizzeria", "address": "22 1st Ave, Brentwood, NY 11717", "phone": "(631) 231-3131", "state": "New York", "products": ["Chicken", "Lamb", "Goat", "Beef"], "expires": "2025-12-31T00:00:00", "certification": "HMS", "lat": 40.7799512, "lng": -73.24690009999999, "nav_url": "https://www.google.com/maps/search/?api=1&query=22%201st%20Ave%2C%20Brentwood%2C%20NY%2011717&query_place_id=ChIJHYtHMMEx6IkRua8SpOLSAfA"}, {"name": "Al-Medinah Restaurant", "address": "10158 West Broad Street, Glen Allen, VA 23060", "phone": "(804) 562-9470", "state": "Virginia", "products": ["Chicken", "Lamb", "Goat", "Veal", "Beef"], "expires": "2024-12-31T00:00:00", "certification": "HMS", "lat": 37.646626, "lng": -77.57454659999999, "nav_url": "https://www.google.com/maps/search/?api=1&query=10158%20West%20Broad%20Street%2C%20Glen%20Allen%2C%20VA%2023060&query_place_id=ChIJ62KiiAdrsYkRNO51ZoPvHRY"}, {"name": "Byrd's Hot Chicken Algonquin", "address": "1748 S Randall Rd, Algonquin, IL 60102", "phone": "224-678-9433", "state": "Illinois", "products": ["Chicken"], "expires": "2025-12-31T00:00:00", "certification": "HMS", "lat": 42.1487383, "lng": -88.3380471, "nav_url": "https://www.google.com/maps/search/?api=1&query=1748%20S%20Randall%20Rd%2C%20Algonquin%2C%20IL%2060102&query_place_id=ChIJk9LWUxwTD4gRi3KD1Om5lrk"}, {"name": "Moon Restaurant", "address": "69-11 Woodside Ave, Woodside, NY 11377", "phone": "(718) 335-1828", "state": "New York", "products": ["Chicken", "Lamb", "Goat", "Beef"], "expires": "2025-12-31T00:00:00", "certification": "HMS", "lat": 40.7427531, "lng": -73.8951434, "nav_url": "https://www.google.com/maps/search/?api=1&query=69-11%20Woodside%20Ave%2C%20Woodside%2C%20NY%2011377&query_place_id=ChIJY1w2JeBfwokRGE7NP_DaQhQ"}, {"name": "Grill O Pizzeria & Kabab", "address": "72-55 Kissena Blvd, Flushing, NY 11367", "phone": "(718) 793-2984", "state": "New York", "products": ["Chicken", "Lamb", "Goat", "Beef"], "expires": "2024-12-31T00:00:00", "certification": "HMS", "lat": 40.7276054, "lng": -73.8129525, "nav_url": "https://www.google.com/maps/search/?api=1&query=72-55%20Kissena%20Blvd%2C%20Flushing%2C%20NY%2011367&query_place_id=ChIJ5YgBJvRgwokRXk7XR_qL5O0"}, {"name": "Fahrenheit ", "address": "136 E Army Trail Rd, Glendale Heights, IL 60139", "phone": "(847) 466-5705", "state": "Illinois", "products": ["Chicken", "Beef"], "expires": "2025-12-31T00:00:00", "certification": "HMS", "lat": 41.9382028, "lng": -88.0838316, "nav_url": "https://www.google.com/maps/search/?api=1&query=136%20E%20Army%20Trail%20Rd%2C%20Glendale%20Heights%2C%20IL%2060139&query_place_id=ChIJvycVcAatD4gRMBCVV0X6ZhI"}, {"name": "Halal Pizza & Food", "address": "15921 Weber Rd, Unit B, Crest Hill, IL 60403", "phone": "(815) 552-2452", "state": "Illinois", "products": ["Chicken", "Lamb", "Goat", "Veal", "Beef"], "expires": "2025-12-31T00:00:00", "certification": "HMS", "lat": 41.5942666, "lng": -88.1216884, "nav_url": "https://www.google.com/maps/search/?api=1&query=15921%20Weber%20Rd%2C%20Unit%20B%2C%20Crest%20Hill%2C%20IL%2060403&query_place_id=ChIJYQBXrkNfDogRffeLMnCKOLI"}, {"name": "Hyderabad House JC", "address": "523 Newark Ave, Jersey City, NJ 07306", "phone": "(201) 876-2943", "state": "New Jersey", "products": ["Chicken", "Lamb", "Goat", "Beef"], "expires": "2025-12-31T00:00:00", "certification": "HMS", "lat": 40.7303206, "lng": -74.0558391, "nav_url": "https://www.google.com/maps/search/?api=1&query=523%20Newark%20Ave%2C%20Jersey%20City%2C%20NJ%2007306&query_place_id=ChIJc8cFpL9XwokRGBXli6EVp7k"}, {"name": "Two Brothers Chicken Express", "address": "9745 Liberia Ave, Manassas, VA 20110", "phone": "(703) 595-0109", "state": "Virginia", "products": ["Chicken", "Lamb", "Goat", "Beef"], "expires": "2025-12-31T00:00:00", "certification": "HMS", "lat": 38.7441047, "lng": -77.4501511, "nav_url": "https://www.google.com/maps/search/?api=1&query=9745%20Liberia%20Ave%2C%20Manassas%2C%20VA%2020110&query_place_id=ChIJl_xwAQVbtokR8dklUSPwXJU"}, {"name": "Halal Eatz", "address": "574B Stewart Ave, Bethpage, NY 11714", "phone": "(516) 813-7660", "state": "New York", "products": ["Chicken", "Lamb", "Goat", "Beef"], "expires": "2024-12-31T00:00:00", "certification": "HMS", "lat": 40.7433768, "lng": -73.4808445, "nav_url": "https://www.google.com/maps/search/?api=1&query=574B%20Stewart%20Ave%2C%20Bethpage%2C%20NY%2011714&query_place_id=ChIJDUIvUrKBwokRFNAuYoC5B_M"}, {"name": "Holy Buckets Bridgeview", "address": "7331 W 87th St, Bridgeview, IL 60455", "phone": "(708) 931-4659", "state": "Illinois", "products": ["Chicken", "Beef"], "expires": "2025-12-31T00:00:00", "certification": "HMS", "lat": 41.7330479, "lng": -87.80275619999999, "nav_url": "https://www.google.com/maps/search/?api=1&query=7331%20W%2087th%20St%2C%20Bridgeview%2C%20IL%2060455&query_place_id=ChIJC2TlXRs5DogRLQjVW1I7h5w"}, {"name": "BBQ King Express & Pizzeria", "address": "888 S GREENVILLE AVE #222, RICHARDSON, TX 75081", "phone": "(214) 238-6590 ", "state": "Texas", "products": ["Chicken", "Lamb", "Goat", "Veal", "Beef"], "expires": "2025-12-31T00:00:00", "certification": "HMS", "lat": 32.9383115, "lng": -96.73459729999999, "nav_url": "https://www.google.com/maps/search/?api=1&query=888%20S%20GREENVILLE%20AVE%20%23222%2C%20RICHARDSON%2C%20TX%2075081&query_place_id=ChIJ9-opmQEfTIYR2UD9MAiEuuU"}, {"name": "Cultura Subs", "address": "9432 Waukegan Rd, Morton Grove, IL 60053", "phone": "(872) 285-8872", "state": "Illinois", "products": ["Chicken", "Beef"], "expires": "2024-12-31T00:00:00", "certification": "HMS", "lat": 42.0531831, "lng": -87.7999415, "nav_url": "https://www.google.com/maps/search/?api=1&query=9432%20Waukegan%20Rd%2C%20Morton%20Grove%2C%20IL%2060053&query_place_id=ChIJSw9sFuTJD4gR8Ol-iGNmq6M"}, {"name": "Fatzee\u2019s", "address": "1608 Emerson St, Evanston. IL 60201", "phone": "847-859-6293", "state": "Illinois", "products": ["Chicken", "Beef"], "expires": "2024-12-31T00:00:00", "certification": "HMS", "lat": 42.0518782, "lng": -87.6950198, "nav_url": "https://www.google.com/maps/search/?api=1&query=1608%20Emerson%20St%2C%20Evanston.%20IL%2060201&query_place_id=ChIJi7T5pgHQD4gRZSc1leoe2bI"}, {"name": "Halal Express Mart (Take Out)", "address": "6065 Dempster St, Morton Grove, IL 60053", "phone": "(224) 534-7048", "state": "Illinois", "products": ["Chicken", "Lamb", "Goat", "Veal", "Beef"], "expires": "2025-12-31T00:00:00", "certification": "HMS", "lat": 42.0406632, "lng": -87.7782986, "nav_url": "https://www.google.com/maps/search/?api=1&query=6065%20Dempster%20St%2C%20Morton%20Grove%2C%20IL%2060053&query_place_id=ChIJPZuLQ7PJD4gRqENBI_1Wpuc"}, {"name": "Flame on Peri Peri Grill", "address": "7041 N MILWAUKEE AVE, NILES, IL 60714", "phone": "(847) 779-3950", "state": "Illinois", "products": ["Chicken", "Beef"], "expires": "2025-12-31T00:00:00", "certification": "HMS", "lat": 42.0095693, "lng": -87.7986402, "nav_url": "https://www.google.com/maps/search/?api=1&query=7041%20N%20MILWAUKEE%20AVE%2C%20NILES%2C%20IL%2060714&query_place_id=ChIJS9iqUMvJD4gR_Jn4EjdocL4"}, {"name": "Mazadar Mediterranean Kitchen", "address": "1839 Central Ave, Albany, NY 12205", "phone": "(518) 464-0800", "state": "New York", "products": ["Chicken", "Lamb", "Goat", "Beef"], "expires": "2025-12-31T00:00:00", "certification": "HMS", "lat": 42.7317163, "lng": -73.8478356, "nav_url": "https://www.google.com/maps/search/?api=1&query=1839%20Central%20Ave%2C%20Albany%2C%20NY%2012205&query_place_id=ChIJyXVK-CJz3okR6arUZ3EXVjk"}, {"name": "Al Safa (Restaurant) ", "address": "3146 W Touhy Ave,  Chicago, IL 60645", "phone": "(773) 654-1664", "state": "Illinois", "products": ["Chicken", "Lamb", "Beef"], "expires": "2025-12-31T00:00:00", "certification": "HMS", "lat": 42.0121458, "lng": -87.7086167, "nav_url": "https://www.google.com/maps/search/?api=1&query=3146%20W%20Touhy%20Ave%2C%20%20Chicago%2C%20IL%2060645&query_place_id=ChIJCb5Xg_DPD4gRswCHbPMmUQc"}, {"name": "Crescent Moon", "address": "3013 W Spring Creek Pkwy #200, Plano, TX 75023", "phone": "(972) 618-7888", "state": "Texas", "products": ["Chicken", "Lamb", "Beef"], "expires": "2025-12-31T00:00:00", "certification": "HMS", "lat": 33.0583993, "lng": -96.75158429999999, "nav_url": "https://www.google.com/maps/search/?api=1&query=3013%20W%20Spring%20Creek%20Pkwy%20%23200%2C%20Plano%2C%20TX%2075023&query_place_id=ChIJa9ay36AiTIYRuSJ1LzW01HA"}, {"name": "Coconut Hill Kitchen", "address": "1201 E Main St Suite 200, Allen, TX 75002", "phone": "(972) 332-8838", "state": "Texas", "products": ["Chicken", "Lamb", "Goat", "Veal", "Beef"], "expires": "2025-12-31T00:00:00", "certification": "HMS", "lat": 33.1009145, "lng": -96.64118169999999, "nav_url": "https://www.google.com/maps/search/?api=1&query=1201%20E%20Main%20St%20Suite%20200%2C%20Allen%2C%20TX%2075002&query_place_id=ChIJBemZu5UQTIYRv3UDFobNYWg"}, {"name": "Haji Ali Juice", "address": "6300 Independence Pkwy, Plano, TX 75023", "phone": "(469) 814-0258", "state": "Texas", "products": ["Chicken", "Beef"], "expires": "2024-12-31T00:00:00", "certification": "HMS", "lat": 33.0589784, "lng": -96.7501083, "nav_url": "https://www.google.com/maps/search/?api=1&query=6300%20Independence%20Pkwy%2C%20Plano%2C%20TX%2075023&query_place_id=ChIJs8wckJkjTIYRNzXlbr8Xo-k"}, {"name": "Sal\u2019s Nashville Hot Chicken", "address": "6205 Coit Rd Suite 352, Plano, TX 75024", "phone": "(972) 212-4403", "state": "Texas", "products": ["Chicken"], "expires": "2025-12-31T00:00:00", "certification": "HMS", "lat": 33.0569988, "lng": -96.7720688, "nav_url": "https://www.google.com/maps/search/?api=1&query=6205%20Coit%20Rd%20Suite%20352%2C%20Plano%2C%20TX%2075024&query_place_id=ChIJU1mLmEMjTIYRoGKdWfkymTs"}, {"name": "Hadramout Restaurant & Bakery", "address": "3100 W Devon Ave, Chicago, IL 60659", "phone": "(773) 942-7541", "state": "Illinois", "products": ["Chicken", "Lamb", "Goat", "Beef"], "expires": "2025-12-31T00:00:00", "certification": "HMS", "lat": 41.9977044, "lng": -87.70715009999999, "nav_url": "https://www.google.com/maps/search/?api=1&query=3100%20W%20Devon%20Ave%2C%20Chicago%2C%20IL%2060659&query_place_id=ChIJDT8iySLOD4gRNOgUVaefzis"}, {"name": "Kolachi Tandoori Grill ", "address": "937 S Roselle Rd, Schaumburg, IL 60193", "phone": "(630) 339-9002", "state": "Illinois", "products": ["Chicken", "Lamb", "Goat", "Veal", "Beef"], "expires": "2025-12-31T00:00:00", "certification": "HMS", "lat": 42.0100993, "lng": -88.07891839999999, "nav_url": "https://www.google.com/maps/search/?api=1&query=937%20S%20Roselle%20Rd%2C%20Schaumburg%2C%20IL%2060193&query_place_id=ChIJSR0_OHQBD4gR3LJsI9nILas"}, {"name": "Azka BBQ", "address": "87-16 Parsons Blvd, Jamaica, NY 11432", "phone": "(718) 750-2952", "state": "New York", "products": ["Chicken", "Lamb", "Goat", "Beef"], "expires": "2025-12-31T00:00:00", "certification": "HMS", "lat": 40.7085263, "lng": -73.80368670000001, "nav_url": "https://www.google.com/maps/search/?api=1&query=87-16%20Parsons%20Blvd%2C%20Jamaica%2C%20NY%2011432&query_place_id=ChIJC7v4RPthwokRIhxtteOP6DQ"}, {"name": "Byrd's Hot Chicken Skokie", "address": "4839 OAKTON ST, SKOKIE, IL 60077", "phone": "(224) 251-8296", "state": "Illinois", "products": ["Chicken"], "expires": "2025-12-31T00:00:00", "certification": "HMS", "lat": 42.0260162, "lng": -87.7492876, "nav_url": "https://www.google.com/maps/search/?api=1&query=4839%20OAKTON%20ST%2C%20SKOKIE%2C%20IL%2060077&query_place_id=ChIJG7shkhPPD4gRvsKux-JTUfo"}, {"name": "Calibun", "address": "23-14 36 Ave, Astoria, NY 11106", "phone": "(347) 848-0080", "state": "New York", "products": ["Chicken", "Lamb", "Beef"], "expires": "2024-12-31T00:00:00", "certification": "HMS", "lat": 40.75878489999999, "lng": -73.9347751, "nav_url": "https://www.google.com/maps/search/?api=1&query=23-14%2036%20Ave%2C%20Astoria%2C%20NY%2011106&query_place_id=ChIJcz0_F8tfwokRHWBq9PMYFQM"}, {"name": "Holy Cow JFK", "address": "125 JFK Travel Plaza, Jamaica, NY 11430", "phone": "(718) 691-6382", "state": "New York", "products": ["Chicken", "Lamb", "Beef", "Turkey"], "expires": "2025-12-31T00:00:00", "certification": "HMS", "lat": 40.6630036, "lng": -73.7929777, "nav_url": "https://www.google.com/maps/search/?api=1&query=125%20JFK%20Travel%20Plaza%2C%20Jamaica%2C%20NY%2011430&query_place_id=ChIJAYIj7JhnwokR0uSreSWZ974"}, {"name": "Sweet Reserve Bakery", "address": "625 E Roosevelt Rd, Lombard, IL 60148", "phone": "(630) 899-4896", "state": "Illinois", "products": ["Chicken", "Beef"], "expires": "2025-12-31T00:00:00", "certification": "HMS", "lat": 41.860168, "lng": -88.00169919999999, "nav_url": "https://www.google.com/maps/search/?api=1&query=625%20E%20Roosevelt%20Rd%2C%20Lombard%2C%20IL%2060148&query_place_id=ChIJm-uPxxutD4gRdlGU_jOyLvE"}, {"name": "Classic International Market (Kitchen)", "address": "2310 Virginia Pkwy #130, McKinney, TX 75071", "phone": "(469) 714-0060", "state": "Texas", "products": ["Chicken", "Lamb", "Goat", "Veal", "Beef"], "expires": "2025-12-31T00:00:00", "certification": "HMS", "lat": 33.1989462, "lng": -96.6427252, "nav_url": "https://www.google.com/maps/search/?api=1&query=2310%20Virginia%20Pkwy%20%23130%2C%20McKinney%2C%20TX%2075071&query_place_id=ChIJ6TNLiL8TTIYRanO4OZ0S6Mg"}, {"name": "La Charanga Mexican Halal", "address": "4003 W. Algonquin Road Rolling Meadows, IL 60008", "phone": "(847) 496-5642", "state": "Illinois", "products": ["Chicken", "Lamb", "Beef"], "expires": "2025-12-31T00:00:00", "certification": "HMS", "lat": 42.0622964, "lng": -88.0310051, "nav_url": "https://www.google.com/maps/search/?api=1&query=4003%20W.%20Algonquin%20Road%20Rolling%20Meadows%2C%20IL%2060008&query_place_id=ChIJ7ZhP4V-lD4gRMpO9MEssQdk"}, {"name": "Hotstone", "address": "908 E Roosevelt Rd, Lombard, IL 60148", "phone": "(630) 613-8173", "state": "Illinois", "products": ["Chicken", "Beef"], "expires": "2025-12-31T00:00:00", "certification": "HMS", "lat": 41.8609294, "lng": -87.9949444, "nav_url": "https://www.google.com/maps/search/?api=1&query=908%20E%20Roosevelt%20Rd%2C%20Lombard%2C%20IL%2060148&query_place_id=ChIJz9xsE05NDogRb2IW9DWMAGo"}, {"name": "Sagar Restaurant (ONLY THIS RESTAURANT, VERIFY ADDRESS)", "address": "168-25B Hillside Ave, Jamaica, NY 11432", "phone": "(718) 298-5696", "state": "New York", "products": ["Chicken", "Lamb", "Goat", "Beef"], "expires": "2025-12-31T00:00:00", "certification": "HMS", "lat": 40.7104377, "lng": -73.79415019999999, "nav_url": "https://www.google.com/maps/search/?api=1&query=168-25B%20Hillside%20Ave%2C%20Jamaica%2C%20NY%2011432&query_place_id=ChIJHe510R9hwokRChLemd8Nkac"}, {"name": "Fiery Hot Nashville Chicken", "address": "151 W Spring Creek Pkwy Ste 509, Plano, TX 75023", "phone": "(469) 814-0959", "state": "Texas", "products": ["Chicken"], "expires": "2025-12-31T00:00:00", "certification": "HMS", "lat": 33.0585388, "lng": -96.695719, "nav_url": "https://www.google.com/maps/search/?api=1&query=151%20W%20Spring%20Creek%20Pkwy%20Ste%20509%2C%20Plano%2C%20TX%2075023&query_place_id=ChIJ1Tdt8rAZTIYR7yrHNY1pjXg"}, {"name": "Student Burger", "address": "2110 Army Trail Rd, Addison, IL 60101", "phone": "(630) 376-6058", "state": "Illinois", "products": ["Chicken", "Beef"], "expires": "2025-12-31T00:00:00", "certification": "HMS", "lat": 41.9332944, "lng": -88.04307659999999, "nav_url": "https://www.google.com/maps/search/?api=1&query=2110%20Army%20Trail%20Rd%2C%20Addison%2C%20IL%2060101&query_place_id=ChIJi1cPicKtD4gRVpD8v4PP9-U"}, {"name": "OMG Nafisa's Kitchen", "address": "6027 Dempster St, Morton Grove, IL 60053", "phone": "(224) 534-7525", "state": "Illinois", "products": ["Chicken", "Lamb", "Goat", "Veal", "Beef"], "expires": "2025-12-31T00:00:00", "certification": "HMS", "lat": 42.0406407, "lng": -87.7773595, "nav_url": "https://www.google.com/maps/search/?api=1&query=6027%20Dempster%20St%2C%20Morton%20Grove%2C%20IL%2060053&query_place_id=ChIJzcKOTFDJD4gRoxzE_k6crik"}, {"name": "Byrd's Hot Chicken Schereville ", "address": "800 CEDAR PARKWAY, SCHEREVILLE, IN 46375", "phone": "(219) 322-6601", "state": "Indiana", "products": ["Chicken"], "expires": "2025-12-31T00:00:00", "certification": "HMS", "lat": 41.5141368, "lng": -87.47164819999999, "nav_url": "https://www.google.com/maps/search/?api=1&query=800%20CEDAR%20PARKWAY%2C%20SCHEREVILLE%2C%20IN%2046375&query_place_id=ChIJ_3MXTAPhEYgRUbHd8cq4mkY"}, {"name": "Ali Nihari", "address": "2548 W Devon Ave, Chicago, IL 60659", "phone": "(773) 856-0203", "state": "Illinois", "products": ["Chicken", "Lamb", "Goat", "Veal", "Beef"], "expires": "2025-12-31T00:00:00", "certification": "HMS", "lat": 41.9977522, "lng": -87.6943237, "nav_url": "https://www.google.com/maps/search/?api=1&query=2548%20W%20Devon%20Ave%2C%20Chicago%2C%20IL%2060659&query_place_id=ChIJofqdn3fRD4gRAYQAcQZI_M4"}, {"name": "Texas King Irving", "address": "3455 N Beltline Rd, Irving, TX 75062 ", "phone": "(972) 871-0006", "state": "Texas", "products": ["Chicken", "Lamb", "Goat", "Veal", "Beef"], "expires": "2025-12-31T00:00:00", "certification": "HMS", "lat": 32.854034, "lng": -96.99339599999999, "nav_url": "https://www.google.com/maps/search/?api=1&query=3455%20N%20Beltline%20Rd%2C%20Irving%2C%20TX%2075062%20&query_place_id=ChIJmQVlvTuCToYRLlSkYb4KRBs"}, {"name": "Food Paradise ", "address": "3825 W Spring Creek Pkwy Plano, TX 75023", "phone": "(972) 596-7786", "state": "Texas", "products": ["Chicken", "Lamb", "Goat", "Veal", "Beef"], "expires": "2024-12-31T00:00:00", "certification": "HMS", "lat": 33.0573944, "lng": -96.7680115, "nav_url": "https://www.google.com/maps/search/?api=1&query=3825%20W%20Spring%20Creek%20Pkwy%20Plano%2C%20TX%2075023&query_place_id=ChIJBzsuHgAjTIYR5x6xkhRC3CI"}, {"name": "Al Haramain Restaurant", "address": "24065 Orchard Lake Rd, Farmington, MI 48336", "phone": "(248) 476-0300", "state": "Michigan", "products": ["Chicken", "Lamb", "Goat", "Veal", "Beef"], "expires": "2025-12-31T00:00:00", "certification": "HMS", "lat": 42.4691774, "lng": -83.3582089, "nav_url": "https://www.google.com/maps/search/?api=1&query=24065%20Orchard%20Lake%20Rd%2C%20Farmington%2C%20MI%2048336&query_place_id=ChIJZT4UhhixJIgRBAU_H0J4m8E"}, {"name": "Smokin Grill Xpress", "address": "3611 14th St, Suite 110, Plano, TX 75074", "phone": "(469) 755-9062", "state": "Texas", "products": ["Chicken", "Lamb", "Goat", "Beef"], "expires": "2025-12-31T00:00:00", "certification": "HMS", "lat": 33.0148118, "lng": -96.6635091, "nav_url": "https://www.google.com/maps/search/?api=1&query=3611%2014th%20St%2C%20Suite%20110%2C%20Plano%2C%20TX%2075074&query_place_id=ChIJqaR7tvcZTIYRAXRbT2RL0Ws"}, {"name": "Jazeera Restaurant", "address": "37 W John Street, Hicksville, NY 11801", "phone": "(631) 229-3646", "state": "New York", "products": ["Chicken", "Lamb", "Goat", "Veal", "Beef"], "expires": "2024-12-31T00:00:00", "certification": "HMS", "lat": 40.7687859, "lng": -73.52814149999999, "nav_url": "https://www.google.com/maps/search/?api=1&query=37%20W%20John%20Street%2C%20Hicksville%2C%20NY%2011801&query_place_id=ChIJDVg4k6OBwokRV8_1t1o3R3M"}, {"name": "Slappin Chick", "address": "19 N Broadway, Hicksville, NY 11801", "phone": "(718) 569-5580", "state": "New York", "products": ["Chicken", "Beef"], "expires": "2025-12-31T00:00:00", "certification": "HMS", "lat": 40.7690001, "lng": -73.5254212, "nav_url": "https://www.google.com/maps/search/?api=1&query=19%20N%20Broadway%2C%20Hicksville%2C%20NY%2011801&query_place_id=ChIJ8XonSp2BwokR27itfnrCH2E"}, {"name": "Arzan Market & Cafe", "address": "4702 N KIMBALL AVE, CHICAGO, IL 60625", "phone": "(312) 898-2432", "state": "Illinois", "products": ["Chicken", "Lamb", "Goat", "Veal", "Beef"], "expires": "2025-12-31T00:00:00", "certification": "HMS", "lat": 41.96678050000001, "lng": -87.71377389999999, "nav_url": "https://www.google.com/maps/search/?api=1&query=4702%20N%20KIMBALL%20AVE%2C%20CHICAGO%2C%20IL%2060625&query_place_id=ChIJr4rAh3HND4gRS_5aqT38U7I"}, {"name": "Pizza Stop", "address": "4251 E Renner Rd, Richardson, TX 75082", "phone": "(972) 975-5555", "state": "Texas", "products": ["Chicken", "Lamb", "Beef"], "expires": "2025-12-31T00:00:00", "certification": "HMS", "lat": 33.0024873, "lng": -96.6429757, "nav_url": "https://www.google.com/maps/search/?api=1&query=4251%20E%20Renner%20Rd%2C%20Richardson%2C%20TX%2075082&query_place_id=ChIJPfVGu5MbTIYRcW4sBXVvDQM"}, {"name": "Al Halal Zaiqa", "address": "449 W North Ave, Chicago, IL 60610", "phone": "(312) 763-6972", "state": "Illinois", "products": ["Chicken", "Lamb", "Goat", "Veal", "Beef"], "expires": "2025-12-31T00:00:00", "certification": "HMS", "lat": 41.9108127, "lng": -87.6404836, "nav_url": "https://www.google.com/maps/search/?api=1&query=449%20W%20North%20Ave%2C%20Chicago%2C%20IL%2060610&query_place_id=ChIJfzRpi6DTD4gRMVT6b2_x_6k"}, {"name": "NYC Halal Eats", "address": "24311 Halsted Rd, Farmington Hills, MI 48335", "phone": "(248) 987-7100", "state": "Michigan", "products": ["Chicken", "Lamb", "Beef"], "expires": "2025-12-31T00:00:00", "certification": "HMS", "lat": 42.46961659999999, "lng": -83.41644149999999, "nav_url": "https://www.google.com/maps/search/?api=1&query=24311%20Halsted%20Rd%2C%20Farmington%20Hills%2C%20MI%2048335&query_place_id=ChIJDy04joKxJIgRRnW1KWEMI1I"}, {"name": "Tandoori Al Badia", "address": "234 Roosevelt Rd, Villa Park, IL 60181", "phone": "(630) 433-2023", "state": "Illinois", "products": ["Chicken", "Lamb", "Goat", "Veal", "Beef"], "expires": "2025-12-31T00:00:00", "certification": "HMS", "lat": 41.861359, "lng": -87.984602, "nav_url": "https://www.google.com/maps/search/?api=1&query=234%20Roosevelt%20Rd%2C%20Villa%20Park%2C%20IL%2060181&query_place_id=ChIJG7tyEYpNDogRNRfEc_Nt-xQ"}, {"name": "Burns Road Foods", "address": "491 Manalapan Rd, Suite #6, Spotswood, NJ 08884", "phone": "(833) 287-6773", "state": "New Jersey", "products": ["Chicken", "Lamb", "Goat", "Beef"], "expires": "2025-12-31T00:00:00", "certification": "HMS", "lat": 40.3818638, "lng": -74.4097839, "nav_url": "https://www.google.com/maps/search/?api=1&query=491%20Manalapan%20Rd%2C%20Suite%20%236%2C%20Spotswood%2C%20NJ%2008884&query_place_id=ChIJBceJdLrFw4kRu1pJFrMZVfY"}, {"name": "Lekka Chows", "address": "297 North Central Ave, Valley Stream, NY 11580", "phone": "(516) 612-3227", "state": "New York", "products": ["Chicken", "Lamb", "Beef"], "expires": "2025-12-31T00:00:00", "certification": "HMS", "lat": 40.6759342, "lng": -73.7091252, "nav_url": "https://www.google.com/maps/search/?api=1&query=297%20North%20Central%20Ave%2C%20Valley%20Stream%2C%20NY%2011580&query_place_id=ChIJA9JVpMZlwokRuCIeLgKBOoE"}, {"name": "Deccan Grill Irving", "address": "535 W Airport Fwy #110, Irving, TX 75062", "phone": "(972) 594-1999", "state": "Texas", "products": ["Chicken", "Lamb", "Goat", "Veal", "Beef"], "expires": "2025-12-31T00:00:00", "certification": "HMS", "lat": 32.8391217, "lng": -96.9529211, "nav_url": "https://www.google.com/maps/search/?api=1&query=535%20W%20Airport%20Fwy%20%23110%2C%20Irving%2C%20TX%2075062&query_place_id=ChIJWxSOxgKDToYRnS9zVpSoAjw"}, {"name": "Moho Mexican Grill", "address": "38-05 Bell Blvd, Bayside, NY 11361", "phone": "(718) 709-9695", "state": "New York", "products": ["Chicken", "Beef"], "expires": "2025-12-31T00:00:00", "certification": "HMS", "lat": 40.76633, "lng": -73.7722656, "nav_url": "https://www.google.com/maps/search/?api=1&query=38-05%20Bell%20Blvd%2C%20Bayside%2C%20NY%2011361&query_place_id=ChIJLWQJgFWLwokRzExNPnQWRA4"}, {"name": "Bison Burger", "address": "598 Potter Rd, Des Plaines, IL 60016", "phone": "(224) 601-4031", "state": "Illinois", "products": ["Chicken", "Beef"], "expires": "2025-12-31T00:00:00", "certification": "HMS", "lat": 42.0435313, "lng": -87.8605302, "nav_url": "https://www.google.com/maps/search/?api=1&query=598%20Potter%20Rd%2C%20Des%20Plaines%2C%20IL%2060016&query_place_id=ChIJ0bmSXrm3D4gR9YA4g62i6ng"}, {"name": "Labbaik Karahi Restaurant ", "address": "1682 Central Ct, Valley Stream, NY 11580", "phone": "(516) 599-2500", "state": "New York", "products": ["Chicken", "Lamb", "Goat", "Veal", "Beef"], "expires": "2025-12-31T00:00:00", "certification": "HMS", "lat": 40.6813523, "lng": -73.7113066, "nav_url": "https://www.google.com/maps/search/?api=1&query=1682%20Central%20Ct%2C%20Valley%20Stream%2C%20NY%2011580&query_place_id=ChIJ3VvbrYZjwokRf_pTdcrOA9A"}, {"name": "Urooj Caterers and BBQ", "address": "SKOKIE, IL", "phone": "(224) 935-2516", "state": "Illinois", "products": ["Chicken", "Lamb", "Goat", "Veal", "Beef", "Caterer"], "expires": "2025-12-31T00:00:00", "certification": "HMS", "lat": 42.1727807, "lng": -87.8168687, "nav_url": "https://www.google.com/maps/search/?api=1&query=SKOKIE%2C%20IL&query_place_id=ChIJ8-wuF_7AD4gR_asaZNfh25M"}, {"name": "Holy Cow Uniondale", "address": "315 Oak Street, Uniondale, NY 11553", "phone": "(516) 407-3305", "state": "New York", "products": ["Chicken", "Lamb", "Beef", "Turkey"], "expires": "2025-12-31T00:00:00", "certification": "HMS", "lat": 40.721888, "lng": -73.6069934, "nav_url": "https://www.google.com/maps/search/?api=1&query=315%20Oak%20Street%2C%20Uniondale%2C%20NY%2011553&query_place_id=ChIJA-pM3wt9wokRCZLK4XceLLg"}, {"name": "Grillwaale", "address": "315 Oak Street, Uniondale, NY 11553\t", "phone": "(516) 774-1854", "state": "New York", "products": ["Chicken", "Lamb", "Goat", "Beef"], "expires": "2025-12-31T00:00:00", "certification": "HMS", "lat": 40.7219128, "lng": -73.60695290000001, "nav_url": "https://www.google.com/maps/search/?api=1&query=315%20Oak%20Street%2C%20Uniondale%2C%20NY%2011553%09&query_place_id=ChIJjdcjJ2B9wokRTBzKGKs9uLo"}, {"name": "Midnight Curry ", "address": "240-09 Linden Blvd, Elmont, NY 11003\t", "phone": "(516) 200-6339", "state": "New York", "products": ["Chicken", "Lamb", "Goat", "Beef"], "expires": "2025-12-31T00:00:00", "certification": "HMS", "lat": 40.6897045, "lng": -73.7221357, "nav_url": "https://www.google.com/maps/search/?api=1&query=240-09%20Linden%20Blvd%2C%20Elmont%2C%20NY%2011003%09&query_place_id=ChIJf2XEFXtjwokRIHlGGfi8fiA"}, {"name": "Dhaka Restaurant ", "address": "168-32 Hillside Ave, Jamaica, NY 11432", "phone": "(718) 262-9774", "state": "New York", "products": ["Chicken", "Lamb", "Goat", "Beef"], "expires": "2025-12-31T00:00:00", "certification": "HMS", "lat": 40.7102647, "lng": -73.79358549999999, "nav_url": "https://www.google.com/maps/search/?api=1&query=168-32%20Hillside%20Ave%2C%20Jamaica%2C%20NY%2011432&query_place_id=ChIJ6S7Pzh9hwokRSfYqS3syWgg"}, {"name": "Abdu Restaurant", "address": "46090 Michigan Ave, Canton, MI 48188", "phone": "(734) 335-7308", "state": "Michigan", "products": ["Chicken", "Lamb", "Goat", "Beef"], "expires": "2025-12-31T00:00:00", "certification": "HMS", "lat": 42.2718463, "lng": -83.4922641, "nav_url": "https://www.google.com/maps/search/?api=1&query=46090%20Michigan%20Ave%2C%20Canton%2C%20MI%2048188&query_place_id=ChIJM7ntzJNRO4gRTSaQ9Cv7kDM"}, {"name": "Turan Uyghur Kitchen", "address": "2001 Coit Rd #163, Plano, TX 75075", "phone": "(469) 910-8028", "state": "Texas", "products": ["Chicken", "Lamb", "Beef"], "expires": "2025-12-31T00:00:00", "certification": "HMS", "lat": 33.0289585, "lng": -96.7717467, "nav_url": "https://www.google.com/maps/search/?api=1&query=2001%20Coit%20Rd%20%23163%2C%20Plano%2C%20TX%2075075&query_place_id=ChIJLw334oYjTIYR7Pm930qGxFc"}, {"name": "Bornali Cafe", "address": "130 Wayne Ave, Paterson, NJ 07502", "phone": "(973) 689-6887", "state": "New Jersey", "products": ["Chicken", "Lamb", "Goat", "Veal", "Beef"], "expires": "2025-12-31T00:00:00", "certification": "HMS", "lat": 40.9190658, "lng": -74.1858073, "nav_url": "https://www.google.com/maps/search/?api=1&query=130%20Wayne%20Ave%2C%20Paterson%2C%20NJ%2007502&query_place_id=ChIJnwOhm0D9wokRuvyo4lDQcmI"}, {"name": "Spice Wok", "address": "13340 Audelia Rd #135, Dallas, TX 75243", "phone": "(469) 213-2409", "state": "Texas", "products": ["Chicken", "Lamb", "Beef"], "expires": "2025-12-31T00:00:00", "certification": "HMS", "lat": 32.9308996, "lng": -96.7169662, "nav_url": "https://www.google.com/maps/search/?api=1&query=13340%20Audelia%20Rd%20%23135%2C%20Dallas%2C%20TX%2075243&query_place_id=ChIJ2yBHmw8fTIYRBz4phG9WvIU"}, {"name": "The Halal Burger", "address": "916E E Roosevelt Rd, Lombard, IL 60148", "phone": "(630) 656-1038", "state": "Illinois", "products": ["Chicken", "Beef"], "expires": "2025-12-31T00:00:00", "certification": "HMS", "lat": 41.8607739, "lng": -87.9944139, "nav_url": "https://www.google.com/maps/search/?api=1&query=916E%20E%20Roosevelt%20Rd%2C%20Lombard%2C%20IL%2060148&query_place_id=ChIJRftm9q5NDogRoWs5ZenME-U"}, {"name": "Fiesta Healthy Mexican Grill", "address": "4 Bedford Ave, Bergenfield, NJ 07621", "phone": "(732) 229-3999", "state": "New Jersey", "products": ["Chicken", "Lamb", "Beef"], "expires": "2025-12-31T00:00:00", "certification": "HMS", "lat": 40.925491, "lng": -73.9970206, "nav_url": "https://www.google.com/maps/search/?api=1&query=4%20Bedford%20Ave%2C%20Bergenfield%2C%20NJ%2007621&query_place_id=ChIJG2srEGTxwokR32GO8CXWZVk"}, {"name": "Halal BBQ Pitmasters", "address": "ALLEN, TX", "phone": "https://halalbbqpitmasters.com/", "state": "Texas", "products": ["Misc", "SPGc", "TEXAS-TANDOORI-RUB", "SUMAC-BLAC-RUB", "HOT-FRIES", "MANDI-RUB", "TERI-PERI-RUB"], "expires": "2024-12-31T00:00:00", "certification": "HMS", "lat": 33.0399167, "lng": -96.71660810000002, "nav_url": "https://www.google.com/maps/search/?api=1&query=ALLEN%2C%20TX&query_place_id=ChIJfb8qIqMZTIYRThCxB3rcNO4"}, {"name": "Buffalo Fresh 2 (In-Store Restaurant)", "address": "284 Ontario Street, Buffalo, NY 14207", "phone": "(716) 582-0510", "state": "New York", "products": ["Chicken", "Lamb", "Goat", "Veal", "Beef"], "expires": "2024-12-31T00:00:00", "certification": "HMS", "lat": 42.9525058, "lng": -78.90145380000001, "nav_url": "https://www.google.com/maps/search/?api=1&query=284%20Ontario%20Street%2C%20Buffalo%2C%20NY%2014207&query_place_id=ChIJPbel0cht04kRjrnPD7jxjsw"}, {"name": "Fiesta Healthy Mexican Grill", "address": "87-48 Parsons Blvd, Jamaica, NY 11432", "phone": "fiestahealthygrill.com", "state": "New York", "products": ["Chicken", "Lamb", "Beef"], "expires": "2025-12-31T00:00:00", "certification": "HMS", "lat": 40.7080358, "lng": -73.8032214, "nav_url": "https://www.google.com/maps/search/?api=1&query=87-48%20Parsons%20Blvd%2C%20Jamaica%2C%20NY%2011432&query_place_id=ChIJ5e9DmUthwokRQUggjgG3C4g"}, {"name": "Sheikhs N Burgers", "address": "82-37 164 Street, Jamaica, NY 11432", "phone": "(347) 829-3052", "state": "New York", "products": ["Chicken", "Lamb", "Beef"], "expires": "2024-12-31T00:00:00", "certification": "HMS", "lat": 40.7182725, "lng": -73.8034105, "nav_url": "https://www.google.com/maps/search/?api=1&query=82-37%20164%20Street%2C%20Jamaica%2C%20NY%2011432&query_place_id=ChIJ-TEjZxBhwokRw6wr5m64OEM"}, {"name": "Byrd\u2019s Hot Chicken Schaumburg ", "address": "925 Roselle Rd, Schaumburg, IL 60193", "phone": "(224) 653-8425", "state": "Illinois", "products": ["Chicken"], "expires": "2025-12-31T00:00:00", "certification": "HMS", "lat": 42.0104805, "lng": -88.0789178, "nav_url": "https://www.google.com/maps/search/?api=1&query=925%20Roselle%20Rd%2C%20Schaumburg%2C%20IL%2060193&query_place_id=ChIJKURrw3yvD4gRsn63SfGl2Ak"}, {"name": "Halal Pizza Point", "address": "5230 Dempster St, Skokie, IL 60077", "phone": "(224) 534-7353", "state": "Illinois", "products": ["Chicken", "Beef"], "expires": "2025-12-31T00:00:00", "certification": "HMS", "lat": 42.04114440000001, "lng": -87.7579877, "nav_url": "https://www.google.com/maps/search/?api=1&query=5230%20Dempster%20St%2C%20Skokie%2C%20IL%2060077&query_place_id=ChIJSQJXsCPPD4gR4qZfW4nQI5Q"}, {"name": "Holy Buckets Lincolnwood", "address": "7150 N McCormick Blvd, Lincolnwood, IL 60712", "phone": "(708) 516-6192", "state": "Illinois", "products": ["Chicken"], "expires": "2025-12-31T00:00:00", "certification": "HMS", "lat": 42.01067279999999, "lng": -87.7119994, "nav_url": "https://www.google.com/maps/search/?api=1&query=7150%20N%20McCormick%20Blvd%2C%20Lincolnwood%2C%20IL%2060712&query_place_id=ChIJgwPPnHTPD4gRvTtH-3e0LZk"}, {"name": "Kabul Kabob Bridgeview ", "address": "7265 W. 87th St, Bridgeview, IL 60455", "phone": "(708) 529-0590", "state": "Illinois", "products": ["Chicken", "Lamb", "Goat", "Veal", "Beef"], "expires": "2025-12-31T00:00:00", "certification": "HMS", "lat": 41.7328244, "lng": -87.80139750000001, "nav_url": "https://www.google.com/maps/search/?api=1&query=7265%20W.%2087th%20St%2C%20Bridgeview%2C%20IL%2060455&query_place_id=ChIJ_RsLhds5DogRE_Z2NvRx_ic"}, {"name": "Deccan Bawarchi", "address": "17933 Haggerty Rd, Township of Northville, MI 48168", "phone": "(248) 916-8700 ", "state": "Michigan", "products": ["Chicken", "Lamb", "Goat"], "expires": "2025-12-31T00:00:00", "certification": "HMS", "lat": 42.41580219999999, "lng": -83.4345908, "nav_url": "https://www.google.com/maps/search/?api=1&query=17933%20Haggerty%20Rd%2C%20Township%20of%20Northville%2C%20MI%2048168&query_place_id=ChIJe4lP5LmtJIgR5puN0YQBADI"}, {"name": "Zahid Nihari", "address": "948 S Barrington Rd, Streamwood, IL 60107", "phone": "(630) 855-6235", "state": "Illinois", "products": ["Chicken", "Lamb", "Goat", "Veal", "Beef"], "expires": "2025-12-31T00:00:00", "certification": "HMS", "lat": 42.0136409, "lng": -88.14526479999999, "nav_url": "https://www.google.com/maps/search/?api=1&query=948%20S%20Barrington%20Rd%2C%20Streamwood%2C%20IL%2060107&query_place_id=ChIJmWR-Z-3RD4gRF8lX4l9sVO4"}, {"name": "Hangry Joe's Hot Chicken", "address": "1025 N Elmhurst Rd, Mt Prospect, IL 60056", "phone": "(224) 857-8113", "state": "Illinois", "products": ["Chicken"], "expires": "2025-12-31T00:00:00", "certification": "HMS", "lat": 42.0840511, "lng": -87.9363717, "nav_url": "https://www.google.com/maps/search/?api=1&query=1025%20N%20Elmhurst%20Rd%2C%20Mt%20Prospect%2C%20IL%2060056&query_place_id=ChIJQbkJBMG7D4gRm1MjSD8sibU"}, {"name": "Fry", "address": "8439 W Golf Rd Niles, IL 60714", "phone": "(224) 251-8729", "state": "Illinois", "products": ["Chicken"], "expires": "2025-12-31T00:00:00", "certification": "HMS", "lat": 42.05417629999999, "lng": -87.83677809999999, "nav_url": "https://www.google.com/maps/search/?api=1&query=8439%20W%20Golf%20Rd%20Niles%2C%20IL%2060714&query_place_id=ChIJ7SSQjDjJD4gRPuwvfFsgRH0"}, {"name": "Tandoori Restaurant", "address": "9344 Ballard Rd, Des Plaines, IL 60016", "phone": "(847) 824-6550", "state": "Illinois", "products": ["Chicken", "Lamb", "Goat", "Veal", "Beef"], "expires": "2025-12-31T00:00:00", "certification": "HMS", "lat": 42.0436965, "lng": -87.8582285, "nav_url": "https://www.google.com/maps/search/?api=1&query=9344%20Ballard%20Rd%2C%20Des%20Plaines%2C%20IL%2060016&query_place_id=ChIJ9a_jXuG3D4gR94v3QTGuQ2Q"}, {"name": "Byrd's Hot Chicken Chicago", "address": "2634 N Clark St, Chicago, IL 60614", "phone": "(872) 808-2300", "state": "Illinois", "products": ["Chicken"], "expires": "2025-12-31T00:00:00", "certification": "HMS", "lat": 41.93049509999999, "lng": -87.6440712, "nav_url": "https://www.google.com/maps/search/?api=1&query=2634%20N%20Clark%20St%2C%20Chicago%2C%20IL%2060614&query_place_id=ChIJjfb08SvTD4gRUiCjFDDV6rA"}, {"name": "Chicken Factory ", "address": "3517 N Spaulding ave, Chicago, IL 60618 ", "phone": "(872) 262-6787", "state": "Illinois", "products": ["Chicken", "Beef"], "expires": "1950-01-01T00:00:00", "certification": "HMS", "lat": 41.94553639999999, "lng": -87.70954309999999, "nav_url": "https://www.google.com/maps/search/?api=1&query=3517%20N%20Spaulding%20ave%2C%20Chicago%2C%20IL%2060618%20&query_place_id=ChIJb1p81ijND4gRpze7EoEk2eM"}, {"name": "Chef's Mahal by Mannan", "address": "37-19 73 Street, 2nd Fl, Jackson Heights, NY 11372", "phone": "(718) 426-9899", "state": "New York", "products": ["Chicken", "Lamb", "Goat", "Beef"], "expires": "2025-12-31T00:00:00", "certification": "HMS", "lat": 40.7482792, "lng": -73.8923763, "nav_url": "https://www.google.com/maps/search/?api=1&query=37-19%2073%20Street%2C%202nd%20Fl%2C%20Jackson%20Heights%2C%20NY%2011372&query_place_id=ChIJS6n9iiJfwokR4n_xD1SpW6I"}, {"name": "Azka Events & Catering (Addy's BBQ Elmont Party Hall)", "address": "793 Elmont Road, Elmont, NY 11003", "phone": "(718) 578-7400", "state": "New York", "products": ["Caterer"], "expires": "2024-12-31T00:00:00", "certification": "HMS", "lat": 40.6907192, "lng": -73.7204302, "nav_url": "https://www.google.com/maps/search/?api=1&query=793%20Elmont%20Road%2C%20Elmont%2C%20NY%2011003&query_place_id=ChIJ9XOxsZNjwokRoPhUf9DfCCQ"}, {"name": "Ameer Tandoori Kabab", "address": "2307 W. Devon Ave, Chicago, IL 60659", "phone": "(773) 739-9265", "state": "Illinois", "products": ["Chicken", "Lamb", "Goat", "Beef"], "expires": "1950-01-01T00:00:00", "certification": "HMS", "lat": 41.9975519, "lng": -87.68780819999999, "nav_url": "https://www.google.com/maps/search/?api=1&query=2307%20W.%20Devon%20Ave%2C%20Chicago%2C%20IL%2060659&query_place_id=ChIJhyuhkKTRD4gRDBOaCXD6H2U"}, {"name": "Baba's Restaurant", "address": "10276 Page Ave, St. Louis, MO 63114", "phone": "(314) 427-8500", "state": "Missouri", "products": ["Chicken", "Lamb", "Goat", "Veal", "Beef"], "expires": "2025-12-31T00:00:00", "certification": "HMS", "lat": 38.6906496, "lng": -90.3877009, "nav_url": "https://www.google.com/maps/search/?api=1&query=10276%20Page%20Ave%2C%20St.%20Louis%2C%20MO%2063114&query_place_id=ChIJ_bRg83Yz34cRuIgAk-PVN90"}, {"name": "Dosa & Biryani Corner", "address": "9180 W. Golf Road, Niles, IL 60714", "phone": "(224) 567-8497", "state": "Illinois", "products": ["Chicken"], "expires": "2025-12-31T00:00:00", "certification": "HMS", "lat": 42.0552198, "lng": -87.8545125, "nav_url": "https://www.google.com/maps/search/?api=1&query=9180%20W.%20Golf%20Road%2C%20Niles%2C%20IL%2060714&query_place_id=ChIJXZvl5o_JD4gRX0gqTSmlI9M"}, {"name": "Lazzat Uzbek Restaurant", "address": "670 Wise Rd, Hanover Park, IL 60133", "phone": "(847) 893-6069", "state": "Illinois", "products": ["Chicken", "Lamb", "Beef"], "expires": "2025-12-31T00:00:00", "certification": "HMS", "lat": 42.0039679, "lng": -88.1259888, "nav_url": "https://www.google.com/maps/search/?api=1&query=670%20Wise%20Rd%2C%20Hanover%20Park%2C%20IL%2060133&query_place_id=ChIJC0vXotOpD4gRb96pArLBhiA"}, {"name": "BBQ King Express (Plano)", "address": "6900 ALMA DR, STE 100, PLANO, TX 75023", "phone": "(972) 517-5151", "state": "Texas", "products": ["Chicken", "Lamb", "Goat", "Veal", "Beef"], "expires": "2024-12-31T00:00:00", "certification": "HMS", "lat": 33.0681452, "lng": -96.7086392, "nav_url": "https://www.google.com/maps/search/?api=1&query=6900%20ALMA%20DR%2C%20STE%20100%2C%20PLANO%2C%20TX%2075023&query_place_id=ChIJ1zZ6zK4ZTIYRzm-N__nJS04"}, {"name": "Delhi Darbar", "address": "3010 W Devon Ave, Chicago, IL 60659", "phone": "(773) 338-1818", "state": "Illinois", "products": ["Chicken", "Lamb", "Goat", "Veal", "Beef"], "expires": "2025-12-31T00:00:00", "certification": "HMS", "lat": 41.9975876, "lng": -87.7050986, "nav_url": "https://www.google.com/maps/search/?api=1&query=3010%20W%20Devon%20Ave%2C%20Chicago%2C%20IL%2060659&query_place_id=ChIJo9Vb9iLOD4gR8NIzMkXtE0k"}, {"name": "Cultura Steaks", "address": "9430 Waukegan Rd, Morton Grove, IL 60053", "phone": "(872) 285-8872", "state": "Illinois", "products": ["Chicken", "Beef"], "expires": "2024-12-31T00:00:00", "certification": "HMS", "lat": 42.0532397, "lng": -87.7999267, "nav_url": "https://www.google.com/maps/search/?api=1&query=9430%20Waukegan%20Rd%2C%20Morton%20Grove%2C%20IL%2060053&query_place_id=ChIJe7n5YvHJD4gR7AP4IBia7IY"}, {"name": "Mehrab Restaurant", "address": "2437 W. Devon Ave, Chicago, IL 60659", "phone": "(773) 856-3531", "state": "Illinois", "products": ["Chicken", "Goat"], "expires": "2025-12-31T00:00:00", "certification": "HMS", "lat": 41.9975181, "lng": -87.6913917, "nav_url": "https://www.google.com/maps/search/?api=1&query=2437%20W.%20Devon%20Ave%2C%20Chicago%2C%20IL%2060659&query_place_id=ChIJTTHANXXRD4gR8hoNCZYXszU"}, {"name": "Kabab King Grill", "address": "3124 IL Rte 59 Suite 142, Naperville, IL 60564", "phone": "(331) 472-4555", "state": "Illinois", "products": ["Chicken", "Lamb", "Goat", "Veal", "Beef"], "expires": "2024-12-31T00:00:00", "certification": "HMS", "lat": 41.7068508, "lng": -88.2041713, "nav_url": "https://www.google.com/maps/search/?api=1&query=3124%20IL%20Rte%2059%20Suite%20142%2C%20Naperville%2C%20IL%2060564&query_place_id=ChIJI8VimnH3DogR0CY8L2lR9Pc"}, {"name": "Chicken Factory", "address": " 609 Roosevelt Rd Maywood, IL 60153", "phone": "(708) 356-6222", "state": "Illinois", "products": ["Chicken", "Beef"], "expires": "1910-01-01T00:00:00", "certification": "HMS", "lat": 41.8646765, "lng": -87.84013329999999, "nav_url": "https://www.google.com/maps/search/?api=1&query=%20609%20Roosevelt%20Rd%20Maywood%2C%20IL%2060153&query_place_id=ChIJ4fUkirc1DogRV3E9elJ4sTA"}, {"name": "Shadaab Restaurant", "address": "2309-11 W. Devon Ave, Chicago, IL 60659", "phone": "(877) 742-3222", "state": "Illinois", "products": ["Chicken", "Lamb", "Goat", "Veal", "Beef"], "expires": "1950-01-01T00:00:00", "certification": "HMS", "lat": 41.9974776, "lng": -87.6879622, "nav_url": "https://www.google.com/maps/search/?api=1&query=2309-11%20W.%20Devon%20Ave%2C%20Chicago%2C%20IL%2060659&query_place_id=ChIJXd3Zj3_RD4gR3vra-g6tnv8"}, {"name": "Byrd's Hot Chicken Oak Lawn", "address": "6256 W 95th St, Oak Lawn, IL 60453", "phone": "(708) 576-8623", "state": "Illinois", "products": ["Chicken"], "expires": "2025-12-31T00:00:00", "certification": "HMS", "lat": 41.720701, "lng": -87.77706239999999, "nav_url": "https://www.google.com/maps/search/?api=1&query=6256%20W%2095th%20St%2C%20Oak%20Lawn%2C%20IL%2060453&query_place_id=ChIJW6Ox2No5DogRt_knwsJ8ttk"}, {"name": "Datar Gyro & Grill", "address": "293 East Meadow Ave, East Meadow, NY 11554", "phone": "(516) 603-1318", "state": "New York", "products": ["Chicken", "Lamb", "Goat", "Beef"], "expires": "2025-12-31T00:00:00", "certification": "HMS", "lat": 40.7167116, "lng": -73.5613651, "nav_url": "https://www.google.com/maps/search/?api=1&query=293%20East%20Meadow%20Ave%2C%20East%20Meadow%2C%20NY%2011554&query_place_id=ChIJm4wsCwB9wokRsWOE_e1319w"}, {"name": "Sumaq Mediterranean Grill", "address": "925 A Carmans Rd, Massapequa, NY 11758", "phone": "(631) 304-0864", "state": "New York", "products": ["Chicken", "Lamb", "Goat", "Beef"], "expires": "2025-12-31T00:00:00", "certification": "HMS", "lat": 40.7003522, "lng": -73.4309757, "nav_url": "https://www.google.com/maps/search/?api=1&query=925%20A%20Carmans%20Rd%2C%20Massapequa%2C%20NY%2011758&query_place_id=ChIJq0XFtqDV6YkR3Blr4IG0pPU"}, {"name": "Chick N Drip", "address": "213-02 42nd Ave, Queens, NY 11361", "phone": "(516) 618-6938", "state": "New York", "products": ["Chicken", "Lamb", "Beef"], "expires": "2025-12-31T00:00:00", "certification": "HMS", "lat": 40.7624891, "lng": -73.7711498, "nav_url": "https://www.google.com/maps/search/?api=1&query=213-02%2042nd%20Ave%2C%20Queens%2C%20NY%2011361&query_place_id=ChIJe4Nudf5hwokRUdcvpaHvQII"}, {"name": "Pakshala Restaurant & Grill", "address": "81-20 Broadway, Elmhurst, NY 11373", "phone": "(929) 799-1530", "state": "New York", "products": ["Chicken", "Lamb", "Goat", "Beef"], "expires": "2025-12-31T00:00:00", "certification": "HMS", "lat": 40.7429826, "lng": -73.88344529999999, "nav_url": "https://www.google.com/maps/search/?api=1&query=81-20%20Broadway%2C%20Elmhurst%2C%20NY%2011373&query_place_id=ChIJ04dqzDBfwokRtqzFV9Z4l9w"}, {"name": "Holy Cow Hicksville", "address": "459 S Broadway, Hicksville, NY 11801", "phone": "(516) 629-7555", "state": "New York", "products": ["Chicken", "Lamb", "Beef", "Turkey"], "expires": "2024-12-31T00:00:00", "certification": "HMS", "lat": 40.7580012, "lng": -73.5117578, "nav_url": "https://www.google.com/maps/search/?api=1&query=459%20S%20Broadway%2C%20Hicksville%2C%20NY%2011801&query_place_id=ChIJH8HG1CGBwokRCez0KWQ-sKs"}, {"name": "Dastarkhwan", "address": "6418 N Western Ave, Chicago, IL 60645", "phone": "(872) 302-4175", "state": "Illinois", "products": ["Chicken", "Lamb", "Goat", "Beef"], "expires": "2025-12-31T00:00:00", "certification": "HMS", "lat": 41.998277, "lng": -87.69026699999999, "nav_url": "https://www.google.com/maps/search/?api=1&query=6418%20N%20Western%20Ave%2C%20Chicago%2C%20IL%2060645&query_place_id=ChIJ6_lgtAnRD4gRexfcTVaoamU"}, {"name": "Holy Cow Selden ", "address": "1245 Middle Country Rd, Selden, NY 11784\t", "phone": "(631) 846-3393\t", "state": "New York", "products": ["Chicken", "Lamb", "Beef", "Turkey"], "expires": "2025-12-31T00:00:00", "certification": "HMS", "lat": 40.8633335, "lng": -73.05427089999999, "nav_url": "https://www.google.com/maps/search/?api=1&query=1245%20Middle%20Country%20Rd%2C%20Selden%2C%20NY%2011784%09&query_place_id=ChIJg4Z7rWlH6IkRylVdmk-aAbk"}, {"name": "Sorry Mommy", "address": "5153 New Wilke Rd, Rolling Meadows, IL 60008", "phone": "(224) 248-9947", "state": "Illinois", "products": ["Chicken", "Lamb", "Beef"], "expires": "2025-12-31T00:00:00", "certification": "HMS", "lat": 42.055977, "lng": -88.0036911, "nav_url": "https://www.google.com/maps/search/?api=1&query=5153%20New%20Wilke%20Rd%2C%20Rolling%20Meadows%2C%20IL%2060008&query_place_id=ChIJFxLH6auxD4gR0sQixZOXwn4"}, {"name": "Sultani Grill", "address": "2851 Esters Rd, Irving, TX 75062", "phone": "(972) 600-9309 ", "state": "Texas", "products": ["Chicken", "Lamb", "Goat", "Veal", "Beef"], "expires": "1900-01-01T00:00:00", "certification": "HMS", "lat": 32.8464952, "lng": -97.00926489999999, "nav_url": "https://www.google.com/maps/search/?api=1&query=2851%20Esters%20Rd%2C%20Irving%2C%20TX%2075062&query_place_id=ChIJa1WrVwGBToYR2J1kUJaZaK0"}, {"name": "Spice on Wheels", "address": "729 W Farm To Market 544, Murphy, TX 75094", "phone": "(945) 208-3795", "state": "Texas", "products": ["Chicken", "Lamb"], "expires": "1950-01-01T00:00:00", "certification": "HMS", "lat": 33.0117187, "lng": -96.6301608, "nav_url": "https://www.google.com/maps/search/?api=1&query=729%20W%20Farm%20To%20Market%20544%2C%20Murphy%2C%20TX%2075094&query_place_id=Ei43MjkgVyBGYXJtIFRvIE1hcmtldCA1NDQsIFBsYW5vLCBUWCA3NTA5NCwgVVNBIjESLwoUChIJyT6mmJkbTIYRV2lDlxd_9n4Q2QUqFAoSCR89yQyZG0yGEQv0lM0j2ttP"}, {"name": "Zaafran Kitchen", "address": "810 W Arapaho Rd Suite 74, Richardson, TX 75080", "phone": "(469) 563-9951", "state": "Texas", "products": ["Chicken", "Lamb", "Goat", "Veal", "Beef"], "expires": "2025-12-31T00:00:00", "certification": "HMS", "lat": 32.9633473, "lng": -96.7488556, "nav_url": "https://www.google.com/maps/search/?api=1&query=810%20W%20Arapaho%20Rd%20Suite%2074%2C%20Richardson%2C%20TX%2075080&query_place_id=ChIJnfhn03wfTIYR3sS5rbk-UQI"}, {"name": "Ali Baba Grocery (Takeout & Catering)", "address": "179 S SCHMALE RD, CAROL STREAM, IL 60188", "phone": "(630) 868-3572", "state": "Illinois", "products": ["Chicken", "Lamb", "Goat", "Veal", "Beef"], "expires": "2025-12-31T00:00:00", "certification": "HMS", "lat": 41.90073100000001, "lng": -88.1008454, "nav_url": "https://www.google.com/maps/search/?api=1&query=179%20S%20SCHMALE%20RD%2C%20CAROL%20STREAM%2C%20IL%2060188&query_place_id=ChIJPblbTlJVDogROZo5s5Baeio"}, {"name": "Jannat Restaurant", "address": "2997 Kirchoff Rd, Rolling Meadows, IL 60008", "phone": "(224) 600-9515", "state": "Illinois", "products": ["Chicken", "Lamb", "Goat", "Veal", "Beef"], "expires": "2025-12-31T00:00:00", "certification": "HMS", "lat": 42.0775235, "lng": -88.0166971, "nav_url": "https://www.google.com/maps/search/?api=1&query=2997%20Kirchoff%20Rd%2C%20Rolling%20Meadows%2C%20IL%2060008&query_place_id=ChIJRfqZE26lD4gRop05vvqZMoI"}, {"name": "Shawarma Junction", "address": "3601 Regent Blvd Suite 160, Irving, TX 75063", "phone": "(469) 276-7444", "state": "Texas", "products": ["Chicken", "Beef"], "expires": "2025-12-31T00:00:00", "certification": "HMS", "lat": 32.9213192, "lng": -96.9958869, "nav_url": "https://www.google.com/maps/search/?api=1&query=3601%20Regent%20Blvd%20Suite%20160%2C%20Irving%2C%20TX%2075063&query_place_id=ChIJq_wEm_YpTIYRfWyxE-d1J0k"}, {"name": "Hangry Joe's Hot Chicken", "address": "252 Town Center Ln, Glendale Heights, IL 60139", "phone": "(224) 653-8034", "state": "Illinois", "products": ["Chicken"], "expires": "2025-12-31T00:00:00", "certification": "HMS", "lat": 41.9378165, "lng": -88.0779065, "nav_url": "https://www.google.com/maps/search/?api=1&query=252%20Town%20Center%20Ln%2C%20Glendale%20Heights%2C%20IL%2060139&query_place_id=ChIJowoQsnitD4gRN8kl2DxV994"}, {"name": "Hello Shawarma (Hello Thai Not HMS Certified)", "address": "10272 S Harlem Ave, Bridgeview, IL 60455", "phone": "(708) 490-4444", "state": "Illinois", "products": ["Chicken", "Lamb", "Beef"], "expires": "2024-12-31T00:00:00", "certification": "HMS", "lat": 41.705564, "lng": -87.79864239999999, "nav_url": "https://www.google.com/maps/search/?api=1&query=10272%20S%20Harlem%20Ave%2C%20Bridgeview%2C%20IL%2060455&query_place_id=ChIJR0gAtHc5DogRg5E6JlwOnS8"}, {"name": "Holy Cow Mount Vernon", "address": "524 Gramatan Ave, Mount Vernon, NY 10552", "phone": "(914) 371-1765", "state": "New York", "products": ["Chicken", "Lamb", "Beef", "Turkey"], "expires": "2025-12-31T00:00:00", "certification": "HMS", "lat": 40.9251617, "lng": -73.8362355, "nav_url": "https://www.google.com/maps/search/?api=1&query=524%20Gramatan%20Ave%2C%20Mount%20Vernon%2C%20NY%2010552&query_place_id=ChIJodZQXIyNwokRDa5LpmkkXBs"}, {"name": "DUA Italian Cuisine and Steak House", "address": "742 W. Higgins Rd Suite 1, Park Ridge, IL 60068", "phone": "(224) 775-3115", "state": "Illinois", "products": ["Chicken", "Lamb", "Beef"], "expires": "2025-12-31T00:00:00", "certification": "HMS", "lat": 41.9863276, "lng": -87.834914, "nav_url": "https://www.google.com/maps/search/?api=1&query=742%20W.%20Higgins%20Rd%20Suite%201%2C%20Park%20Ridge%2C%20IL%2060068&query_place_id=ChIJpZxBbVfJD4gRTA2VsU-iuxQ"}, {"name": "Shawarmati Restaurant", "address": "1600 Maple Ave Ste F, Lisle, IL 60532", "phone": "(331) 291-5035", "state": "Illinois", "products": ["Chicken", "Lamb", "Beef"], "expires": "1950-01-01T00:00:00", "certification": "HMS", "lat": 41.7860087, "lng": -88.0827583, "nav_url": "https://www.google.com/maps/search/?api=1&query=1600%20Maple%20Ave%20Ste%20F%2C%20Lisle%2C%20IL%2060532&query_place_id=ChIJAXFemYFRDogRSmKr4fhRn5Y"}, {"name": "Burger Hut", "address": "805 Woodbridge Pkwy Suite 100, Wylie, TX 75098", "phone": "(469) 786-0131", "state": "Texas", "products": ["Chicken", "Beef"], "expires": "2025-12-31T00:00:00", "certification": "HMS", "lat": 33.0088656, "lng": -96.573989, "nav_url": "https://www.google.com/maps/search/?api=1&query=805%20Woodbridge%20Pkwy%20Suite%20100%2C%20Wylie%2C%20TX%2075098&query_place_id=ChIJEd45h_cFTIYRF9PBIcQuCDM"}, {"name": "Holy Cow Dallas", "address": "18111 Dallas Pkwy suite c200, Dallas, TX 75287", "phone": "(972) 863-8207", "state": "Texas", "products": ["Chicken", "Beef"], "expires": "2025-12-31T00:00:00", "certification": "HMS", "lat": 32.9958891, "lng": -96.8302009, "nav_url": "https://www.google.com/maps/search/?api=1&query=18111%20Dallas%20Pkwy%20suite%20c200%2C%20Dallas%2C%20TX%2075287&query_place_id=ChIJE-jw-UQjTIYRQ6IgPdhn428"}, {"name": "Burgery", "address": "149-21 Jamaica Ave, Jamaica, NY 11345", "phone": "(917) 892-4929", "state": "New York", "products": ["Chicken", "Lamb", "Beef"], "expires": "2025-12-31T00:00:00", "certification": "HMS", "lat": 40.7022514, "lng": -73.80496049999999, "nav_url": "https://www.google.com/maps/search/?api=1&query=149-21%20Jamaica%20Ave%2C%20Jamaica%2C%20NY%2011345&query_place_id=ChIJI4Pvl4JhwokRQiJXyWrqbNQ"}, {"name": "Khanum's Kitchen", "address": "4416 Belfast Rd, Glen Allen, VA 23060", "phone": "(804) 814-0230", "state": "Virginia", "products": ["Chicken", "Lamb", "Goat", "Veal", "Beef"], "expires": "2025-12-31T00:00:00", "certification": "HMS", "lat": 37.657391, "lng": -77.59606289999999, "nav_url": "https://www.google.com/maps/search/?api=1&query=4416%20Belfast%20Rd%2C%20Glen%20Allen%2C%20VA%2023060&query_place_id=ChIJcRK41ZxqsYkRQnJ-7CZ5GPc"}, {"name": "Anor 1985", "address": "1450 W Webster Ave, Chicago, IL 60614", "phone": "(872) 946-2024", "state": "Illinois", "products": ["Chicken", "Lamb", "Beef"], "expires": "2025-12-31T00:00:00", "certification": "HMS", "lat": 41.92169, "lng": -87.6650003, "nav_url": "https://www.google.com/maps/search/?api=1&query=1450%20W%20Webster%20Ave%2C%20Chicago%2C%20IL%2060614&query_place_id=ChIJl9p7L6rTD4gRL1-gAkyqXEo"}, {"name": "Ruman Chai Shai & Restaurant", "address": "6348 N Artesian Ave, Chicago, IL 60659", "phone": "(773) 654-8056", "state": "Illinois", "products": ["Chicken", "Lamb", "Goat", "Veal", "Beef"], "expires": "2025-12-31T00:00:00", "certification": "HMS", "lat": 41.9973694, "lng": -87.69122019999999, "nav_url": "https://www.google.com/maps/search/?api=1&query=6348%20N%20Artesian%20Ave%2C%20Chicago%2C%20IL%2060659&query_place_id=ChIJybI-xE_RD4gRxngFJCbWPYk"}, {"name": "Fried Junction", "address": "6349 N Claremont Ave, Chicago, IL 60659", "phone": "(872) 330-7576", "state": "Illinois", "products": ["Chicken", "Lamb", "Goat", "Veal"], "expires": "2025-12-31T00:00:00", "certification": "HMS", "lat": 41.9973605, "lng": -87.6884595, "nav_url": "https://www.google.com/maps/search/?api=1&query=6349%20N%20Claremont%20Ave%2C%20Chicago%2C%20IL%2060659&query_place_id=ChIJPwlj_rXRD4gRGnfR98PBDHA"}, {"name": "Alsham Supermarket (Takeout & Catering)", "address": "1217 S Main St, Lombard, IL 60148 ", "phone": "(331) 307-7153", "state": "Illinois", "products": ["Chicken", "Lamb", "Goat", "Veal", "Beef"], "expires": "2025-12-31T00:00:00", "certification": "HMS", "lat": 41.8594085, "lng": -88.0167165, "nav_url": "https://www.google.com/maps/search/?api=1&query=1217%20S%20Main%20St%2C%20Lombard%2C%20IL%2060148%20&query_place_id=ChIJzTCtI3xSDogR_6tA64G1PQg"}, {"name": "Byrd's Hot Chicken Novi", "address": "43444 West Oaks Drive, Novi, MI 48377", "phone": "(248) 513-3700", "state": "Michigan", "products": ["Chicken"], "expires": "2025-12-31T00:00:00", "certification": "HMS", "lat": 42.49454739999999, "lng": -83.4777269, "nav_url": "https://www.google.com/maps/search/?api=1&query=43444%20West%20Oaks%20Drive%2C%20Novi%2C%20MI%2048377&query_place_id=ChIJnS-KnXWvJIgRGAo-2UXnRiE"}, {"name": " Smash IT Burgers", "address": "6037 Dempster St, Morton Grove, IL 60053", "phone": "(224) 251-7083", "state": "Illinois", "products": ["Chicken", "Beef"], "expires": "2025-12-31T00:00:00", "certification": "HMS", "lat": 42.0407743, "lng": -87.77772859999999, "nav_url": "https://www.google.com/maps/search/?api=1&query=6037%20Dempster%20St%2C%20Morton%20Grove%2C%20IL%2060053&query_place_id=ChIJpdZnh7vJD4gRmnYkzTcbgfI"}, {"name": "Gyro Hut and Grill ", "address": "22-28 Hempstead Turnpike, Farmingdale, NY 11735", "phone": "(516) 249-7414", "state": "New York", "products": ["Chicken", "Lamb", "Beef"], "expires": "2025-12-31T00:00:00", "certification": "HMS", "lat": 40.7294121, "lng": -73.4625641, "nav_url": "https://www.google.com/maps/search/?api=1&query=22-28%20Hempstead%20Turnpike%2C%20Farmingdale%2C%20NY%2011735&query_place_id=ChIJaZUKRo8r6IkRlCE-cXxSFEg"}, {"name": "Al Badia Tandoori", "address": "2525 W Devon Ave, Chicago, IL 60659", "phone": "(872) 348-1999", "state": "Illinois", "products": ["Chicken", "Lamb", "Goat", "Veal", "Beef"], "expires": "2025-12-31T00:00:00", "certification": "HMS", "lat": 41.9975542, "lng": -87.6934137, "nav_url": "https://www.google.com/maps/search/?api=1&query=2525%20W%20Devon%20Ave%2C%20Chicago%2C%20IL%2060659&query_place_id=ChIJAbgPeSPRD4gRdyDOSd_COk4"}, {"name": "NYC Halal Eats", "address": "2657 W Devon Ave, Chicago, IL 60659", "phone": "(773) 739-9244", "state": "Illinois", "products": ["Chicken", "Lamb", "Beef"], "expires": "2025-12-31T00:00:00", "certification": "HMS", "lat": 41.9973451, "lng": -87.6968225, "nav_url": "https://www.google.com/maps/search/?api=1&query=2657%20W%20Devon%20Ave%2C%20Chicago%2C%20IL%2060659&query_place_id=ChIJiyZdpj3RD4gRXDjd-2MLsmk"}, {"name": "Halal Smash Burger & Phillies", "address": "6404 N. California Ave, Chicago, IL 60645", "phone": "(773) 856-0236", "state": "Illinois", "products": ["Chicken", "Lamb", "Beef"], "expires": "2025-12-31T00:00:00", "certification": "HMS", "lat": 41.9978511, "lng": -87.6998832, "nav_url": "https://www.google.com/maps/search/?api=1&query=6404%20N.%20California%20Ave%2C%20Chicago%2C%20IL%2060645&query_place_id=ChIJgVS06rrPD4gR6YvjzkxPcr4"}, {"name": "Kababish Indian Cuisine", "address": "2735 Hassert Blvd #143, Naperville, IL 60564", "phone": "(331) 472-4151", "state": "Illinois", "products": ["Chicken", "Lamb", "Goat"], "expires": "2025-12-31T00:00:00", "certification": "HMS", "lat": 41.681594, "lng": -88.20318209999999, "nav_url": "https://www.google.com/maps/search/?api=1&query=2735%20Hassert%20Blvd%20%23143%2C%20Naperville%2C%20IL%2060564&query_place_id=ChIJEw58_RD3DogRalspSZb-eJk"}, {"name": "Espetadas", "address": "1318 Centennial Ave, Piscataway, NJ 08854", "phone": "(732) 654-6278", "state": "New Jersey", "products": ["Chicken", "Lamb", "Beef"], "expires": "2024-12-31T00:00:00", "certification": "HMS", "lat": 40.551974, "lng": -74.4421605, "nav_url": "https://www.google.com/maps/search/?api=1&query=1318%20Centennial%20Ave%2C%20Piscataway%2C%20NJ%2008854&query_place_id=ChIJE_bqWJa5w4kRboubr_ysfmw"}, {"name": "Burger Moovment", "address": "7512 W North Ave, Elmwood Park, IL 60707", "phone": "(708) 452-7288", "state": "Illinois", "products": ["Chicken", "Beef"], "expires": "2025-12-31T00:00:00", "certification": "HMS", "lat": 41.9088157, "lng": -87.8137921, "nav_url": "https://www.google.com/maps/search/?api=1&query=7512%20W%20North%20Ave%2C%20Elmwood%20Park%2C%20IL%2060707&query_place_id=ChIJ-yld2CfLD4gRWEpBgoFWmLE"}, {"name": "Maria's Halal Pizzeria", "address": "590 Potter Rd, Des Plaines, IL 60016", "phone": "(847) 297-7181", "state": "Illinois", "products": ["Chicken", "Lamb", "Beef"], "expires": "2025-12-31T00:00:00", "certification": "HMS", "lat": 42.04359059999999, "lng": -87.860485, "nav_url": "https://www.google.com/maps/search/?api=1&query=590%20Potter%20Rd%2C%20Des%20Plaines%2C%20IL%2060016&query_place_id=ChIJ14Zlqua3D4gR8pmFUBGOmZA"}, {"name": "Maria's Halal Pizzeria", "address": "245 S Roselle Rd, Schaumburg, IL 60193", "phone": "(847) 534-0910", "state": "Illinois", "products": ["Chicken", "Lamb", "Beef"], "expires": "2025-12-31T00:00:00", "certification": "HMS", "lat": 42.0225194, "lng": -88.0791964, "nav_url": "https://www.google.com/maps/search/?api=1&query=245%20S%20Roselle%20Rd%2C%20Schaumburg%2C%20IL%2060193&query_place_id=ChIJw4p5B9iuD4gRzpiqsTEaXGc"}, {"name": "Maria's Halal Pizzeria", "address": "116 S Bolingbrook Drive, Bolingbrook, IL 60440", "phone": "(630) 410-2300", "state": "Illinois", "products": ["Chicken", "Lamb", "Beef"], "expires": "2025-12-31T00:00:00", "certification": "HMS", "lat": 41.6979238, "lng": -88.0667834, "nav_url": "https://www.google.com/maps/search/?api=1&query=116%20S%20Bolingbrook%20Drive%2C%20Bolingbrook%2C%20IL%2060440&query_place_id=ChIJm0mLq7xbDogRjtS6QQvz6mU"}, {"name": "Hangry Joe's Arlington Heights and Chicago Pie", "address": "2932 W Euclid Ave #1, Arlington Heights, IL 60005", "phone": "(847) 749-1052", "state": "Illinois", "products": ["Chicken", "Beef"], "expires": "2025-12-31T00:00:00", "certification": "HMS", "lat": 42.0891421, "lng": -88.01951199999999, "nav_url": "https://www.google.com/maps/search/?api=1&query=2932%20W%20Euclid%20Ave%20%231%2C%20Arlington%20Heights%2C%20IL%2060005&query_place_id=ChIJ3Yy2_4GlD4gRwbpSzTEo7B0"}, {"name": "Holy Cow Brooklyn", "address": "41-13 Ave U, Brooklyn, NY 11234", "phone": "(718) 734-2540", "state": "New York", "products": ["Chicken", "Lamb", "Beef", "Turkey"], "expires": "2025-12-31T00:00:00", "certification": "HMS", "lat": 40.6090176, "lng": -73.9240607, "nav_url": "https://www.google.com/maps/search/?api=1&query=41-13%20Ave%20U%2C%20Brooklyn%2C%20NY%2011234&query_place_id=ChIJYe2Zi-tDwokRzcdmus7Muis"}, {"name": "Thali Corner", "address": "2350 W. Devon Ave, Chicago, IL 60659", "phone": "(773) 856-7860", "state": "Illinois", "products": ["Chicken", "Lamb", "Goat"], "expires": "2025-12-31T00:00:00", "certification": "HMS", "lat": 41.99791039999999, "lng": -87.6893681, "nav_url": "https://www.google.com/maps/search/?api=1&query=2350%20W.%20Devon%20Ave%2C%20Chicago%2C%20IL%2060659&query_place_id=ChIJGTqckrbRD4gRt0SnRhKOQ5Q"}, {"name": "Halal Smash Burger & Phillies", "address": "5019 N. Western Ave, Chicago, IL 60625", "phone": "(872) 241-4116", "state": "Illinois", "products": ["Chicken", "Lamb", "Beef"], "expires": "2025-12-31T00:00:00", "certification": "HMS", "lat": 41.9729087, "lng": -87.6888381, "nav_url": "https://www.google.com/maps/search/?api=1&query=5019%20N.%20Western%20Ave%2C%20Chicago%2C%20IL%2060625&query_place_id=ChIJYScp79_TD4gRhD4FMDuiyBc"}, {"name": "Wah Taj", "address": "1014 S. ELMHURST RD, MOUNT PROSPECT, IL 60056", "phone": "(224) 857-8156", "state": "Illinois", "products": ["Chicken", "Lamb", "Goat", "Veal", "Beef"], "expires": "2025-12-31T00:00:00", "certification": "HMS", "lat": 42.04683199999999, "lng": -87.9422448, "nav_url": "https://www.google.com/maps/search/?api=1&query=1014%20S.%20ELMHURST%20RD%2C%20MOUNT%20PROSPECT%2C%20IL%2060056&query_place_id=ChIJ4adcQRyxD4gR62iO6PuzMy4"}, {"name": "Shaahi Kitchen", "address": "249 S Bolingbrook Dr, Bolingbrook, IL 60440", "phone": "(630) 312-8913", "state": "Illinois", "products": ["Chicken", "Lamb", "Goat", "Veal", "Beef"], "expires": "1950-01-01T00:00:00", "certification": "HMS", "lat": 41.6934202, "lng": -88.0701922, "nav_url": "https://www.google.com/maps/search/?api=1&query=249%20S%20Bolingbrook%20Dr%2C%20Bolingbrook%2C%20IL%2060440&query_place_id=ChIJAw3O5HZbDogREqoAgfT1Z5g"}, {"name": "3 Chef's Persian Cuisine", "address": "1521 Ogden Ave, Aurora, IL 60503", "phone": "(331) 707-5968", "state": "Illinois", "products": ["Chicken", "Lamb", "Goat", "Veal", "Beef"], "expires": "2025-12-31T00:00:00", "certification": "HMS", "lat": 41.7206106, "lng": -88.27755959999999, "nav_url": "https://www.google.com/maps/search/?api=1&query=1521%20Ogden%20Ave%2C%20Aurora%2C%20IL%2060503&query_place_id=ChIJC4M7W3vxDogRTidExzd7-5c"}, {"name": "Kabab House", "address": "3411 Old Parham Rd, Richmond, VA 23294", "phone": "(804) 837-1748", "state": "Virginia", "products": ["Chicken", "Lamb", "Goat", "Veal", "Beef"], "expires": "2025-12-31T00:00:00", "certification": "HMS", "lat": 37.6287847, "lng": -77.5358682, "nav_url": "https://www.google.com/maps/search/?api=1&query=3411%20Old%20Parham%20Rd%2C%20Richmond%2C%20VA%2023294&query_place_id=ChIJYYdESRQVsYkRQRWKDTZ2r5c"}, {"name": "San Culinary", "address": "https://www.instagram.com/san.culinary/", "phone": "(708) 533-1539", "state": "Illinois", "products": ["Beef", "Caterer"], "expires": "2025-12-31T00:00:00", "certification": "HMS", "lat": 37.550964, "lng": -77.57165859999999, "nav_url": "https://www.google.com/maps/search/?api=1&query=https%3A//www.instagram.com/san.culinary/&query_place_id=ChIJyW3tjB4RsYkRWN8f_OFlatQ"}, {"name": "Hot Spot", "address": "959 Broadway St, Buffalo, NY 14212", "phone": "(716) 897-9465", "state": "New York", "products": ["Chicken", "Lamb", "Beef"], "expires": "2025-12-31T00:00:00", "certification": "HMS", "lat": 42.89292270000001, "lng": -78.839045, "nav_url": "https://www.google.com/maps/search/?api=1&query=959%20Broadway%20St%2C%20Buffalo%2C%20NY%2014212&query_place_id=ChIJdyAjm3gS04kRaeerPgUKlYw"}, {"name": "Awsan Mandi & Grill", "address": "29470 W 10 Mile Rd, Farmington Hills, MI 48336", "phone": "(248) 893-7236", "state": "Michigan", "products": ["Chicken", "Lamb", "Beef"], "expires": "2025-12-31T00:00:00", "certification": "HMS", "lat": 42.4709925, "lng": -83.3386728, "nav_url": "https://www.google.com/maps/search/?api=1&query=29470%20W%2010%20Mile%20Rd%2C%20Farmington%20Hills%2C%20MI%2048336&query_place_id=ChIJPW0cjwSxJIgRw5eo2CfeYus"}, {"name": "Paprika", "address": "15 E Palatine Rd Ste 110, Prospect Heights, IL 60070", "phone": "(224) 529-1149", "state": "Illinois", "products": ["Chicken", "Lamb", "Goat", "Veal", "Beef", "Caterer"], "expires": "2024-12-31T00:00:00", "certification": "HMS", "lat": 42.1089801, "lng": -87.905838, "nav_url": "https://www.google.com/maps/search/?api=1&query=15%20E%20Palatine%20Rd%20Ste%20110%2C%20Prospect%20Heights%2C%20IL%2060070&query_place_id=ChIJD6p1KQC5D4gRnfXvxzeHp7Y"}, {"name": "Byrd's Hot Chicken Lombard", "address": "2770 S Highland Ave Ste 102, Lombard, IL ", "phone": "(630) 785-3095", "state": "Illinois", "products": ["Chicken"], "expires": "2025-12-31T00:00:00", "certification": "HMS", "lat": 41.837042, "lng": -88.01261699999999, "nav_url": "https://www.google.com/maps/search/?api=1&query=2770%20S%20Highland%20Ave%20Ste%20102%2C%20Lombard%2C%20IL%20&query_place_id=ChIJB5Hx21NTDogRqHjh5l5jTMg"}, {"name": "The Cluckin", "address": "4440 W Airport Fwy, Irving, TX 75062", "phone": "(659) 258-2546", "state": "Texas", "products": ["Chicken"], "expires": "1900-01-01T00:00:00", "certification": "HMS", "lat": 32.8351985, "lng": -97.01406089999999, "nav_url": "https://www.google.com/maps/search/?api=1&query=4440%20W%20Airport%20Fwy%2C%20Irving%2C%20TX%2075062&query_place_id=ChIJdRGgoBKBToYR8psq-JFVO3Q"}, {"name": "Holy Cow Fulton Street", "address": "1460 Fulton Street, Brooklyn, NY 11216", "phone": "(718) 310-6092", "state": "New York", "products": ["Chicken", "Lamb", "Beef", "Turkey"], "expires": "2025-12-31T00:00:00", "certification": "HMS", "lat": 40.6798337, "lng": -73.94244, "nav_url": "https://www.google.com/maps/search/?api=1&query=1460%20Fulton%20Street%2C%20Brooklyn%2C%20NY%2011216&query_place_id=ChIJqQcq0LVbwokRbAE51EkxAVI"}, {"name": "Holy Cow Oakland Gardens", "address": "78-35D Springfield Blvd, Oakland Gardens, NY 11364", "phone": "(929) 759-0066", "state": "New York", "products": ["Chicken", "Lamb", "Beef", "Turkey"], "expires": "2025-12-31T00:00:00", "certification": "HMS", "lat": 40.73622140000001, "lng": -73.7467194, "nav_url": "https://www.google.com/maps/search/?api=1&query=78-35D%20Springfield%20Blvd%2C%20Oakland%20Gardens%2C%20NY%2011364&query_place_id=ChIJw5p3ZYdjwokRvo2i0C6pSPk"}, {"name": "Balanced Meals for All", "address": "Chicago, IL", "phone": "(917) 348-6408", "state": "Illinois", "products": ["Chicken", "Lamb", "Goat", "Veal", "Beef", "Caterer"], "expires": "2025-12-31T00:00:00", "certification": "HMS", "lat": 41.8972679, "lng": -87.6378095, "nav_url": "https://www.google.com/maps/search/?api=1&query=Chicago%2C%20IL&query_place_id=ChIJff9gXAjTD4gRttC8IdcsTqw"}, {"name": "Kolachi Kitchen", "address": "45300 Hanford Rd, Canton, MI 48187", "phone": "(734) 331-7909", "state": "Michigan", "products": ["Chicken", "Lamb", "Goat", "Veal", "Beef"], "expires": "2025-12-31T00:00:00", "certification": "HMS", "lat": 42.3295676, "lng": -83.4872329, "nav_url": "https://www.google.com/maps/search/?api=1&query=45300%20Hanford%20Rd%2C%20Canton%2C%20MI%2048187&query_place_id=ChIJdciDbw9TO4gRmM8Kx59AgcU"}, {"name": "Pali Pali Pizza & Korean Chicken ", "address": "100 W Northwest Hwy, Palatine, IL 60067", "phone": "(224) 539-8192", "state": "Illinois", "products": ["Chicken", "Beef"], "expires": "2025-12-31T00:00:00", "certification": "HMS", "lat": 42.1223623, "lng": -88.0462804, "nav_url": "https://www.google.com/maps/search/?api=1&query=100%20W%20Northwest%20Hwy%2C%20Palatine%2C%20IL%2060067&query_place_id=ChIJm3N15QWlD4gR2M-a37y7whE"}, {"name": "Delicious Eatery ", "address": "Glendale Heights", "phone": "(630) 362-7248", "state": "Illinois", "products": ["Chicken", "Lamb", "Goat", "Veal", "Beef", "Caterer"], "expires": "2025-12-31T00:00:00", "certification": "HMS", "lat": 41.90308479999999, "lng": -88.0575345, "nav_url": "https://www.google.com/maps/search/?api=1&query=Glendale%20Heights&query_place_id=ChIJ0eEiyixTDogR6rWNRDbboqA"}, {"name": "Holy Cow Woodland Park", "address": "654 Mcbride Ave, A, Woodland Park, NJ 07424", "phone": "(973) 333- 5729", "state": "New Jersey", "products": ["Chicken", "Lamb", "Beef", "Turkey"], "expires": "2025-12-31T00:00:00", "certification": "HMS", "lat": 40.9026786, "lng": -74.1997093, "nav_url": "https://www.google.com/maps/search/?api=1&query=654%20Mcbride%20Ave%2C%20A%2C%20Woodland%20Park%2C%20NJ%2007424&query_place_id=ChIJUSozXhP_wokRDtowticVb6Q"}, {"name": "Hyderabad House Villa Park", "address": "100 E Roosevelt Rd Ste 34, Villa Park, IL 60181", "phone": "(630) 501-0021", "state": "Illinois", "products": ["Chicken", "Lamb", "Goat", "Veal", "Beef"], "expires": "2025-12-31T00:00:00", "certification": "HMS", "lat": 41.8615038, "lng": -87.97490839999999, "nav_url": "https://www.google.com/maps/search/?api=1&query=100%20E%20Roosevelt%20Rd%20Ste%2034%2C%20Villa%20Park%2C%20IL%2060181&query_place_id=ChIJu85eRcJNDogR-G_zwmViYnI"}, {"name": "Masala Magic", "address": "1011 N Orleans St, Chicago, IL 60610", "phone": "(872) 342-3849", "state": "Illinois", "products": ["Chicken", "Lamb", "Goat", "Veal", "Beef"], "expires": "2025-12-31T00:00:00", "certification": "HMS", "lat": 41.9008866, "lng": -87.63718469999999, "nav_url": "https://www.google.com/maps/search/?api=1&query=1011%20N%20Orleans%20St%2C%20Chicago%2C%20IL%2060610&query_place_id=ChIJq6nI8knTD4gRAwc_JRQ45ag"}, {"name": "Zaiqa House", "address": "1709 Belt Line Rd, Garland, TX 75044", "phone": "(469) 781-5637", "state": "Texas", "products": ["Chicken", "Lamb", "Goat", "Beef"], "expires": "2025-12-31T00:00:00", "certification": "HMS", "lat": 32.9455506, "lng": -96.65399269999999, "nav_url": "https://www.google.com/maps/search/?api=1&query=1709%20Belt%20Line%20Rd%2C%20Garland%2C%20TX%2075044&query_place_id=ChIJu2ONb8YdTIYRlgBd09U58Kw"}, {"name": "Nawaz Gulshan", "address": "6237 N Western Ave, Chicago, IL 60659", "phone": "(773) 312-1595", "state": "Illinois", "products": ["Chicken", "Lamb", "Goat", "Beef"], "expires": "2025-12-31T00:00:00", "certification": "HMS", "lat": 41.9951946, "lng": -87.6896041, "nav_url": "https://www.google.com/maps/search/?api=1&query=6237%20N%20Western%20Ave%2C%20Chicago%2C%20IL%2060659&query_place_id=ChIJhZQn4NDRD4gRVY2nw9VgOlg"}, {"name": "Halal Bros Kabab Grill", "address": "667 Elmont Rd, Elmont, NY 11003", "phone": "(516) 217-4480", "state": "New York", "products": ["Chicken", "Lamb", "Beef"], "expires": "2025-01-16T00:00:00", "certification": "HMS", "lat": 40.6933704, "lng": -73.7176753, "nav_url": "https://www.google.com/maps/search/?api=1&query=667%20Elmont%20Rd%2C%20Elmont%2C%20NY%2011003&query_place_id=ChIJg1FyU4BjwokRyTOc6oznBNw"}, {"name": "Holy Cow Upper West Side", "address": "23 W 100 Street, New York, NY 10025", "phone": "(929) 708- 2671", "state": "New York", "products": ["Chicken", "Lamb", "Beef", "Turkey"], "expires": "2025-12-31T00:00:00", "certification": "HMS", "lat": 40.7948368, "lng": -73.9639605, "nav_url": "https://www.google.com/maps/search/?api=1&query=23%20W%20100%20Street%2C%20New%20York%2C%20NY%2010025&query_place_id=ChIJ4yA6UQD3wokRvoi0avrUDHE"}, {"name": "Holy Buckets Lombard", "address": "507 E Roosevelt Rd, Lombard, IL 60148", "phone": "(708) 931-4659", "state": "Illinois", "products": ["Chicken", "Beef"], "expires": "2025-12-31T00:00:00", "certification": "HMS", "lat": 41.8586872, "lng": -88.00468920000002, "nav_url": "https://www.google.com/maps/search/?api=1&query=507%20E%20Roosevelt%20Rd%2C%20Lombard%2C%20IL%2060148&query_place_id=ChIJ_29fZABNDogRdy--MMryUMM"}, {"name": "Holy Cow East Village", "address": "600 E 14 Street, New York, NY 10009", "phone": "(646) 918-7075", "state": "New York", "products": ["Chicken", "Beef", "Turkey"], "expires": "2025-12-31T00:00:00", "certification": "HMS", "lat": 40.72920999999999, "lng": -73.9779707, "nav_url": "https://www.google.com/maps/search/?api=1&query=600%20E%2014%20Street%2C%20New%20York%2C%20NY%2010009&query_place_id=ChIJ09fRc0pZwokR5IEEGSPaLBk"}, {"name": "Everything Halal", "address": "3701 Esters Rd # 106, Irving, TX 75038", "phone": "(972) 887-3742", "state": "Texas", "products": ["Chicken", "Lamb", "Beef"], "expires": "2025-12-31T00:00:00", "certification": "HMS", "lat": 32.8576863, "lng": -97.00851109999999, "nav_url": "https://www.google.com/maps/search/?api=1&query=3701%20Esters%20Rd%20%23%20106%2C%20Irving%2C%20TX%2075038&query_place_id=ChIJmec075uBToYR5VRfbJ9_HwY"}, {"name": "Taqueria Los Sombreros ", "address": "9370 Ballard Rd, Des Plaines, IL 60016", "phone": "(847) 824-4646", "state": "Illinois", "products": ["Chicken", "Beef", "Turkey"], "expires": "2025-12-31T00:00:00", "certification": "HMS", "lat": 42.0437605, "lng": -87.858716, "nav_url": "https://www.google.com/maps/search/?api=1&query=9370%20Ballard%20Rd%2C%20Des%20Plaines%2C%20IL%2060016&query_place_id=ChIJ5cOYfua3D4gRjqicJPn30cg"}, {"name": "Taqueria Los Sombreros", "address": "1300 S Main St A, Lombard, IL 60148", "phone": "(630) 613-9352", "state": "Illinois", "products": ["Chicken", "Beef", "Turkey"], "expires": "2025-12-31T00:00:00", "certification": "HMS", "lat": 41.8586921, "lng": -88.0177001, "nav_url": "https://www.google.com/maps/search/?api=1&query=1300%20S%20Main%20St%20A%2C%20Lombard%2C%20IL%2060148&query_place_id=ChIJcVMLL3RTDogRNt27i3XVjgU"}, {"name": "Kababjees Selden", "address": "1245 Middle Country Rd, Selden, NY 11784", "phone": "(516) 597-5777", "state": "New York", "products": ["Chicken", "Lamb", "Goat", "Beef"], "expires": "2025-02-12T00:00:00", "certification": "HMS", "lat": 40.8633335, "lng": -73.05427089999999, "nav_url": "https://www.google.com/maps/search/?api=1&query=1245%20Middle%20Country%20Rd%2C%20Selden%2C%20NY%2011784&query_place_id=ChIJB5UBw_JH6IkRWuW3N6qyT1U"}, {"name": "Sweet Reserve Cafe & Bakery (Skokie)", "address": "4845 Oakton St, Skokie, IL 60077", "phone": "(630) 376-6150", "state": "Illinois", "products": ["Chicken", "Beef"], "expires": "2025-12-31T00:00:00", "certification": "HMS", "lat": 42.0260761, "lng": -87.7493837, "nav_url": "https://www.google.com/maps/search/?api=1&query=4845%20Oakton%20St%2C%20Skokie%2C%20IL%2060077&query_place_id=ChIJHXIPsDXPD4gRF4yhDG0w3E0"}, {"name": "Sweet Reserve Cafe & Bakery (Schaumburg)", "address": "160 S Roselle Rd C, Schaumburg, IL 60193", "phone": "(630) 376-6150", "state": "Illinois", "products": ["Chicken", "Beef"], "expires": "2025-12-31T00:00:00", "certification": "HMS", "lat": 42.02504649999999, "lng": -88.0820334, "nav_url": "https://www.google.com/maps/search/?api=1&query=160%20S%20Roselle%20Rd%20C%2C%20Schaumburg%2C%20IL%2060193&query_place_id=ChIJ9azOozmvD4gRtLl9eKrM8m4"}, {"name": "Turan Uyghur Kitchen (Houston) ", "address": "9330 Bellaire Blvd, Houston, TX 77036", "phone": "(281) 888-5118", "state": "Texas", "products": ["Chicken", "Lamb", "Goat", "Beef"], "expires": "2025-12-31T00:00:00", "certification": "HMS", "lat": 29.7059775, "lng": -95.5480496, "nav_url": "https://www.google.com/maps/search/?api=1&query=9330%20Bellaire%20Blvd%2C%20Houston%2C%20TX%2077036&query_place_id=ChIJqfXedgDDQIYRBVj0m2qXD5c"}, {"name": "Famoos", "address": "7120 FM 1464 suite A1, Richmond, TX 77407", "phone": "(346) 698-1265", "state": "Texas", "products": ["Chicken", "Goat", "Veal", "Beef"], "expires": "2025-12-31T00:00:00", "certification": "HMS", "lat": 29.6996829, "lng": -95.68882529999999, "nav_url": "https://www.google.com/maps/search/?api=1&query=7120%20FM%201464%20suite%20A1%2C%20Richmond%2C%20TX%2077407&query_place_id=ChIJkyuxCwDfQIYR-_XSVaOWGaA"}, {"name": "Firebird Piri Piri Grill", "address": "4546 N Magnolia Ave, Chicago, IL 60640", "phone": "+1 (773) 739-9220", "state": "Illinois", "products": ["Chicken", "Beef"], "expires": "2025-12-31T00:00:00", "certification": "HMS", "lat": 41.9650359, "lng": -87.6612938, "nav_url": "https://www.google.com/maps/search/?api=1&query=4546%20N%20Magnolia%20Ave%2C%20Chicago%2C%20IL%2060640&query_place_id=ChIJIxlofQDTD4gRCp__zjyxTvA"}, {"name": "Quetta Sajji House", "address": "2116 W Devon Ave, Chicago, IL 60659", "phone": "(773) 761-4919", "state": "Illinois", "products": ["Chicken", "Lamb", "Goat", "Veal", "Beef"], "expires": "2025-12-31T00:00:00", "certification": "HMS", "lat": 41.998012, "lng": -87.6832843, "nav_url": "https://www.google.com/maps/search/?api=1&query=2116%20W%20Devon%20Ave%2C%20Chicago%2C%20IL%2060659&query_place_id=ChIJW1o1VADRD4gRpRsjeSYZRmE"}, {"name": "Khorasan Kabab", "address": "567 Middlesex Ave, Metuchen, NJ 08840", "phone": "(732) 318-6050", "state": "New Jersey", "products": ["Chicken", "Lamb", "Beef"], "expires": "2025-02-20T00:00:00", "certification": "HMS", "lat": 40.5422886, "lng": -74.3642686, "nav_url": "https://www.google.com/maps/search/?api=1&query=567%20Middlesex%20Ave%2C%20Metuchen%2C%20NJ%2008840&query_place_id=ChIJg54BbAC3w4kROdEArYRYTmA"}, {"name": "Khyber Gyro & Grill", "address": "270 Spur Dr S, Bayshore, NY 11706", "phone": "(631) 666-3366", "state": "New York", "products": ["Chicken", "Lamb", "Beef"], "expires": "2025-02-13T00:00:00", "certification": "HMS", "lat": 40.7477097, "lng": -73.26510449999999, "nav_url": "https://www.google.com/maps/search/?api=1&query=270%20Spur%20Dr%20S%2C%20Bayshore%2C%20NY%2011706&query_place_id=ChIJUfNCm3Iy6IkR_UGlKN9MGDI"}, {"name": "Mochinut Schaumburg", "address": "191 W Golf Rd, Schaumburg, IL 60195", "phone": "(847) 812-7312", "state": "Illinois", "products": ["Chicken", "Beef"], "expires": "2025-12-31T00:00:00", "certification": "HMS", "lat": 42.0478869, "lng": -88.08410289999999, "nav_url": "https://www.google.com/maps/search/?api=1&query=191%20W%20Golf%20Rd%2C%20Schaumburg%2C%20IL%2060195&query_place_id=ChIJ-84zuiuvD4gRA2WOF4bemYw"}, {"name": "Halal Food Studio", "address": "6405 N Bell Ave, Chicago, IL 60645", "phone": "(773) 739-9090", "state": "Illinois", "products": ["Chicken", "Lamb", "Goat", "Veal", "Beef"], "expires": "2025-12-31T00:00:00", "certification": "HMS", "lat": 41.9980899, "lng": -87.68602229999999, "nav_url": "https://www.google.com/maps/search/?api=1&query=6405%20N%20Bell%20Ave%2C%20Chicago%2C%20IL%2060645&query_place_id=ChIJWwDmHwzRD4gRXMMk_5VgbmM"}, {"name": "Hitit Burger", "address": "39-26 Bell Blvd, Bayside, NY 11361", "phone": "(718) 744-0101", "state": "New York", "products": ["Chicken", "Beef"], "expires": "2025-03-18T00:00:00", "certification": "HMS", "lat": 40.7645167, "lng": -73.7717851, "nav_url": "https://www.google.com/maps/search/?api=1&query=39-26%20Bell%20Blvd%2C%20Bayside%2C%20NY%2011361&query_place_id=ChIJnWJTs7yLwokRgHezdHwp9h4"}, {"name": "Moho Mexican Grill Astoria", "address": "35-06 Ditmars Blvd, Astoria, NY 11105", "phone": "(718) 744-0123", "state": "New York", "products": ["Chicken", "Beef"], "expires": "2025-03-18T00:00:00", "certification": "HMS", "lat": 40.7745811, "lng": -73.908874, "nav_url": "https://www.google.com/maps/search/?api=1&query=35-06%20Ditmars%20Blvd%2C%20Astoria%2C%20NY%2011105&query_place_id=ChIJVU0jLwRfwokRe00mV809WlI"}, {"name": "Holy Cow Parkchester", "address": "1412 Castle Hill Ave, Bronx, NY 10462", "phone": "(718) 912-6488", "state": "New York", "products": ["Chicken", "Lamb", "Beef", "Turkey"], "expires": "2025-03-18T00:00:00", "certification": "HMS", "lat": 40.8359595, "lng": -73.8519415, "nav_url": "https://www.google.com/maps/search/?api=1&query=1412%20Castle%20Hill%20Ave%2C%20Bronx%2C%20NY%2010462&query_place_id=ChIJe3QQcwD1wokRyXMjAp5v0h4"}, {"name": "Milliy Family Restaurant", "address": "1279 Rickert Dr, Naperville, IL 60540", "phone": "(630) 995-3695", "state": "Illinois", "products": ["Chicken", "Lamb", "Veal", "Beef"], "expires": "2025-12-31T00:00:00", "certification": "HMS", "lat": 41.7642989, "lng": -88.2050881, "nav_url": "https://www.google.com/maps/search/?api=1&query=1279%20Rickert%20Dr%2C%20Naperville%2C%20IL%2060540&query_place_id=ChIJy_7bCeP5DogRQ_fOVp0gBX4"}]}