{"updated": "Jan 05, 2025", "places": [{"name": "Indo Pak Meat & Grocery", "address": "3922 W. Lawrence Ave, Chicago, IL - 60625", "phone": "(773) 267-5800", "state": "Illinois", "products": ["Chicken", "Lamb", "Goat", "Veal", "Beef"], "expires": "2024-12-31T00:00:00", "certification": "HMS", "lat": 41.9683583, "lng": -87.72652409999999, "nav_url": "https://www.google.com/maps/search/?api=1&query=3922%20W.%20Lawrence%20Ave%2C%20Chicago%2C%20IL%20-%2060625&query_place_id=ChIJpTFomtrND4gRIl97-D8N8jo"}, {"name": "Amart and Halal Meat (Formerly Known As: Bismillah Meat & Grocery)", "address": "1964 Flatbush Avenue, Brooklyn, NY 11234", "phone": "(718) 676-2777", "state": "New York", "products": ["Chicken", "Lamb", "Goat", "Veal", "Beef"], "expires": "2024-12-31T00:00:00", "certification": "HMS", "lat": 40.6217989, "lng": -73.9362448, "nav_url": "https://www.google.com/maps/search/?api=1&query=1964%20Flatbush%20Avenue%2C%20Brooklyn%2C%20NY%2011234&query_place_id=ChIJ5wkA2FdDwokRR_zIxo7tO14"}, {"name": "Anmol Meat & Grocery", "address": "2906 W. Devon Ave., Chicago, IL - 60659", "phone": "(872) 208-3373", "state": "Illinois", "products": ["Chicken", "Lamb", "Goat", "Veal", "Beef"], "expires": "2024-12-31T00:00:00", "certification": "HMS", "lat": 41.9976247, "lng": -87.7024541, "nav_url": "https://www.google.com/maps/search/?api=1&query=2906%20W.%20Devon%20Ave.%2C%20Chicago%2C%20IL%20-%2060659&query_place_id=ChIJzVldRCDOD4gR9b87ry8o2ng"}, {"name": "Nayab Mart", "address": "2449 West Devon Avenue, Chicago, IL", "phone": "(773) 262-9200", "state": "Illinois", "products": ["Chicken", "Lamb", "Goat", "Veal", "Beef"], "expires": "2025-12-31T00:00:00", "certification": "HMS", "lat": 41.9975883, "lng": -87.69184849999999, "nav_url": "https://www.google.com/maps/search/?api=1&query=2449%20West%20Devon%20Avenue%2C%20Chicago%2C%20IL&query_place_id=ChIJpXEFz93RD4gR0ONaNaff_mY"}, {"name": "Mehrab Super Market", "address": "2433 - 37 W. Devon Ave, Chicago, IL 60659", "phone": "(773) 764-3737", "state": "Illinois", "products": ["Chicken", "Lamb", "Goat", "Veal", "Beef"], "expires": "2025-12-31T00:00:00", "certification": "HMS", "lat": 41.9976018, "lng": -87.6912696, "nav_url": "https://www.google.com/maps/search/?api=1&query=2433%20-%2037%20W.%20Devon%20Ave%2C%20Chicago%2C%20IL%2060659&query_place_id=ChIJ_-Sst93RD4gRg_9HpR6ePeA"}, {"name": "Perdesi Grocers", "address": "1184 Roosevelt Road, Glen Ellyn, IL", "phone": "(630) 678-9288", "state": "Illinois", "products": ["Chicken", "Lamb", "Goat", "Veal", "Beef"], "expires": "2025-12-31T00:00:00", "certification": "HMS", "lat": 41.8601621, "lng": -88.0328452, "nav_url": "https://www.google.com/maps/search/?api=1&query=1184%20Roosevelt%20Road%2C%20Glen%20Ellyn%2C%20IL&query_place_id=ChIJ_6uFvlhSDogR7E2CjxEu1Zc"}, {"name": "Rahmat Meat & Grocery", "address": "2158 West Devon Avenue, Chicago, IL", "phone": "(773) 338-3358", "state": "Illinois", "products": ["Chicken", "Lamb", "Goat", "Beef"], "expires": "2025-12-31T00:00:00", "certification": "HMS", "lat": 41.9979221, "lng": -87.68486399999999, "nav_url": "https://www.google.com/maps/search/?api=1&query=2158%20West%20Devon%20Avenue%2C%20Chicago%2C%20IL&query_place_id=ChIJjYD_UsLRD4gRrmNUz-nZngE"}, {"name": "Sundarbans Fish Bazar", "address": "2200 W. Devon Ave., Chicago, IL - 60659", "phone": "(773)-761-8780", "state": "Illinois", "products": ["Chicken", "Lamb", "Goat", "Veal", "Beef"], "expires": "2025-12-31T00:00:00", "certification": "HMS", "lat": 41.9981195, "lng": -87.6852589, "nav_url": "https://www.google.com/maps/search/?api=1&query=2200%20W.%20Devon%20Ave.%2C%20Chicago%2C%20IL%20-%2060659&query_place_id=ChIJiyfXHcPRD4gRDx2DHCUcktI"}, {"name": "Ruby Indo-Pak Grocery Inc.", "address": "9232 Waukegan Rd., Morton Grove, IL-60053", "phone": "(847)-663-0170", "state": "Illinois", "products": ["Chicken", "Lamb", "Goat", "Veal", "Beef"], "expires": "2025-12-31T00:00:00", "certification": "HMS", "lat": 42.0493244, "lng": -87.7996723, "nav_url": "https://www.google.com/maps/search/?api=1&query=9232%20Waukegan%20Rd.%2C%20Morton%20Grove%2C%20IL-60053&query_place_id=ChIJMX97opnID4gRW1iCjXvgrUM"}, {"name": "Owais Foods", "address": "9372 Ballard Rd, Des Plaines, IL 60016", "phone": "(847) 635-0935", "state": "Illinois", "products": ["Chicken", "Lamb", "Goat", "Veal", "Beef"], "expires": "2025-12-31T00:00:00", "certification": "HMS", "lat": 42.0436507, "lng": -87.8587884, "nav_url": "https://www.google.com/maps/search/?api=1&query=9372%20Ballard%20Rd%2C%20Des%20Plaines%2C%20IL%2060016&query_place_id=ChIJ4cLm4OO3D4gR1DeQT9Iub78"}, {"name": "Community Grocery", "address": "3633-38 W. Bryn Mawr Ave., Chicago, IL - 60659", "phone": "(773) 539-5575", "state": "Illinois", "products": ["Chicken", "Lamb", "Goat", "Beef"], "expires": "2025-12-31T00:00:00", "certification": "HMS", "lat": 41.9831266, "lng": -87.7128115, "nav_url": "https://www.google.com/maps/search/?api=1&query=3633-38%20W.%20Bryn%20Mawr%20Ave.%2C%20Chicago%2C%20IL%20-%2060659&query_place_id=ChIJIZJYLgzOD4gR1E7dK2V-NlQ"}, {"name": "New Nayab Mart (Aurora)", "address": "3577 E. New York St, Aurora, IL 60504", "phone": "(630)-585-5858", "state": "Illinois", "products": ["Chicken", "Lamb", "Goat", "Veal", "Beef"], "expires": "2025-12-31T00:00:00", "certification": "HMS", "lat": 41.7599559, "lng": -88.2288007, "nav_url": "https://www.google.com/maps/search/?api=1&query=3577%20E.%20New%20York%20St%2C%20Aurora%2C%20IL%2060504&query_place_id=ChIJgToVsen5DogRhoXd2koolvM"}, {"name": "Kamyab Mart Inc.", "address": "15921 Weber Rd. Unit B, Crest Hill, IL - 60403", "phone": "(815) 552-2452", "state": "Illinois", "products": ["Chicken", "Lamb", "Goat", "Veal", "Beef"], "expires": "2025-12-31T00:00:00", "certification": "HMS", "lat": 41.5942666, "lng": -88.1216884, "nav_url": "https://www.google.com/maps/search/?api=1&query=15921%20Weber%20Rd.%20Unit%20B%2C%20Crest%20Hill%2C%20IL%20-%2060403&query_place_id=ChIJpWhVSy5eDogRQYibs7OQbbY"}, {"name": "Q & H Grocery", "address": "2408 W. Brynmawr Ave., Chicago, IL 60659", "phone": "(773) 334-3664", "state": "Illinois", "products": ["Chicken", "Lamb", "Goat", "Veal", "Beef"], "expires": "2025-12-31T00:00:00", "certification": "HMS", "lat": 41.9832647, "lng": -87.6898392, "nav_url": "https://www.google.com/maps/search/?api=1&query=2408%20W.%20Brynmawr%20Ave.%2C%20Chicago%2C%20IL%2060659&query_place_id=ChIJSx5o__rRD4gRZauaqPqKOTU"}, {"name": "Mediterranean Market", "address": "612 E.Roosevelt Rd. Lombard IL 60148 ", "phone": "(630) 424-1397", "state": "Illinois", "products": ["Chicken", "Lamb", "Goat", "Veal", "Beef"], "expires": "2025-12-31T00:00:00", "certification": "HMS", "lat": 41.8608371, "lng": -88.0019773, "nav_url": "https://www.google.com/maps/search/?api=1&query=612%20E.Roosevelt%20Rd.%20Lombard%20IL%2060148%20&query_place_id=ChIJUWpSMp1NDogRfum590BPuKA"}, {"name": "Perdesi Grocers(GL Heights)", "address": "1545 Bloomingdale Rd., Glendale Heights, IL - 60139", "phone": "847-338-3076", "state": "Illinois", "products": ["Chicken", "Lamb", "Goat", "Veal", "Beef"], "expires": "2025-12-31T00:00:00", "certification": "HMS", "lat": 41.9154778, "lng": -88.08095259999999, "nav_url": "https://www.google.com/maps/search/?api=1&query=1545%20Bloomingdale%20Rd.%2C%20Glendale%20Heights%2C%20IL%20-%2060139&query_place_id=ChIJ61S0I6WsD4gRwnGSqU0obUo"}, {"name": "Al-Amin Grocery", "address": "6403 N Artesian, Chicago, IL - 60645", "phone": "(773) 465-9526", "state": "Illinois", "products": ["Chicken", "Lamb", "Goat", "Beef"], "expires": "2025-12-31T00:00:00", "certification": "HMS", "lat": 41.9981328, "lng": -87.6909866, "nav_url": "https://www.google.com/maps/search/?api=1&query=6403%20N%20Artesian%2C%20Chicago%2C%20IL%20-%2060645&query_place_id=ChIJD5RLsd3RD4gRsRCHfETZSRM"}, {"name": "Ameera Food", "address": "6415 N Western Ave., Chicago, IL - 60645", "phone": "(773) 338-8400", "state": "Illinois", "products": ["Chicken", "Lamb", "Goat", "Veal", "Beef"], "expires": "2025-12-31T00:00:00", "certification": "HMS", "lat": 41.9983673, "lng": -87.6897056, "nav_url": "https://www.google.com/maps/search/?api=1&query=6415%20N%20Western%20Ave.%2C%20Chicago%2C%20IL%20-%2060645&query_place_id=ChIJj-PX4tzRD4gRp_Fjvnf3Aw4"}, {"name": "Ahmed Meat and Grocery", "address": "6003 Dempster Street, Morton Grove, IL - 60053", "phone": "(847) 581-1190", "state": "Illinois", "products": ["Chicken", "Lamb", "Goat", "Beef"], "expires": "2025-12-31T00:00:00", "certification": "HMS", "lat": 42.0406015, "lng": -87.77667919999999, "nav_url": "https://www.google.com/maps/search/?api=1&query=6003%20Dempster%20Street%2C%20Morton%20Grove%2C%20IL%20-%2060053&query_place_id=ChIJi5_7tbTID4gR9hVFpWuPPVw"}, {"name": "Sasta Bazaar", "address": "709 W Mitchell St, Milwaukee, WI 53204", "phone": "(414) 672-7272", "state": "Wisconsin", "products": ["Chicken", "Lamb", "Goat", "Beef"], "expires": "2025-12-31T00:00:00", "certification": "HMS", "lat": 43.0121917, "lng": -87.9203297, "nav_url": "https://www.google.com/maps/search/?api=1&query=709%20W%20Mitchell%20St%2C%20Milwaukee%2C%20WI%2053204&query_place_id=ChIJj-TaEO8ZBYgRrgYncpBgI-g"}, {"name": "Makkah Mart", "address": "1652 S. Ardmore Ave, Villa Park, IL 60181", "phone": "(630) 495-9999", "state": "Illinois", "products": ["Chicken", "Lamb", "Goat", "Veal", "Beef"], "expires": "2025-12-31T00:00:00", "certification": "HMS", "lat": 41.8585189, "lng": -87.97841389999999, "nav_url": "https://www.google.com/maps/search/?api=1&query=1652%20S.%20Ardmore%20Ave%2C%20Villa%20Park%2C%20IL%2060181&query_place_id=ChIJadp-Y6lNDogRek3JOYnyzeA"}, {"name": "Marhaba Foods", "address": "833 Higgins Rd. Schaumburg, IL 60195", "phone": "(847) 839-3993", "state": "Illinois", "products": ["Chicken", "Lamb", "Goat", "Veal", "Beef"], "expires": "2025-12-31T00:00:00", "certification": "HMS", "lat": 42.0494051, "lng": -88.1014488, "nav_url": "https://www.google.com/maps/search/?api=1&query=833%20Higgins%20Rd.%20Schaumburg%2C%20IL%2060195&query_place_id=ChIJ01hRhbCoD4gRgZG5yYJWZr8"}, {"name": "Deshi Foods Inc. (Not Valid for Wholesale Supply)", "address": "37-15 55 St, Woodside, NY 11377", "phone": "718-205-7200", "state": "New York", "products": ["Lamb", "Goat", "Beef"], "expires": "2024-12-31T00:00:00", "certification": "HMS", "lat": 40.7503838, "lng": -73.9070928, "nav_url": "https://www.google.com/maps/search/?api=1&query=37-15%2055%20St%2C%20Woodside%2C%20NY%2011377&query_place_id=ChIJ_YG7XRlfwokRjgnXpI-UEsw"}, {"name": "Shalimar Grocery", "address": "474 N. Green Bay Rd, Waukegan, IL 60085", "phone": "(847) 599-9306", "state": "Illinois", "products": ["Chicken", "Lamb", "Goat", "Veal", "Beef"], "expires": "2025-12-31T00:00:00", "certification": "HMS", "lat": 42.3664863, "lng": -87.87980639999999, "nav_url": "https://www.google.com/maps/search/?api=1&query=474%20N.%20Green%20Bay%20Rd%2C%20Waukegan%2C%20IL%2060085&query_place_id=ChIJBw9AJxuTD4gR-uKfFdmpKHs"}, {"name": "Daallo Halal Meat and Grocery", "address": "2742 W Devon Ave, Chicago, IL 60659", "phone": "(773) 942-6783", "state": "Illinois", "products": ["Chicken", "Lamb", "Goat", "Veal", "Beef"], "expires": "2025-12-31T00:00:00", "certification": "HMS", "lat": 41.9976788, "lng": -87.6989693, "nav_url": "https://www.google.com/maps/search/?api=1&query=2742%20W%20Devon%20Ave%2C%20Chicago%2C%20IL%2060659&query_place_id=ChIJRbdJXSDOD4gRhiCXGy5g2lg"}, {"name": "Fish Corner", "address": "6408 N Campbell Ave, Chicago, IL 60645", "phone": "(773) 262-7173", "state": "Illinois", "products": ["Chicken", "Lamb", "Goat", "Veal", "Beef"], "expires": "2024-12-31T00:00:00", "certification": "HMS", "lat": 41.9980236, "lng": -87.6924678, "nav_url": "https://www.google.com/maps/search/?api=1&query=6408%20N%20Campbell%20Ave%2C%20Chicago%2C%20IL%2060645&query_place_id=ChIJR-3Y1d3RD4gRvmperWDPYKo"}, {"name": "Mina Bazar", "address": "71-10 35th Ave, Jackson Heights, NY 11372", "phone": "(718) 639-6462", "state": "New York", "products": ["Chicken", "Lamb", "Goat", "Veal", "Beef"], "expires": "2024-12-31T00:00:00", "certification": "HMS", "lat": 40.7503122, "lng": -73.89465249999999, "nav_url": "https://www.google.com/maps/search/?api=1&query=71-10%2035th%20Ave%2C%20Jackson%20Heights%2C%20NY%2011372&query_place_id=ChIJrSczfAZfwokRYLhdeNNG2jA"}, {"name": "World Fresh Market", "address": "2434 W Devon Ave, Chicago, IL 60659", "phone": "(773) 508-0700", "state": "Illinois", "products": ["Chicken", "Lamb", "Goat", "Veal", "Beef"], "expires": "2025-12-31T00:00:00", "certification": "HMS", "lat": 41.997961, "lng": -87.69156, "nav_url": "https://www.google.com/maps/search/?api=1&query=2434%20W%20Devon%20Ave%2C%20Chicago%2C%20IL%2060659&query_place_id=ChIJt0D-td3RD4gRb6QdysgBrPc"}, {"name": "Baitullaham Groceries", "address": "447 Essex St, Hackensack, NJ 07601", "phone": "(201) 820-1035", "state": "New Jersey", "products": ["Chicken", "Lamb", "Goat", "Beef"], "expires": "2025-12-31T00:00:00", "certification": "HMS", "lat": 40.8853191, "lng": -74.062095, "nav_url": "https://www.google.com/maps/search/?api=1&query=447%20Essex%20St%2C%20Hackensack%2C%20NJ%2007601&query_place_id=ChIJjUYyH8H7wokRUxC7lH9Wf5k"}, {"name": "Awami Bazar", "address": "2340 W Devon Ave, Chicago, IL 60659", "phone": "(773) 274-9600", "state": "Illinois", "products": ["Chicken", "Lamb", "Goat", "Veal", "Beef"], "expires": "1900-01-01T00:00:00", "certification": "HMS", "lat": 41.9978449, "lng": -87.68913669999999, "nav_url": "https://www.google.com/maps/search/?api=1&query=2340%20W%20Devon%20Ave%2C%20Chicago%2C%20IL%2060659&query_place_id=ChIJ8yTeHt3RD4gRcp78W9afWPg"}, {"name": "Lasani Zabiha Halal Meat & Grocers", "address": "2445 W. Devon Ave, Chicago, IL 60659", "phone": "(773) 761-5555", "state": "Illinois", "products": ["Chicken", "Lamb", "Goat", "Veal", "Beef"], "expires": "2025-12-31T00:00:00", "certification": "HMS", "lat": 41.9975931, "lng": -87.69165890000001, "nav_url": "https://www.google.com/maps/search/?api=1&query=2445%20W.%20Devon%20Ave%2C%20Chicago%2C%20IL%2060659&query_place_id=ChIJu8LmyN3RD4gRpfni21JxwaM"}, {"name": "Yaseen Zabiha Halal Meat & Grocers (New Owner)", "address": "2243 W Devon Ave, Chicago, IL 60659", "phone": "(773) 743-6934", "state": "Illinois", "products": ["Chicken", "Lamb", "Goat", "Veal", "Beef"], "expires": "2025-12-31T00:00:00", "certification": "HMS", "lat": 41.997675, "lng": -87.6866738, "nav_url": "https://www.google.com/maps/search/?api=1&query=2243%20W%20Devon%20Ave%2C%20Chicago%2C%20IL%2060659&query_place_id=ChIJNxLt3MLRD4gR9wD_36Enaic"}, {"name": "Asian Island", "address": "1202 E Dundee Rd, Palatine, IL 60074", "phone": "(847) 202-1036", "state": "Illinois", "products": ["Chicken", "Lamb", "Goat", "Veal", "Beef"], "expires": "2025-12-31T00:00:00", "certification": "HMS", "lat": 42.1403937, "lng": -88.01511149999999, "nav_url": "https://www.google.com/maps/search/?api=1&query=1202%20E%20Dundee%20Rd%2C%20Palatine%2C%20IL%2060074&query_place_id=ChIJH__Xi6qkD4gREWIekAO5dW4"}, {"name": "Mars Halal Market", "address": "2242 Woodbridge Ave, Edison, NJ 08817", "phone": "(201) 333-3301", "state": "New Jersey", "products": ["Chicken", "Lamb", "Goat", "Veal", "Beef"], "expires": "2025-12-31T00:00:00", "certification": "HMS", "lat": 40.5015194, "lng": -74.3914142, "nav_url": "https://www.google.com/maps/search/?api=1&query=2242%20Woodbridge%20Ave%2C%20Edison%2C%20NJ%2008817&query_place_id=ChIJkSXLHmDJw4kRiU4iTEV2IhQ"}, {"name": "Sheeba Meat & Grocery", "address": "4307 W. Lawrance Ave, Chicago, IL 60630", "phone": "(773) 481-1123", "state": "Illinois", "products": ["Chicken", "Lamb", "Goat", "Veal", "Beef"], "expires": "2025-12-31T00:00:00", "certification": "HMS", "lat": 41.9680603, "lng": -87.7359204, "nav_url": "https://www.google.com/maps/search/?api=1&query=4307%20W.%20Lawrance%20Ave%2C%20Chicago%2C%20IL%2060630&query_place_id=ChIJgyFSyj3ND4gRBxJwbowrGfo"}, {"name": "Desi Needs", "address": "289 Evergreen Dr, Vernon Hills, IL 60061", "phone": "(847) 549-3128", "state": "Illinois", "products": ["Chicken", "Goat"], "expires": "2025-12-31T00:00:00", "certification": "HMS", "lat": 42.2222353, "lng": -87.9705479, "nav_url": "https://www.google.com/maps/search/?api=1&query=289%20Evergreen%20Dr%2C%20Vernon%20Hills%2C%20IL%2060061&query_place_id=ChIJ3fNEECuWD4gRBXFfXcLXD08"}, {"name": "New Shamiana Meat & Grocery ", "address": "2233 Schaumburg Rd, Schaumburg, IL", "phone": "(847) 301-8500", "state": "Illinois", "products": ["Chicken", "Lamb", "Goat", "Veal", "Beef"], "expires": "2025-12-31T00:00:00", "certification": "HMS", "lat": 42.0244288, "lng": -88.1359031, "nav_url": "https://www.google.com/maps/search/?api=1&query=2233%20Schaumburg%20Rd%2C%20Schaumburg%2C%20IL&query_place_id=ChIJfaHTG1OoD4gRDhRaiIkii1k"}, {"name": "Bismillah Market", "address": "475 W. Boughton Rd, Bolingbrook, IL 60440", "phone": "(630) 759-4429", "state": "Illinois", "products": ["Chicken", "Lamb", "Goat", "Veal", "Beef"], "expires": "2025-12-31T00:00:00", "certification": "HMS", "lat": 41.7066065, "lng": -88.0861292, "nav_url": "https://www.google.com/maps/search/?api=1&query=475%20W.%20Boughton%20Rd%2C%20Bolingbrook%2C%20IL%2060440&query_place_id=ChIJdU4mnytaDogRZE_q6xXr92w"}, {"name": "Baladi Fresh Market", "address": "601 W North Ave, Villa Park, IL 60181", "phone": "(630) 516-0123", "state": "Illinois", "products": ["Chicken", "Lamb", "Goat", "Veal", "Beef"], "expires": "2025-12-31T00:00:00", "certification": "HMS", "lat": 41.904055, "lng": -87.993721, "nav_url": "https://www.google.com/maps/search/?api=1&query=601%20W%20North%20Ave%2C%20Villa%20Park%2C%20IL%2060181&query_place_id=ChIJn4QImbWyD4gRmFUuYZdLd2Y"}, {"name": "Aladin Halal Meat", "address": "495-14 South Broadway, Hicksville, NY 11801", "phone": "(516) 595-7227", "state": "New York", "products": ["Chicken", "Lamb", "Goat", "Beef"], "expires": "2025-12-31T00:00:00", "certification": "HMS", "lat": 40.7572844, "lng": -73.5103716, "nav_url": "https://www.google.com/maps/search/?api=1&query=495-14%20South%20Broadway%2C%20Hicksville%2C%20NY%2011801&query_place_id=ChIJweQklVeAwokRoD_fH3gxITg"}, {"name": "Halal Grill & Market", "address": "4043 Main St, Skokie, IL 60076", "phone": "(847) 213-0636", "state": "Illinois", "products": ["Chicken", "Lamb", "Goat", "Veal", "Beef"], "expires": "2025-12-31T00:00:00", "certification": "HMS", "lat": 42.0332093, "lng": -87.72987189999999, "nav_url": "https://www.google.com/maps/search/?api=1&query=4043%20Main%20St%2C%20Skokie%2C%20IL%2060076&query_place_id=ChIJ7RFDvUPPD4gRZDbnVNf1rqw"}, {"name": "India House", "address": "709 S. GAMMON RD, MADISON, WI 53719", "phone": "(608) 268-0241", "state": "Wisconsin", "products": ["Chicken", "Lamb", "Goat", "Veal", "Beef"], "expires": "2025-12-31T00:00:00", "certification": "HMS", "lat": 43.0494378, "lng": -89.50283999999999, "nav_url": "https://www.google.com/maps/search/?api=1&query=709%20S.%20GAMMON%20RD%2C%20MADISON%2C%20WI%2053719&query_place_id=ChIJ6TW1_E-uB4gRLrmcaYWJ5XU"}, {"name": "Abdu Market", "address": "46090 Michigan Ave, Canton, MI 48188", "phone": "(734) 545 8040 | (734) 322-9240", "state": "Michigan", "products": ["Chicken", "Lamb", "Goat", "Veal", "Beef"], "expires": "2025-12-31T00:00:00", "certification": "HMS", "lat": 42.2718463, "lng": -83.4922641, "nav_url": "https://www.google.com/maps/search/?api=1&query=46090%20Michigan%20Ave%2C%20Canton%2C%20MI%2048188&query_place_id=ChIJM7ntzJNRO4gRTSaQ9Cv7kDM"}, {"name": "Asia Grocers", "address": "27616 Middlebelt Rd, Farmington Hills, MI 48334", "phone": "(248) 426-9000", "state": "Michigan", "products": ["Chicken", "Lamb", "Goat", "Veal", "Beef"], "expires": "2025-12-31T00:00:00", "certification": "HMS", "lat": 42.4978142, "lng": -83.33762019999999, "nav_url": "https://www.google.com/maps/search/?api=1&query=27616%20Middlebelt%20Rd%2C%20Farmington%20Hills%2C%20MI%2048334&query_place_id=ChIJx-Z2VrSwJIgRMsocP2s4ie4"}, {"name": "Datar Halal Meat and Grocery", "address": "293 East Meadow Ave, East Meadow, NY 11554", "phone": "(516) 414-1740", "state": "New York", "products": ["Chicken", "Lamb", "Goat", "Veal", "Beef"], "expires": "2025-12-31T00:00:00", "certification": "HMS", "lat": 40.7166753, "lng": -73.5613383, "nav_url": "https://www.google.com/maps/search/?api=1&query=293%20East%20Meadow%20Ave%2C%20East%20Meadow%2C%20NY%2011554&query_place_id=ChIJiQSj3G19wokRDQUGDimDdEc"}, {"name": "Punjab Halal Meat & Grill", "address": "856 US Highway 206, Unit A, Building A, Hillsborough, NJ 08844", "phone": "(908) 262-7247", "state": "New Jersey", "products": ["Chicken", "Lamb", "Goat", "Beef"], "expires": "2025-12-31T00:00:00", "certification": "HMS", "lat": 40.4802959, "lng": -74.6557443, "nav_url": "https://www.google.com/maps/search/?api=1&query=856%20US%20Highway%20206%2C%20Unit%20A%2C%20Building%20A%2C%20Hillsborough%2C%20NJ%2008844&query_place_id=ChIJd422mKLpw4kRfT_yi5KXO3o"}, {"name": "Al-Haramain International Food ", "address": "24065 Orchard Lake Rd, Farmington, MI 48336", "phone": "(248) 476-0300", "state": "Michigan", "products": ["Chicken", "Lamb", "Goat", "Veal", "Beef"], "expires": "2025-12-31T00:00:00", "certification": "HMS", "lat": 42.4691774, "lng": -83.3582089, "nav_url": "https://www.google.com/maps/search/?api=1&query=24065%20Orchard%20Lake%20Rd%2C%20Farmington%2C%20MI%2048336&query_place_id=ChIJZT4UhhixJIgRBAU_H0J4m8E"}, {"name": "Palms Market", "address": "9161 N Milwaukee Ave, Niles, IL 60714", "phone": "(847) 972-1611", "state": "Illinois", "products": ["Chicken", "Lamb", "Goat", "Veal", "Beef"], "expires": "1900-01-01T00:00:00", "certification": "HMS", "lat": 42.0473006, "lng": -87.8315184, "nav_url": "https://www.google.com/maps/search/?api=1&query=9161%20N%20Milwaukee%20Ave%2C%20Niles%2C%20IL%2060714&query_place_id=ChIJm2iX7KDJD4gRC-IOYGpk9U8"}, {"name": "Mannan Halal Supermarket", "address": "37-19 73 Street, Jackson Heights, NY 11372", "phone": "(718) 255-1137", "state": "New York", "products": ["Chicken", "Lamb", "Goat", "Veal", "Beef", "Turkey"], "expires": "2025-12-31T00:00:00", "certification": "HMS", "lat": 40.7482772, "lng": -73.8923765, "nav_url": "https://www.google.com/maps/search/?api=1&query=37-19%2073%20Street%2C%20Jackson%20Heights%2C%20NY%2011372&query_place_id=ChIJ4QK46QZfwokRoX6-IviJoU0"}, {"name": "Classic Meat ", "address": "3555 Murphy Rd. #105 Richardson, TX 75082", "phone": "(214) 299-4100", "state": "Texas", "products": ["Chicken", "Lamb", "Goat", "Veal", "Beef"], "expires": "2025-12-31T00:00:00", "certification": "HMS", "lat": 32.9997642, "lng": -96.61394419999999, "nav_url": "https://www.google.com/maps/search/?api=1&query=3555%20Murphy%20Rd.%20%23105%20Richardson%2C%20TX%2075082&query_place_id=ChIJ15gWiXsbTIYRMQLj01gTnIw"}, {"name": "Al Mezaan Meat & Grocery", "address": "257 Hempstead Turnpike, Elmont, NY 11003", "phone": "(516) 305-5829", "state": "New York", "products": ["Chicken", "Lamb", "Goat", "Veal", "Beef"], "expires": "2025-12-31T00:00:00", "certification": "HMS", "lat": 40.707869, "lng": -73.7175369, "nav_url": "https://www.google.com/maps/search/?api=1&query=257%20Hempstead%20Turnpike%2C%20Elmont%2C%20NY%2011003&query_place_id=ChIJmXPENSNjwokRJSMIe9D4bJY"}, {"name": "Farm2cook", "address": "8401 W. Golf Rd, Niles, IL 60714", "phone": "(773) 683-6998", "state": "Illinois", "products": ["Chicken", "Lamb", "Goat", "Veal", "Beef"], "expires": "1910-01-01T00:00:00", "certification": "HMS", "lat": 42.0541874, "lng": -87.8360453, "nav_url": "https://www.google.com/maps/search/?api=1&query=8401%20W.%20Golf%20Rd%2C%20Niles%2C%20IL%2060714&query_place_id=ChIJi0hDTw_JD4gRVnS9GBho7co"}, {"name": "Al-Tayyab Halal Meat & Grocery", "address": "2753 W Devon Ave, Chicago, IL 60659", "phone": "(773) 572-0430", "state": "Illinois", "products": ["Chicken", "Lamb", "Goat", "Veal", "Beef"], "expires": "2025-12-31T00:00:00", "certification": "HMS", "lat": 41.9973344, "lng": -87.69919019999999, "nav_url": "https://www.google.com/maps/search/?api=1&query=2753%20W%20Devon%20Ave%2C%20Chicago%2C%20IL%2060659&query_place_id=ChIJ5TUmUdHPD4gRGizlXvnhNmA"}, {"name": "Green Valley Meat Market", "address": "886 S Greenville Ave Ste 222, Richardson, TX 75081", "phone": "(214) 238-7577", "state": "Texas", "products": ["Chicken", "Lamb", "Goat", "Veal", "Beef"], "expires": "2025-12-31T00:00:00", "certification": "HMS", "lat": 32.9382582, "lng": -96.7344038, "nav_url": "https://www.google.com/maps/search/?api=1&query=886%20S%20Greenville%20Ave%20Ste%20222%2C%20Richardson%2C%20TX%2075081&query_place_id=ChIJw9_NFZwfTIYRA5vK6fNzjTQ"}, {"name": "Mannan Supermarket", "address": "166-11 Hillside Ave, Jamaica, NY 11432", "phone": "(718) 657-4585", "state": "New York", "products": ["Chicken", "Lamb", "Goat", "Veal", "Beef", "Turkey"], "expires": "2025-12-31T00:00:00", "certification": "HMS", "lat": 40.7098774, "lng": -73.79582719999999, "nav_url": "https://www.google.com/maps/search/?api=1&query=166-11%20Hillside%20Ave%2C%20Jamaica%2C%20NY%2011432&query_place_id=ChIJVY9BFOBgwokRL27gHyKzO78"}, {"name": "Mannan Halal Supermarket", "address": "75-19 101 Ave, Ozone Park, NY 11416", "phone": "(718) 848-0895", "state": "New York", "products": ["Chicken", "Lamb", "Goat", "Veal", "Beef", "Turkey"], "expires": "2025-12-31T00:00:00", "certification": "HMS", "lat": 40.6799603, "lng": -73.86158379999999, "nav_url": "https://www.google.com/maps/search/?api=1&query=75-19%20101%20Ave%2C%20Ozone%20Park%2C%20NY%2011416&query_place_id=ChIJf0lPF-tdwokRpd9nZor8nSg"}, {"name": "Fatima Grocery Inc", "address": "167-11 Hillside Ave, Jamaica, NY 11432", "phone": "(718) 291-9642", "state": "New York", "products": ["Chicken", "Lamb", "Goat", "Veal", "Beef"], "expires": "2025-12-31T00:00:00", "certification": "HMS", "lat": 40.710034, "lng": -73.795215, "nav_url": "https://www.google.com/maps/search/?api=1&query=167-11%20Hillside%20Ave%2C%20Jamaica%2C%20NY%2011432&query_place_id=ChIJn9GeJuBgwokRpGy_xJMuR1g"}, {"name": "Adnan Halal Meat", "address": "10160 West Broad Street, Glen Allen, VA 23060", "phone": "(804) 249-4665", "state": "Virginia", "products": ["Chicken", "Lamb", "Goat", "Veal", "Beef"], "expires": "2024-12-31T00:00:00", "certification": "HMS", "lat": 37.64613689999999, "lng": -77.5742818, "nav_url": "https://www.google.com/maps/search/?api=1&query=10160%20West%20Broad%20Street%2C%20Glen%20Allen%2C%20VA%2023060&query_place_id=ChIJx0Uw67pqsYkRjrNt5QshnQc"}, {"name": "Zem Zem Grocery", "address": "888 Illinois Rte 59 STE 112Naperville, IL 60540", "phone": "(630) 922-8105", "state": "Illinois", "products": ["Chicken", "Lamb", "Goat", "Veal", "Beef"], "expires": "2025-12-31T00:00:00", "certification": "HMS", "lat": 41.7554627, "lng": -88.2041886, "nav_url": "https://www.google.com/maps/search/?api=1&query=888%20Illinois%20Rte%2059%20STE%20112Naperville%2C%20IL%2060540&query_place_id=ChIJIdmjZy34DogREc3LYCBc9Q0"}, {"name": "Moon Supermarket", "address": "69-11 Woodside Ave, Woodside, NY 11377", "phone": "(718) 335-1828", "state": "New York", "products": ["Chicken", "Lamb", "Goat", "Beef"], "expires": "2025-12-31T00:00:00", "certification": "HMS", "lat": 40.7427531, "lng": -73.8951434, "nav_url": "https://www.google.com/maps/search/?api=1&query=69-11%20Woodside%20Ave%2C%20Woodside%2C%20NY%2011377&query_place_id=ChIJY1w2JeBfwokRGE7NP_DaQhQ"}, {"name": "Foodland Supermarket", "address": "120 Cambridge Street, Burlington, MA 01803", "phone": "(781) 229-0108", "state": "Massachusetts", "products": ["Chicken", "Lamb", "Goat", "Veal", "Beef"], "expires": "2025-12-31T00:00:00", "certification": "HMS", "lat": 42.5000015, "lng": -71.193996, "nav_url": "https://www.google.com/maps/search/?api=1&query=120%20Cambridge%20Street%2C%20Burlington%2C%20MA%2001803&query_place_id=ChIJTxWTK9mf44kRilJnnoYO41Q"}, {"name": "Alsham Supermarket", "address": "1217 S Main St, Lombard, IL 60148", "phone": "(331) 307-7153", "state": "Illinois", "products": ["Chicken", "Lamb", "Goat", "Veal", "Beef"], "expires": "2025-12-31T00:00:00", "certification": "HMS", "lat": 41.8594085, "lng": -88.0167165, "nav_url": "https://www.google.com/maps/search/?api=1&query=1217%20S%20Main%20St%2C%20Lombard%2C%20IL%2060148&query_place_id=ChIJzTCtI3xSDogR_6tA64G1PQg"}, {"name": "Halal Express Mart", "address": "6065 Dempster St, Morton Grove, IL 60053", "phone": "(224) 534-7048", "state": "Illinois", "products": ["Chicken", "Lamb", "Goat", "Veal", "Beef"], "expires": "2025-12-31T00:00:00", "certification": "HMS", "lat": 42.0406632, "lng": -87.7782986, "nav_url": "https://www.google.com/maps/search/?api=1&query=6065%20Dempster%20St%2C%20Morton%20Grove%2C%20IL%2060053&query_place_id=ChIJPZuLQ7PJD4gRqENBI_1Wpuc"}, {"name": "Farmer's India Market", "address": "1814 Central Ave, Albany, NY 12205", "phone": "(508) 868-8014", "state": "New York", "products": ["Chicken", "Lamb", "Goat", "Veal", "Beef"], "expires": "2025-12-31T00:00:00", "certification": "HMS", "lat": 42.730363, "lng": -73.8491334, "nav_url": "https://www.google.com/maps/search/?api=1&query=1814%20Central%20Ave%2C%20Albany%2C%20NY%2012205&query_place_id=ChIJd9uM6oBz3okRgktBDQCmaCg"}, {"name": "Coconut Hill", "address": "1201 E Main St Suite 200, Allen, TX 75002", "phone": "(972) 332-8838", "state": "Texas", "products": ["Chicken", "Lamb", "Goat", "Veal", "Beef"], "expires": "2025-12-31T00:00:00", "certification": "HMS", "lat": 33.1009145, "lng": -96.64118169999999, "nav_url": "https://www.google.com/maps/search/?api=1&query=1201%20E%20Main%20St%20Suite%20200%2C%20Allen%2C%20TX%2075002&query_place_id=ChIJBemZu5UQTIYRv3UDFobNYWg"}, {"name": "Classic International Market", "address": "2310 Virginia Pkwy #130, McKinney, TX 75071", "phone": "(469) 714-0060", "state": "Texas", "products": ["Chicken", "Lamb", "Goat", "Veal", "Beef"], "expires": "2025-12-31T00:00:00", "certification": "HMS", "lat": 33.1989462, "lng": -96.6427252, "nav_url": "https://www.google.com/maps/search/?api=1&query=2310%20Virginia%20Pkwy%20%23130%2C%20McKinney%2C%20TX%2075071&query_place_id=ChIJ6TNLiL8TTIYRanO4OZ0S6Mg"}, {"name": "Khan Brothers Meat and Grocery", "address": "1143 Lee St, Des Plaines, IL 60016", "phone": "(847) 481-9739, (224) 388-1046", "state": "Illinois", "products": ["Chicken", "Lamb", "Goat", "Veal", "Beef"], "expires": "2025-12-31T00:00:00", "certification": "HMS", "lat": 42.0320411, "lng": -87.8941359, "nav_url": "https://www.google.com/maps/search/?api=1&query=1143%20Lee%20St%2C%20Des%20Plaines%2C%20IL%2060016&query_place_id=ChIJk9wl1IS3D4gRybiy-NvhqcQ"}, {"name": "Maa Supermarket", "address": "87-79 Parsons Blvd, Jamaica, NY 11432", "phone": "(917) 717-6879", "state": "New York", "products": ["Chicken", "Lamb", "Goat", "Veal", "Beef"], "expires": "2025-12-31T00:00:00", "certification": "HMS", "lat": 40.7071936, "lng": -73.8023214, "nav_url": "https://www.google.com/maps/search/?api=1&query=87-79%20Parsons%20Blvd%2C%20Jamaica%2C%20NY%2011432&query_place_id=ChIJn8APtd1gwokRRC0QBWFk4qs"}, {"name": "Al Noor Meat and Grocery", "address": "2514 W. DEVON AVE, CHICAGO, IL 60659", "phone": "(773) 274-6667", "state": "Illinois", "products": ["Chicken", "Lamb", "Goat", "Veal", "Beef"], "expires": "2025-12-31T00:00:00", "certification": "HMS", "lat": 41.9979306, "lng": -87.69299559999999, "nav_url": "https://www.google.com/maps/search/?api=1&query=2514%20W.%20DEVON%20AVE%2C%20CHICAGO%2C%20IL%2060659&query_place_id=ChIJ3SJmeN7RD4gRNNrICUYT_Bg"}, {"name": "Texas King Irving", "address": "3455 N Beltline Rd, Irving, TX 75062", "phone": "(469) 579-6417", "state": "Texas", "products": ["Chicken", "Lamb", "Goat", "Veal", "Beef"], "expires": "2025-12-31T00:00:00", "certification": "HMS", "lat": 32.854034, "lng": -96.99339599999999, "nav_url": "https://www.google.com/maps/search/?api=1&query=3455%20N%20Beltline%20Rd%2C%20Irving%2C%20TX%2075062&query_place_id=ChIJmQVlvTuCToYRLlSkYb4KRBs"}, {"name": "Food Paradise Meat Market", "address": "3825 W Spring Creek Pkwy Plano, TX 75023", "phone": "(972) 596-7786", "state": "Texas", "products": ["Chicken", "Lamb", "Goat", "Veal", "Beef"], "expires": "2025-12-31T00:00:00", "certification": "HMS", "lat": 33.0573944, "lng": -96.7680115, "nav_url": "https://www.google.com/maps/search/?api=1&query=3825%20W%20Spring%20Creek%20Pkwy%20Plano%2C%20TX%2075023&query_place_id=ChIJBzsuHgAjTIYR5x6xkhRC3CI"}, {"name": "Abo Halal Market", "address": "42468 Cherry Hill Rd, Canton, MI 48187", "phone": "(313) 427-4858", "state": "Michigan", "products": ["Chicken", "Lamb", "Goat", "Veal", "Beef"], "expires": "1900-01-01T00:00:00", "certification": "HMS", "lat": 42.3085477, "lng": -83.4593893, "nav_url": "https://www.google.com/maps/search/?api=1&query=42468%20Cherry%20Hill%20Rd%2C%20Canton%2C%20MI%2048187&query_place_id=ChIJ3Uo4gklSO4gRFi4kKGvrMVM"}, {"name": "Iqra Grocery and Zabiha Halal Meat", "address": "212 Roosevelt Rd, Villa Park, IL 60181", "phone": "(630) 903-6667", "state": "Illinois", "products": ["Chicken", "Lamb", "Goat", "Veal", "Beef"], "expires": "2025-12-31T00:00:00", "certification": "HMS", "lat": 41.861992, "lng": -87.984366, "nav_url": "https://www.google.com/maps/search/?api=1&query=212%20Roosevelt%20Rd%2C%20Villa%20Park%2C%20IL%2060181&query_place_id=ChIJB8TjhadNDogRWxp5RTLmVD0"}, {"name": "Aftab Supermarket", "address": "144-01 Hillside Ave, Jamaica, NY 11435", "phone": "(718) 301-8510", "state": "New York", "products": ["Chicken", "Lamb", "Goat", "Veal", "Beef"], "expires": "2025-12-31T00:00:00", "certification": "HMS", "lat": 40.7053523, "lng": -73.8116877, "nav_url": "https://www.google.com/maps/search/?api=1&query=144-01%20Hillside%20Ave%2C%20Jamaica%2C%20NY%2011435&query_place_id=ChIJicCaekFhwokRGR0WgsW0AjI"}, {"name": "Desi Needs", "address": "3900 WASHINGTON ST, SUITE J, GURNEE, IL 60031", "phone": "(847) 662-2200", "state": "Illinois", "products": ["Chicken", "Lamb", "Goat", "Veal", "Beef"], "expires": "2025-12-31T00:00:00", "certification": "HMS", "lat": 42.3605436, "lng": -87.8984085, "nav_url": "https://www.google.com/maps/search/?api=1&query=3900%20WASHINGTON%20ST%2C%20SUITE%20J%2C%20GURNEE%2C%20IL%2060031&query_place_id=ChIJsQoZ-2OSD4gRZDU_Uql-QT4"}, {"name": "Zubaidah Halal Meat & Grocery", "address": "59 Walden Ave, Buffalo, NY 14211", "phone": "(716) 240-0062", "state": "New York", "products": ["Chicken", "Lamb", "Goat", "Veal", "Beef"], "expires": "2025-12-31T00:00:00", "certification": "HMS", "lat": 42.903355, "lng": -78.833947, "nav_url": "https://www.google.com/maps/search/?api=1&query=59%20Walden%20Ave%2C%20Buffalo%2C%20NY%2014211&query_place_id=ChIJEcz1oX4N04kRXA0494KX8jQ"}, {"name": "Express Poultry & Fish", "address": "15038 W Warren Ave, Dearborn, MI 48126", "phone": "(313) 584-1020", "state": "Michigan", "products": ["Chicken"], "expires": "2000-01-01T00:00:00", "certification": "HMS", "lat": 42.3439969, "lng": -83.19169710000001, "nav_url": "https://www.google.com/maps/search/?api=1&query=15038%20W%20Warren%20Ave%2C%20Dearborn%2C%20MI%2048126&query_place_id=ChIJSeNbUck0O4gRIuNYkeA3dFQ"}, {"name": "New Madinah Market (Aurora)", "address": "646 S Frontenac St # 106, Aurora, IL 60504", "phone": "(630) 692-0990", "state": "Illinois", "products": ["Chicken", "Lamb", "Goat", "Veal", "Beef"], "expires": "2025-12-31T00:00:00", "certification": "HMS", "lat": 41.7445106, "lng": -88.2294696, "nav_url": "https://www.google.com/maps/search/?api=1&query=646%20S%20Frontenac%20St%20%23%20106%2C%20Aurora%2C%20IL%2060504&query_place_id=ChIJsbN8_V73DogRRLVAjiwqYGg"}, {"name": "Buffalo Fresh 2", "address": "284 Ontario Street, Buffalo, NY 14207", "phone": "(716) 582-0510", "state": "New York", "products": ["Chicken", "Lamb", "Goat", "Veal", "Beef"], "expires": "2024-12-31T00:00:00", "certification": "HMS", "lat": 42.9525058, "lng": -78.90145380000001, "nav_url": "https://www.google.com/maps/search/?api=1&query=284%20Ontario%20Street%2C%20Buffalo%2C%20NY%2014207&query_place_id=ChIJPbel0cht04kRjrnPD7jxjsw"}, {"name": "Buffalo Fresh", "address": "1018 Broadway, Buffalo, NY 14212", "phone": "(716) 768-3700", "state": "New York", "products": ["Chicken", "Lamb", "Goat", "Veal", "Beef"], "expires": "2024-12-31T00:00:00", "certification": "HMS", "lat": 42.8940223, "lng": -78.83702629999999, "nav_url": "https://www.google.com/maps/search/?api=1&query=1018%20Broadway%2C%20Buffalo%2C%20NY%2014212&query_place_id=ChIJfwUVRIcN04kRw4b9Np9bMwk"}, {"name": "St. Louis Halal Meat & Grocery", "address": "10276 Page Ave, St. Louis, MO 63114", "phone": "(314) 427-8500", "state": "Missouri", "products": ["Chicken", "Lamb", "Goat", "Veal", "Beef"], "expires": "2025-12-31T00:00:00", "certification": "HMS", "lat": 38.6906496, "lng": -90.3877009, "nav_url": "https://www.google.com/maps/search/?api=1&query=10276%20Page%20Ave%2C%20St.%20Louis%2C%20MO%2063114&query_place_id=ChIJ_bRg83Yz34cRuIgAk-PVN90"}, {"name": "Desi Needs 3", "address": "5270 Lincoln Ave, Skokie, IL 60077", "phone": "(847) 410-7458", "state": "Illinois", "products": ["Chicken", "Lamb", "Goat", "Veal", "Beef"], "expires": "2025-12-31T00:00:00", "certification": "HMS", "lat": 42.033848, "lng": -87.756806, "nav_url": "https://www.google.com/maps/search/?api=1&query=5270%20Lincoln%20Ave%2C%20Skokie%2C%20IL%2060077&query_place_id=ChIJOdS0Kz7PD4gRkFxpHSw2g4Q"}, {"name": "RS Halal Zabiha", "address": "2120 W. Devon Ave, Chicago, IL 60659", "phone": "(773) 274-4444", "state": "Illinois", "products": ["Chicken", "Lamb", "Goat", "Veal", "Beef"], "expires": "2025-12-31T00:00:00", "certification": "HMS", "lat": 41.997675, "lng": -87.6866738, "nav_url": "https://www.google.com/maps/search/?api=1&query=2120%20W.%20Devon%20Ave%2C%20Chicago%2C%20IL%2060659&query_place_id=ChIJNxLt3MLRD4gR9wD_36Enaic"}, {"name": "Adnan Supermarket and Halal Meat", "address": "332 Chamberlain Ave, Paterson, NJ 07502", "phone": "(862) 287-6808", "state": "New Jersey", "products": ["Chicken", "Lamb", "Goat", "Beef"], "expires": "2025-12-31T00:00:00", "certification": "HMS", "lat": 40.9228539, "lng": -74.1920566, "nav_url": "https://www.google.com/maps/search/?api=1&query=332%20Chamberlain%20Ave%2C%20Paterson%2C%20NJ%2007502&query_place_id=ChIJlVMc0pr9wokRkHmewuQliKU"}, {"name": "Great Halal", "address": "6601 S Cass Ave unit A, Westmont, IL 60559", "phone": "(630) 960-0960", "state": "Illinois", "products": ["Chicken", "Lamb", "Goat", "Veal", "Beef"], "expires": "2025-12-31T00:00:00", "certification": "HMS", "lat": 41.7677823, "lng": -87.9740466, "nav_url": "https://www.google.com/maps/search/?api=1&query=6601%20S%20Cass%20Ave%20unit%20A%2C%20Westmont%2C%20IL%2060559&query_place_id=ChIJd8vcl6lPDogRgc9URRZCjoM"}, {"name": "Walden Groceries", "address": "57 Walden Ave, Buffalo, NY 14211", "phone": "(716) 886-6989", "state": "New York", "products": ["Chicken", "Lamb", "Goat", "Veal", "Beef"], "expires": "2025-12-31T00:00:00", "certification": "HMS", "lat": 42.9033835, "lng": -78.83410289999999, "nav_url": "https://www.google.com/maps/search/?api=1&query=57%20Walden%20Ave%2C%20Buffalo%2C%20NY%2014211&query_place_id=ChIJ35F5n34N04kRwKfebsJP_H4"}, {"name": "Foster Food Market (A&Z International)", "address": "506 Foster Ave, Brooklyn, NY 11230", "phone": "(718) 437-5130", "state": "New York", "products": ["Chicken", "Lamb", "Goat", "Beef"], "expires": "2025-12-31T00:00:00", "certification": "HMS", "lat": 40.62938399999999, "lng": -73.9726103, "nav_url": "https://www.google.com/maps/search/?api=1&query=506%20Foster%20Ave%2C%20Brooklyn%2C%20NY%2011230&query_place_id=ChIJOZSm7dFEwokRvWXa1Gyo_zU"}, {"name": "Arwa Grocery", "address": "990 Rayford Rd, Spring, TX 77386", "phone": "(346) 351-1253", "state": "Texas", "products": ["Chicken", "Lamb", "Goat", "Veal", "Beef"], "expires": "2025-12-31T00:00:00", "certification": "HMS", "lat": 30.1271837, "lng": -95.42852719999999, "nav_url": "https://www.google.com/maps/search/?api=1&query=990%20Rayford%20Rd%2C%20Spring%2C%20TX%2077386&query_place_id=ChIJD_lm2fE1R4YRlelj5o7dG4M"}, {"name": "Nohadra Food Mart", "address": "5101 Washington St, Gurnee, IL 60031", "phone": "(847) 916-7060", "state": "Illinois", "products": ["Chicken", "Lamb", "Goat", "Veal", "Beef"], "expires": "2025-12-31T00:00:00", "certification": "HMS", "lat": 42.3623888, "lng": -87.9280661, "nav_url": "https://www.google.com/maps/search/?api=1&query=5101%20Washington%20St%2C%20Gurnee%2C%20IL%2060031&query_place_id=ChIJ41EQ24qTD4gRGgEBog9X4bY"}, {"name": "Arzan Market", "address": "4706 N Kimball Ave, Chicago, IL 60625", "phone": "(331) 444-6962", "state": "Illinois", "products": ["Chicken", "Lamb", "Goat", "Veal", "Beef"], "expires": "2025-12-31T00:00:00", "certification": "HMS", "lat": 41.9668774, "lng": -87.7138324, "nav_url": "https://www.google.com/maps/search/?api=1&query=4706%20N%20Kimball%20Ave%2C%20Chicago%2C%20IL%2060625&query_place_id=ChIJGW3aNcHND4gRa0z7ewU9F6U"}, {"name": "Al Falah Meats", "address": "160-02 Hillside Ave, Jamaica, NY 11432", "phone": "(917) 515-0652", "state": "New York", "products": ["Chicken", "Lamb", "Goat", "Veal", "Beef", "Turkey", "Duck"], "expires": "2025-12-31T00:00:00", "certification": "HMS", "lat": 40.7077515, "lng": -73.8015842, "nav_url": "https://www.google.com/maps/search/?api=1&query=160-02%20Hillside%20Ave%2C%20Jamaica%2C%20NY%2011432&query_place_id=ChIJA57rhCZhwokREyiYL_pcUtA"}, {"name": "Ali Baba Grocery", "address": "179 S SCHMALE RD, CAROL STREAM, IL 60188", "phone": "(630) 868-3572", "state": "Illinois", "products": ["Chicken", "Lamb", "Goat", "Veal", "Beef"], "expires": "2025-12-31T00:00:00", "certification": "HMS", "lat": 41.90073100000001, "lng": -88.1008454, "nav_url": "https://www.google.com/maps/search/?api=1&query=179%20S%20SCHMALE%20RD%2C%20CAROL%20STREAM%2C%20IL%2060188&query_place_id=ChIJPblbTlJVDogROZo5s5Baeio"}, {"name": "Halal Alshaam Market", "address": "570 E Algonquin Rd, Des Plaines, IL 60016", "phone": "(847) 376-8074", "state": "Illinois", "products": ["Chicken", "Lamb", "Goat", "Veal", "Beef"], "expires": "2024-12-31T00:00:00", "certification": "HMS", "lat": 42.0309549, "lng": -87.90979209999999, "nav_url": "https://www.google.com/maps/search/?api=1&query=570%20E%20Algonquin%20Rd%2C%20Des%20Plaines%2C%20IL%2060016&query_place_id=ChIJJc3R5ji3D4gRiHVRagxTmKQ"}, {"name": "Butcher Bros Zabiha Halal", "address": "2539 W Algonquin Rd, Algonquin, IL 60102", "phone": "(224) 333-0206", "state": "Illinois", "products": ["Chicken", "Lamb", "Goat", "Veal", "Beef"], "expires": "2025-12-31T00:00:00", "certification": "HMS", "lat": 42.175209, "lng": -88.3383297, "nav_url": "https://www.google.com/maps/search/?api=1&query=2539%20W%20Algonquin%20Rd%2C%20Algonquin%2C%20IL%2060102&query_place_id=ChIJRf0aZqsTD4gRIgIgELyttUY"}, {"name": "Madina Grocers", "address": "2507 W. Devon Ave, Chicago, IL 60659", "phone": "(773) 815-6014", "state": "Illinois", "products": ["Chicken", "Lamb", "Goat", "Veal", "Beef"], "expires": "2025-12-31T00:00:00", "certification": "HMS", "lat": 41.9975187, "lng": -87.69267649999999, "nav_url": "https://www.google.com/maps/search/?api=1&query=2507%20W.%20Devon%20Ave%2C%20Chicago%2C%20IL%2060659&query_place_id=ChIJPbLMJEHRD4gRl8CSMLwfrcU"}, {"name": "My Halal Meat", "address": "1025 W Golf Rd, Hoffman Estates, IL 60169", "phone": "(847) 524-5544", "state": "Illinois", "products": ["Chicken", "Lamb", "Goat", "Veal", "Beef"], "expires": "2025-12-31T00:00:00", "certification": "HMS", "lat": 42.047321, "lng": -88.10496499999999, "nav_url": "https://www.google.com/maps/search/?api=1&query=1025%20W%20Golf%20Rd%2C%20Hoffman%20Estates%2C%20IL%2060169&query_place_id=ChIJ6VS2awSvD4gR-44omPBqoq0"}, {"name": "Halal Mart", "address": "512 W Boughton Rd, Bolingbrook, IL 60440", "phone": "(630) 771-0011", "state": "Illinois", "products": ["Chicken", "Lamb", "Goat", "Veal", "Beef"], "expires": "2025-12-31T00:00:00", "certification": "HMS", "lat": 41.70808299999999, "lng": -88.08833, "nav_url": "https://www.google.com/maps/search/?api=1&query=512%20W%20Boughton%20Rd%2C%20Bolingbrook%2C%20IL%2060440&query_place_id=ChIJoYvUWipaDogRD6Ut8FuV0y0"}, {"name": "Amana Food Market", "address": "5661 Wansford Way, Rockford, IL 61109", "phone": "(815) 395-1233", "state": "Illinois", "products": ["Chicken", "Lamb", "Goat", "Veal", "Beef"], "expires": "2025-12-31T00:00:00", "certification": "HMS", "lat": 42.2371877, "lng": -89.0067352, "nav_url": "https://www.google.com/maps/search/?api=1&query=5661%20Wansford%20Way%2C%20Rockford%2C%20IL%2061109&query_place_id=ChIJG_zb0aW4CIgRrjw109Bm3ZA"}, {"name": "Al-Fatah Meat and Grocery", "address": "316 E Army Trail Rd, Glendale Heights, IL 60139", "phone": "(224) 653-9677", "state": "Illinois", "products": ["Chicken", "Lamb", "Goat", "Veal", "Beef"], "expires": "2025-12-31T00:00:00", "certification": "HMS", "lat": 41.93689819999999, "lng": -88.0753855, "nav_url": "https://www.google.com/maps/search/?api=1&query=316%20E%20Army%20Trail%20Rd%2C%20Glendale%20Heights%2C%20IL%2060139&query_place_id=ChIJS2bsJACtD4gRAInpWslELxw"}, {"name": "Mostafa Awkal Zabiha Halal Meat Market", "address": "856 S. RTE 59, Naperville, IL 60540", "phone": "(630) 313-4155", "state": "Illinois", "products": ["Chicken", "Lamb", "Goat", "Veal", "Beef", "CARRYING-HMS-LOGO-ONLY"], "expires": "2025-12-31T00:00:00", "certification": "HMS", "lat": 41.7554627, "lng": -88.2041886, "nav_url": "https://www.google.com/maps/search/?api=1&query=856%20S.%20RTE%2059%2C%20Naperville%2C%20IL%2060540&query_place_id=ChIJIdmjZy34DogREc3LYCBc9Q0"}, {"name": "Mecca Grocery", "address": "1016 S McLean Blvd, Elgin, IL 60123", "phone": "(224) 769-7137", "state": "Illinois", "products": ["Chicken", "Lamb", "Goat", "Veal", "Beef"], "expires": "2025-12-31T00:00:00", "certification": "HMS", "lat": 42.0076061, "lng": -88.3159471, "nav_url": "https://www.google.com/maps/search/?api=1&query=1016%20S%20McLean%20Blvd%2C%20Elgin%2C%20IL%2060123&query_place_id=ChIJR6Ro4JIFD4gRDC0Xa5lOtoY"}, {"name": "Towne Market", "address": "120 Cambridge St, Burlington, MA 01803", "phone": "(781) 221-7188", "state": "Massachusetts", "products": ["Chicken", "Lamb", "Goat", "Veal", "Beef"], "expires": "2025-12-31T00:00:00", "certification": "HMS", "lat": 42.4999843, "lng": -71.19326769999999, "nav_url": "https://www.google.com/maps/search/?api=1&query=120%20Cambridge%20St%2C%20Burlington%2C%20MA%2001803&query_place_id=ChIJa6ubP9if44kRNLDGOgHIRBs"}, {"name": "Hyderabad Palace", "address": "504 Boston Rd, Billerica, MA 01821", "phone": "(978) 362-8290", "state": "Massachusetts", "products": ["Chicken", "Lamb", "Goat", "Veal", "Beef"], "expires": "2025-12-31T00:00:00", "certification": "HMS", "lat": 42.5541579, "lng": -71.26420019999999, "nav_url": "https://www.google.com/maps/search/?api=1&query=504%20Boston%20Rd%2C%20Billerica%2C%20MA%2001821&query_place_id=ChIJ-3zRWxWh44kRkoxPrw1uxg0"}, {"name": "Sycamore Halal Meat", "address": "1061 Sycamore Street, Buffalo, NY 14212", "phone": "(716) 259-9498", "state": "New York", "products": ["Chicken", "Lamb", "Goat", "Veal", "Beef"], "expires": "2025-12-31T00:00:00", "certification": "HMS", "lat": 42.9001027, "lng": -78.8321847, "nav_url": "https://www.google.com/maps/search/?api=1&query=1061%20Sycamore%20Street%2C%20Buffalo%2C%20NY%2014212&query_place_id=ChIJZwg2yXgN04kRQAcS9JkohAk"}, {"name": "Ahsam Farms", "address": "6226 N. California Ave, Chicago, IL 60659", "phone": "(872) 302-4171", "state": "Illinois", "products": ["Chicken", "Lamb", "Goat", "Veal", "Beef"], "expires": "2024-12-31T00:00:00", "certification": "HMS", "lat": 41.994771, "lng": -87.699883, "nav_url": "https://www.google.com/maps/search/?api=1&query=6226%20N.%20California%20Ave%2C%20Chicago%2C%20IL%2060659&query_place_id=ChIJV0S0VwPPD4gRt7e9SAA_9Qg"}, {"name": "Rayan's Halal Market", "address": "5158 Main St, Skokie, IL 60077", "phone": "(847) 354-3136", "state": "Illinois", "products": ["Chicken", "Lamb", "Goat", "Veal", "Beef"], "expires": "2025-12-31T00:00:00", "certification": "HMS", "lat": 42.033848, "lng": -87.756806, "nav_url": "https://www.google.com/maps/search/?api=1&query=5158%20Main%20St%2C%20Skokie%2C%20IL%2060077&query_place_id=ChIJOdS0Kz7PD4gRkFxpHSw2g4Q"}, {"name": "A1-Food & Grocery", "address": "2319 W. Devon Ave, Chicago, IL 60659", "phone": "(773) 739-9308", "state": "Illinois", "products": ["Chicken", "Lamb", "Goat", "Veal", "Beef"], "expires": "2025-12-31T00:00:00", "certification": "HMS", "lat": 41.9975045, "lng": -87.6882795, "nav_url": "https://www.google.com/maps/search/?api=1&query=2319%20W.%20Devon%20Ave%2C%20Chicago%2C%20IL%2060659&query_place_id=ChIJQZV5bHXRD4gRH-GrFoPOIcE"}, {"name": "Sherins Halal Meat & Grocery", "address": "2090 Oak Tree Rd, Edison, NJ 08820", "phone": "(908) 244-1558", "state": "New Jersey", "products": ["Chicken", "Lamb", "Goat", "Beef"], "expires": "2025-12-31T00:00:00", "certification": "HMS", "lat": 40.5764636, "lng": -74.37716619999999, "nav_url": "https://www.google.com/maps/search/?api=1&query=2090%20Oak%20Tree%20Rd%2C%20Edison%2C%20NJ%2008820&query_place_id=ChIJk-VEFP-3w4kRqtR9JwsHkyE"}, {"name": "Halal Mart", "address": "1659 Rt 27, Edison, NJ 08817", "phone": "(848) 338-6167", "state": "New Jersey", "products": ["Chicken", "Lamb", "Goat", "Beef"], "expires": "2025-12-31T00:00:00", "certification": "HMS", "lat": 40.5100167, "lng": -74.4101532, "nav_url": "https://www.google.com/maps/search/?api=1&query=1659%20Rt%2027%2C%20Edison%2C%20NJ%2008817&query_place_id=ChIJt-zxc7fHw4kRowuqW-WIGbE"}, {"name": "Shams Halal Market", "address": "5510 Lafayette Rd Suite 100, Indianapolis, IN 46254", "phone": "(317) 964-1777", "state": "Indiana", "products": ["Chicken", "Lamb", "Goat", "Veal", "Beef"], "expires": "2025-12-31T00:00:00", "certification": "HMS", "lat": 39.8512244, "lng": -86.2625429, "nav_url": "https://www.google.com/maps/search/?api=1&query=5510%20Lafayette%20Rd%20Suite%20100%2C%20Indianapolis%2C%20IN%2046254&query_place_id=ChIJkZFJYnarbIgRlwFkSfx-Kbg"}, {"name": "Shree Sai Grocery ", "address": "816 S Rand Rd, Lake Zurich, IL 60047", "phone": "(847) 454-3362", "state": "Illinois", "products": ["Chicken", "Lamb", "Goat"], "expires": "2025-12-31T00:00:00", "certification": "HMS", "lat": 42.1858007, "lng": -88.08858769999999, "nav_url": "https://www.google.com/maps/search/?api=1&query=816%20S%20Rand%20Rd%2C%20Lake%20Zurich%2C%20IL%2060047&query_place_id=ChIJTcZoq-OjD4gRtPCOYlBkfxo"}, {"name": "Adal Meat Market", "address": "1051 Elmhurst Rd, Des Plaines, IL 60016", "phone": "(224) 817-8666", "state": "Illinois", "products": ["Chicken", "Lamb", "Goat", "Veal", "Beef"], "expires": "2025-12-31T00:00:00", "certification": "HMS", "lat": 42.0328453, "lng": -87.9399062, "nav_url": "https://www.google.com/maps/search/?api=1&query=1051%20Elmhurst%20Rd%2C%20Des%20Plaines%2C%20IL%2060016&query_place_id=ChIJz4vmx6uxD4gRDM3-5W2d2gE"}, {"name": "Asian Brothers", "address": "1820 Valley View Ln #132, Irving, TX 75061", "phone": "(972) 887-5955", "state": "Texas", "products": ["Chicken", "Lamb", "Goat", "Veal", "Beef"], "expires": "2025-12-31T00:00:00", "certification": "HMS", "lat": 32.8332444, "lng": -97.02150499999999, "nav_url": "https://www.google.com/maps/search/?api=1&query=1820%20Valley%20View%20Ln%20%23132%2C%20Irving%2C%20TX%2075061&query_place_id=ChIJ8dV_awCBToYRDXT4OBDOzhg"}, {"name": "Ozone Park Supermarket & Halal Meat", "address": "78-19 101 Ave, Ozone Park, NY 11416", "phone": "(718) 489-8740", "state": "New York", "products": ["Chicken", "Lamb", "Goat", "Beef"], "expires": "2025-12-23T00:00:00", "certification": "HMS", "lat": 40.6807233, "lng": -73.8589554, "nav_url": "https://www.google.com/maps/search/?api=1&query=78-19%20101%20Ave%2C%20Ozone%20Park%2C%20NY%2011416&query_place_id=ChIJxUsCfexdwokREUQ96luTsR0"}, {"name": "Palli Supermarket", "address": "1870 Bailey Ave, Buffalo, NY 14211", "phone": "(716) 240-9008", "state": "New York", "products": ["Chicken", "Lamb", "Goat", "Beef"], "expires": "2025-12-23T00:00:00", "certification": "HMS", "lat": 42.9054219, "lng": -78.8141666, "nav_url": "https://www.google.com/maps/search/?api=1&query=1870%20Bailey%20Ave%2C%20Buffalo%2C%20NY%2014211&query_place_id=ChIJh4Jhds4N04kRxGuZrbvA6iI"}, {"name": "Kawran Bazar Supermarket", "address": "87-54 168 Pl, Jamaica, NY 11432", "phone": "(718) 206-3913", "state": "New York", "products": ["Chicken", "Lamb", "Goat", "Veal", "Beef"], "expires": "2025-12-31T00:00:00", "certification": "HMS", "lat": 40.71062939999999, "lng": -73.7941548, "nav_url": "https://www.google.com/maps/search/?api=1&query=87-54%20168%20Pl%2C%20Jamaica%2C%20NY%2011432&query_place_id=ChIJRcVZ0h9hwokRjDm8U9BAiXc"}, {"name": "Daily Foods and Halal Market", "address": "1826 South Park Ave, Buffalo, NY 14220", "phone": "(716) 370-0070", "state": "New York", "products": ["Chicken", "Lamb", "Goat", "Beef"], "expires": "2025-01-24T00:00:00", "certification": "HMS", "lat": 42.84903430000001, "lng": -78.82356419999999, "nav_url": "https://www.google.com/maps/search/?api=1&query=1826%20South%20Park%20Ave%2C%20Buffalo%2C%20NY%2014220&query_place_id=ChIJbRPMOQAP04kRGgmS0nMa6Ho"}, {"name": "AZ Halal Meat and Grocery", "address": "1213 N Gary Ave, Carol Stream, IL 60188", "phone": "(630) 949-2189", "state": "Illinois", "products": ["Chicken", "Lamb", "Goat", "Veal", "Beef"], "expires": "2025-12-31T00:00:00", "certification": "HMS", "lat": 41.93547840000001, "lng": -88.11807019999999, "nav_url": "https://www.google.com/maps/search/?api=1&query=1213%20N%20Gary%20Ave%2C%20Carol%20Stream%2C%20IL%2060188&query_place_id=ChIJUy34iMCrD4gRyBUpHermm4k"}, {"name": "Makki Mart", "address": "2440 W Devon Ave, Chicago, IL 60659", "phone": "(773) 761-4626", "state": "Illinois", "products": ["Chicken", "Lamb", "Goat", "Veal", "Beef"], "expires": "2025-12-31T00:00:00", "certification": "HMS", "lat": 41.9979527, "lng": -87.69182769999999, "nav_url": "https://www.google.com/maps/search/?api=1&query=2440%20W%20Devon%20Ave%2C%20Chicago%2C%20IL%2060659&query_place_id=ChIJBYd9yd3RD4gRuby-e9TCF6c"}, {"name": "Hyderabad House Devon", "address": "2225 W. Devon Ave., Chicago, IL 60659", "phone": "(773)381-1230", "state": "Illinois", "products": ["Chicken", "Lamb", "Goat", "Veal", "Beef"], "expires": "2025-12-31T00:00:00", "certification": "HMS", "lat": 41.9976086, "lng": -87.6858282, "nav_url": "https://www.google.com/maps/search/?api=1&query=2225%20W.%20Devon%20Ave.%2C%20Chicago%2C%20IL%2060659&query_place_id=ChIJbWP15MLRD4gRahJkOoR68F8"}, {"name": "New Naan on Devon", "address": "2241 W. Devon Ave., Chicago, IL 60659", "phone": "(773) 262-7676", "state": "Illinois", "products": ["Chicken", "Lamb", "Goat", "Veal", "Beef"], "expires": "2025-12-31T00:00:00", "certification": "HMS", "lat": 41.9975739, "lng": -87.6866058, "nav_url": "https://www.google.com/maps/search/?api=1&query=2241%20W.%20Devon%20Ave.%2C%20Chicago%2C%20IL%2060659&query_place_id=ChIJP827LN3RD4gRnsD2bUymdJE"}, {"name": "Tahoora Sweet & Bakery", "address": "2345 W. Devon Ave. Chicago, IL 60659", "phone": "(773) 743-7272", "state": "Illinois", "products": ["Chicken", "Beef", "Misc"], "expires": "2025-12-31T00:00:00", "certification": "HMS", "lat": 41.9974987, "lng": -87.6892781, "nav_url": "https://www.google.com/maps/search/?api=1&query=2345%20W.%20Devon%20Ave.%20Chicago%2C%20IL%2060659&query_place_id=ChIJSePZG93RD4gRKPqsofmWZps"}, {"name": "Bundoo Khan Restaurant", "address": "2539 W. Devon Ave., Chicago, IL - 60659", "phone": "(872) 241-9100", "state": "Illinois", "products": ["Chicken", "Lamb", "Goat", "Veal", "Beef"], "expires": "2025-12-31T00:00:00", "certification": "HMS", "lat": 41.9975653, "lng": -87.69372949999999, "nav_url": "https://www.google.com/maps/search/?api=1&query=2539%20W.%20Devon%20Ave.%2C%20Chicago%2C%20IL%20-%2060659&query_place_id=ChIJBxXjZ97RD4gRXIoraPBYWkQ"}, {"name": "Charminar Restaurant", "address": "6350 N. Campbell Ave., Chicago, IL - 60659", "phone": "(773) 508-6766", "state": "Illinois", "products": ["Chicken", "Lamb", "Goat", "Veal", "Beef"], "expires": "2025-12-31T00:00:00", "certification": "HMS", "lat": 41.9974098, "lng": -87.6924427, "nav_url": "https://www.google.com/maps/search/?api=1&query=6350%20N.%20Campbell%20Ave.%2C%20Chicago%2C%20IL%20-%2060659&query_place_id=ChIJQeIj193RD4gRiMoc6YYL0K8"}, {"name": "Ajwaah Sweets", "address": "2453 W. Devon Ave., Chicago, IL 60645", "phone": "(773) 262-4444", "state": "Illinois", "products": ["Chicken", "Veal", "Beef", "Misc"], "expires": "2024-12-31T00:00:00", "certification": "HMS", "lat": 41.9975967, "lng": -87.69191789999999, "nav_url": "https://www.google.com/maps/search/?api=1&query=2453%20W.%20Devon%20Ave.%2C%20Chicago%2C%20IL%2060645&query_place_id=ChIJ7Ri-z93RD4gRPnKE_0jqBgI"}, {"name": "Halal Express Cusine", "address": "17W731 Roosevelt Rd. Oakbrook, Terrace, IL - 60181", "phone": "(630) 678-0790", "state": "Illinois", "products": ["Chicken", "Lamb", "Goat", "Beef"], "expires": "2025-12-31T00:00:00", "certification": "HMS", "lat": 41.859447, "lng": -87.97733149999999, "nav_url": "https://www.google.com/maps/search/?api=1&query=17W731%20Roosevelt%20Rd.%20Oakbrook%2C%20Terrace%2C%20IL%20-%2060181&query_place_id=ChIJU3Co06tNDogR3q9Q21uqbrQ"}, {"name": "Addys BBQ", "address": "799 Elmont Road, Elmont", "phone": " (516) 285-6000", "state": "New York", "products": ["Chicken", "Lamb", "Goat", "Beef"], "expires": "2024-12-31T00:00:00", "certification": "HMS", "lat": 40.6906331, "lng": -73.7205017, "nav_url": "https://www.google.com/maps/search/?api=1&query=799%20Elmont%20Road%2C%20Elmont&query_place_id=ChIJu47ysZNjwokR-_RrRU05pMs"}, {"name": "Wok & Grill", "address": "739 Elmont Road, Elmont, NY 11003", "phone": "(516) 285-1100", "state": "New York", "products": ["Chicken", "Goat", "Beef"], "expires": "2025-12-31T00:00:00", "certification": "HMS", "lat": 40.69199, "lng": -73.719425, "nav_url": "https://www.google.com/maps/search/?api=1&query=739%20Elmont%20Road%2C%20Elmont%2C%20NY%2011003&query_place_id=ChIJy9qX7ZNjwokR6YLc17QcrHs"}, {"name": "Holy Cow Restaurant Inc.", "address": "34 Canal St, New York, NY 10002", "phone": "(347)630-9155", "state": "New York", "products": ["Chicken", "Lamb", "Beef", "Turkey"], "expires": "2025-12-31T00:00:00", "certification": "HMS", "lat": 40.7144105, "lng": -73.9906865, "nav_url": "https://www.google.com/maps/search/?api=1&query=34%20Canal%20St%2C%20New%20York%2C%20NY%2010002&query_place_id=ChIJq6pmp6hZwokRVVybYtzIWr4"}, {"name": "The Halal Burger", "address": "6234 N California Ave, Chicago, IL 60659", "phone": "(773) 856-6663", "state": "Illinois", "products": ["Chicken", "Beef"], "expires": "2025-12-31T00:00:00", "certification": "HMS", "lat": 41.9950129, "lng": -87.6999213, "nav_url": "https://www.google.com/maps/search/?api=1&query=6234%20N%20California%20Ave%2C%20Chicago%2C%20IL%2060659&query_place_id=ChIJg0P2nR_OD4gRmp-k8AOMc7U"}, {"name": "Anmol Restaurant", "address": "711 W Mitchell St, Milwaukee, WI 53204", "phone": "(414) 672-7878", "state": "Wisconsin", "products": ["Chicken", "Lamb", "Goat", "Veal", "Beef"], "expires": "2025-12-31T00:00:00", "certification": "HMS", "lat": 43.0121025, "lng": -87.9203993, "nav_url": "https://www.google.com/maps/search/?api=1&query=711%20W%20Mitchell%20St%2C%20Milwaukee%2C%20WI%2053204&query_place_id=ChIJ5WJ3Gu8ZBYgRi85ncE0qbHc"}, {"name": "Anmol BBQ", "address": "2858 W Devon Ave, Chicago, IL 60659", "phone": "(773) 508-5050", "state": "Illinois", "products": ["Chicken", "Lamb", "Goat", "Veal", "Beef"], "expires": "2025-12-31T00:00:00", "certification": "HMS", "lat": 41.9975542, "lng": -87.6934137, "nav_url": "https://www.google.com/maps/search/?api=1&query=2858%20W%20Devon%20Ave%2C%20Chicago%2C%20IL%2060659&query_place_id=ChIJtUa3jyHOD4gR-oHcjGTylgo"}, {"name": "Jerusalem Cafe", "address": "300 W. Roosevelt Rd, Lombard, IL 60148", "phone": "(630) 629-6400", "state": "Illinois", "products": ["Chicken", "Lamb", "Beef"], "expires": "2024-12-31T00:00:00", "certification": "HMS", "lat": 41.86018199999999, "lng": -88.02324259999999, "nav_url": "https://www.google.com/maps/search/?api=1&query=300%20W.%20Roosevelt%20Rd%2C%20Lombard%2C%20IL%2060148&query_place_id=ChIJrbsbHGNSDogR_ap4x9FBJwo"}, {"name": "Tabaq Restaurant", "address": "1245 N. Clybourn Ave, Chicago, IL 60610", "phone": "(312) 944-1245", "state": "Illinois", "products": ["Chicken", "Lamb", "Goat", "Veal", "Beef"], "expires": "2025-12-31T00:00:00", "certification": "HMS", "lat": 41.9047776, "lng": -87.6406545, "nav_url": "https://www.google.com/maps/search/?api=1&query=1245%20N.%20Clybourn%20Ave%2C%20Chicago%2C%20IL%2060610&query_place_id=ChIJd5wenTfTD4gR12h2iKWrxwc"}, {"name": "House of Biryani", "address": "2306 W Devon Ave, Chicago, IL 60659", "phone": "(773) 654-3228", "state": "Illinois", "products": ["Chicken", "Lamb", "Goat"], "expires": "2025-12-31T00:00:00", "certification": "HMS", "lat": 41.9979339, "lng": -87.68785, "nav_url": "https://www.google.com/maps/search/?api=1&query=2306%20W%20Devon%20Ave%2C%20Chicago%2C%20IL%2060659&query_place_id=ChIJ-VLLABrRD4gR323fqUjmwxE"}, {"name": "Khan BBQ", "address": "2401 W Devon Ave, Chicago, IL 60659", "phone": "(773) 274-8600", "state": "Illinois", "products": ["Chicken", "Lamb", "Goat", "Veal", "Beef"], "expires": "2025-12-31T00:00:00", "certification": "HMS", "lat": 41.997522, "lng": -87.690192, "nav_url": "https://www.google.com/maps/search/?api=1&query=2401%20W%20Devon%20Ave%2C%20Chicago%2C%20IL%2060659&query_place_id=ChIJVSqYBt3RD4gRYGhqSbNd4II"}, {"name": "Sheeba Mandi House", "address": "3456 W. Foster Ave, Chicago, IL 60625", "phone": "(773) 654-3349", "state": "Illinois", "products": ["Chicken", "Lamb", "Beef"], "expires": "2025-12-31T00:00:00", "certification": "HMS", "lat": 41.9758973, "lng": -87.7157186, "nav_url": "https://www.google.com/maps/search/?api=1&query=3456%20W.%20Foster%20Ave%2C%20Chicago%2C%20IL%2060625&query_place_id=ChIJe0IOdubND4gRUMlFK1R2-GI"}, {"name": "Serena Restaurant", "address": "2536 W Devon Ave, Chicago, IL 60659", "phone": "(773) 338-5800", "state": "Illinois", "products": ["Chicken", "Goat", "Veal", "Beef"], "expires": "2025-12-31T00:00:00", "certification": "HMS", "lat": 41.9978266, "lng": -87.69381930000002, "nav_url": "https://www.google.com/maps/search/?api=1&query=2536%20W%20Devon%20Ave%2C%20Chicago%2C%20IL%2060659&query_place_id=ChIJlfzvLd3RD4gR-b0cL6G6U5o"}, {"name": "Kabab King Grill", "address": "2305 W. Devon Ave, Chicago, IL 60659", "phone": "(773) 856-3786", "state": "Illinois", "products": ["Chicken", "Lamb", "Goat", "Veal", "Beef"], "expires": "2025-12-31T00:00:00", "certification": "HMS", "lat": 41.9975885, "lng": -87.6877116, "nav_url": "https://www.google.com/maps/search/?api=1&query=2305%20W.%20Devon%20Ave%2C%20Chicago%2C%20IL%2060659&query_place_id=ChIJpfUT2bfRD4gRXeQwTZ9niNc"}, {"name": "Mughal Bakery", "address": "6346 - 48 N. Maplewood Ave, Chicago, IL 60659", "phone": "(773) 761-9660", "state": "Illinois", "products": ["Misc", "All Bakery Items"], "expires": "2025-12-31T00:00:00", "certification": "HMS", "lat": 41.997269, "lng": -87.693736, "nav_url": "https://www.google.com/maps/search/?api=1&query=6346%20-%2048%20N.%20Maplewood%20Ave%2C%20Chicago%2C%20IL%2060659&query_place_id=ChIJv8k8aCDOD4gRSNs_Xg1g1dE"}, {"name": "Four Seasons Steak & Grill", "address": "260 W North Ave, Addison, IL 60101", "phone": "(630) 519-5929", "state": "Illinois", "products": ["Chicken", "Lamb", "Goat", "Veal", "Beef"], "expires": "2025-12-31T00:00:00", "certification": "HMS", "lat": 41.9055547, "lng": -87.9947875, "nav_url": "https://www.google.com/maps/search/?api=1&query=260%20W%20North%20Ave%2C%20Addison%2C%20IL%2060101&query_place_id=ChIJZYGvfdizD4gR_wy6pevrpf4"}, {"name": "Centro Burgers and Shakes", "address": "1271 S. Main St, Lombard, IL 60148", "phone": "(331) 307-7902", "state": "Illinois", "products": ["Chicken", "Lamb", "Goat", "Veal", "Beef"], "expires": "2025-12-31T00:00:00", "certification": "HMS", "lat": 41.8585853, "lng": -88.016578, "nav_url": "https://www.google.com/maps/search/?api=1&query=1271%20S.%20Main%20St%2C%20Lombard%2C%20IL%2060148&query_place_id=ChIJS9rUC_tTDogRyhpyM1HemIs"}, {"name": "Makkah Catering", "address": "17W612 14th St Oakbrook Terrace, IL", "phone": "(630) 475-1234", "state": "Illinois", "products": ["Chicken", "Lamb", "Goat", "Veal", "Beef", "Caterer"], "expires": "2024-12-31T00:00:00", "certification": "HMS", "lat": 41.8573139, "lng": -87.97381, "nav_url": "https://www.google.com/maps/search/?api=1&query=17W612%2014th%20St%20Oakbrook%20Terrace%2C%20IL&query_place_id=ChIJZz1m1SBNDogRIxmBq2_J674"}, {"name": "Desi Dhaaba", "address": "3900 Washington St, Gurnee, IL 60031", "phone": "(224) 637-3233", "state": "Illinois", "products": ["Chicken", "Goat"], "expires": "2025-12-31T00:00:00", "certification": "HMS", "lat": 42.3604551, "lng": -87.8984182, "nav_url": "https://www.google.com/maps/search/?api=1&query=3900%20Washington%20St%2C%20Gurnee%2C%20IL%2060031&query_place_id=ChIJKfpu5WOSD4gRDfXH99H7Ozk"}, {"name": "Anmol South Asian Kitchen", "address": "1550 Rt 59, Ste 168 - 170, Naperville, IL 60653", "phone": "(630) 946-6760", "state": "Illinois", "products": ["Chicken", "Lamb", "Goat", "Veal", "Beef"], "expires": "2024-12-31T00:00:00", "certification": "HMS", "lat": 41.7956236, "lng": -88.20454199999999, "nav_url": "https://www.google.com/maps/search/?api=1&query=1550%20Rt%2059%2C%20Ste%20168%20-%20170%2C%20Naperville%2C%20IL%2060653&query_place_id=ChIJrZeKqzT5DogRSDI8ptOVgeU"}, {"name": "Eatzy Chinese", "address": "37 - 21 72nd Street, Jackson Heights, NY 11372", "phone": "(718) 533-9131", "state": "New York", "products": ["Chicken", "Lamb", "Goat", "Veal", "Beef"], "expires": "2025-12-31T00:00:00", "certification": "HMS", "lat": 40.7480732, "lng": -73.8935493, "nav_url": "https://www.google.com/maps/search/?api=1&query=37%20-%2021%2072nd%20Street%2C%20Jackson%20Heights%2C%20NY%2011372&query_place_id=ChIJy0VDjRVfwokR4AFVAogIVuk"}, {"name": "Bundoo Khan Express", "address": "2603 Aurora Ave Unit 123, Naperville, IL 60540", "phone": "(630) 857-9704 (and 9705)", "state": "Illinois", "products": ["Chicken", "Lamb", "Goat", "Veal", "Beef"], "expires": "2025-12-31T00:00:00", "certification": "HMS", "lat": 41.76439, "lng": -88.1981572, "nav_url": "https://www.google.com/maps/search/?api=1&query=2603%20Aurora%20Ave%20Unit%20123%2C%20Naperville%2C%20IL%2060540&query_place_id=ChIJx5TXHjv5DogRnu6n6oMsY7c"}, {"name": "Bismillah Restaurant", "address": "475 W. Boughton Rd, Bolingbrook, IL 60440", "phone": "(630) 759-4429", "state": "Illinois", "products": ["Chicken", "Lamb", "Goat", "Veal", "Beef"], "expires": "2025-12-31T00:00:00", "certification": "HMS", "lat": 41.7066065, "lng": -88.0861292, "nav_url": "https://www.google.com/maps/search/?api=1&query=475%20W.%20Boughton%20Rd%2C%20Bolingbrook%2C%20IL%2060440&query_place_id=ChIJdU4mnytaDogRZE_q6xXr92w"}, {"name": "Kababjees", "address": "495-18 South Broadway, Hicksville, NY 11801", "phone": "(516) 597-5777", "state": "New York", "products": ["Chicken", "Lamb", "Goat", "Beef"], "expires": "2025-12-31T00:00:00", "certification": "HMS", "lat": 40.7572959, "lng": -73.51020919999999, "nav_url": "https://www.google.com/maps/search/?api=1&query=495-18%20South%20Broadway%2C%20Hicksville%2C%20NY%2011801&query_place_id=ChIJQyZIvVeAwokR5xffYPDTgBM"}, {"name": "Nay Restaurant", "address": "365 E. North Ave, Glendale Heights, IL 60139", "phone": "(630) 868-3744", "state": "Illinois", "products": ["Chicken", "Lamb", "Beef"], "expires": "2024-12-31T00:00:00", "certification": "HMS", "lat": 41.9025785, "lng": -88.07461579999999, "nav_url": "https://www.google.com/maps/search/?api=1&query=365%20E.%20North%20Ave%2C%20Glendale%20Heights%2C%20IL%2060139&query_place_id=ChIJvcJxQUtTDogRPVTch4xHrUg"}, {"name": "Tasty Nihari", "address": "2255 W Schaumburg Rd, Schaumburg, IL 60194", "phone": "(847) 524-1401", "state": "Illinois", "products": ["Chicken", "Goat", "Beef"], "expires": "2025-12-31T00:00:00", "certification": "HMS", "lat": 42.024401, "lng": -88.13641799999999, "nav_url": "https://www.google.com/maps/search/?api=1&query=2255%20W%20Schaumburg%20Rd%2C%20Schaumburg%2C%20IL%2060194&query_place_id=ChIJDd6W5lKoD4gRVqTPcZ_JWuk"}, {"name": "Afghan Kabob", "address": "6002 W. Dempster St, Morton Grove, IL 60053", "phone": "(224) 534-7262", "state": "Illinois", "products": ["Chicken", "Lamb", "Beef"], "expires": "2025-12-31T00:00:00", "certification": "HMS", "lat": 42.0411742, "lng": -87.77668129999999, "nav_url": "https://www.google.com/maps/search/?api=1&query=6002%20W.%20Dempster%20St%2C%20Morton%20Grove%2C%20IL%2060053&query_place_id=ChIJY4Pnx_vJD4gRmANn1JR-vD8"}, {"name": "Hussain Catering", "address": "1214 S Highland Ave, Lombard, IL 60148", "phone": "(773) 289-8089", "state": "Illinois", "products": ["Chicken", "Lamb", "Goat", "Veal", "Beef", "Caterer"], "expires": "2025-12-31T00:00:00", "certification": "HMS", "lat": 41.8595886, "lng": -88.0127334, "nav_url": "https://www.google.com/maps/search/?api=1&query=1214%20S%20Highland%20Ave%2C%20Lombard%2C%20IL%2060148&query_place_id=ChIJldMR9btTDogRyqtFNPT7rqM"}, {"name": "Holy Cow Elmont", "address": "240-09 Linden Blvd, Elmont, NY 11003", "phone": "(516) 636-5299", "state": "New York", "products": ["Chicken", "Lamb", "Beef", "Turkey"], "expires": "2025-12-31T00:00:00", "certification": "HMS", "lat": 40.689694, "lng": -73.722105, "nav_url": "https://www.google.com/maps/search/?api=1&query=240-09%20Linden%20Blvd%2C%20Elmont%2C%20NY%2011003&query_place_id=ChIJJfRdKytjwokRt3PjGRYlQSo"}, {"name": "Vita Vita International", "address": "6315 N. Milwaukee Ave, Chicago, IL 60646", "phone": "(773) 853-0058", "state": "Illinois", "products": ["Misc", "D3", "B12", "ZINC-CITRATE", "TURMERIC-BLEND", "ZINC-ECHINACEA", "LIPOSOMAL-VITAMIN-C", "MULTIVITAMINS-MEN", "MULTIVITAMINS-WOMEN", "MULTIVITAMINS-PRENATAL"], "expires": "2024-12-31T00:00:00", "certification": "HMS", "lat": 41.9958271, "lng": -87.78593479999999, "nav_url": "https://www.google.com/maps/search/?api=1&query=6315%20N.%20Milwaukee%20Ave%2C%20Chicago%2C%20IL%2060646&query_place_id=ChIJWyridkjJD4gRiOzt0pyJN9c"}, {"name": "Eatzy Thai", "address": "33-09 Broadway, Astoria, NY 11106", "phone": "(718) 956-7117", "state": "New York", "products": ["Chicken", "Lamb", "Beef"], "expires": "2025-12-31T00:00:00", "certification": "HMS", "lat": 40.7611523, "lng": -73.92333649999999, "nav_url": "https://www.google.com/maps/search/?api=1&query=33-09%20Broadway%2C%20Astoria%2C%20NY%2011106&query_place_id=ChIJh3du_ddfwokRFatN-f8F0-U"}, {"name": "Perdesi Grill", "address": "1184 Roosevelt Rd, Glen Ellyn, IL 60137", "phone": "(630) 678-9288", "state": "Illinois", "products": ["Chicken", "Lamb", "Goat", "Veal", "Beef"], "expires": "2025-12-31T00:00:00", "certification": "HMS", "lat": 41.8601621, "lng": -88.0328452, "nav_url": "https://www.google.com/maps/search/?api=1&query=1184%20Roosevelt%20Rd%2C%20Glen%20Ellyn%2C%20IL%2060137&query_place_id=ChIJ_6uFvlhSDogR7E2CjxEu1Zc"}, {"name": "Al Maidah Indian Restaurant", "address": "1921 Main St, Tewksbury, MA 01876", "phone": "(781) 300-0100", "state": "Massachusetts", "products": ["Chicken", "Lamb", "Goat", "Beef"], "expires": "2025-12-31T00:00:00", "certification": "HMS", "lat": 42.590387, "lng": -71.2050275, "nav_url": "https://www.google.com/maps/search/?api=1&query=1921%20Main%20St%2C%20Tewksbury%2C%20MA%2001876&query_place_id=ChIJwcKypbyg44kR6OzCWR49-Dw"}, {"name": "Taj Grill & Gyro", "address": "700 Oak Tree Ave, South Plainfield, NJ 07080", "phone": "(908) 941-3430", "state": "New Jersey", "products": ["Chicken", "Lamb", "Beef"], "expires": "2025-12-31T00:00:00", "certification": "HMS", "lat": 40.57646270000001, "lng": -74.3919384, "nav_url": "https://www.google.com/maps/search/?api=1&query=700%20Oak%20Tree%20Ave%2C%20South%20Plainfield%2C%20NJ%2007080&query_place_id=ChIJYTY_OSi3w4kR1Y2x7xF6Hvo"}, {"name": "Tawakkul Restaurant", "address": "6410 N. Claremont Ave, Chicago, IL 60659", "phone": "(773) 654-1424", "state": "Illinois", "products": ["Chicken", "Lamb", "Goat", "Beef"], "expires": "2025-12-31T00:00:00", "certification": "HMS", "lat": 41.9981452, "lng": -87.6888273, "nav_url": "https://www.google.com/maps/search/?api=1&query=6410%20N.%20Claremont%20Ave%2C%20Chicago%2C%20IL%2060659&query_place_id=ChIJ6-WW5ZHRD4gRDuLnboloUEw"}, {"name": "Asia Grocers", "address": "27616 Middlebelt Rd, Farmington Hills, MI 48334", "phone": "(248) 426-9000", "state": "Michigan", "products": ["Chicken", "Lamb", "Goat", "Veal", "Beef"], "expires": "2025-12-31T00:00:00", "certification": "HMS", "lat": 42.4978142, "lng": -83.33762019999999, "nav_url": "https://www.google.com/maps/search/?api=1&query=27616%20Middlebelt%20Rd%2C%20Farmington%20Hills%2C%20MI%2048334&query_place_id=ChIJx-Z2VrSwJIgRMsocP2s4ie4"}, {"name": "Samosa Paradise", "address": "804 Newark Ave, Jersey City, NJ 07306", "phone": "(201) 414-9493", "state": "New Jersey", "products": ["Chicken", "Lamb", "Goat", "Veal", "Beef"], "expires": "2024-12-31T00:00:00", "certification": "HMS", "lat": 40.7357388, "lng": -74.0650826, "nav_url": "https://www.google.com/maps/search/?api=1&query=804%20Newark%20Ave%2C%20Jersey%20City%2C%20NJ%2007306&query_place_id=ChIJk8YqJhNXwokRGIXhOOw7eq4"}, {"name": "Ali Baba Kabab", "address": "869 S ROSELLE RD, SCHAUMBURG, IL 60193", "phone": "(630) 912-4499", "state": "Illinois", "products": ["Chicken", "Lamb", "Beef"], "expires": "2025-12-31T00:00:00", "certification": "HMS", "lat": 42.0113922, "lng": -88.0789013, "nav_url": "https://www.google.com/maps/search/?api=1&query=869%20S%20ROSELLE%20RD%2C%20SCHAUMBURG%2C%20IL%2060193&query_place_id=ChIJpfIlTrivD4gR-DCk43kSCmQ"}, {"name": "Pariwaar Delights", "address": "827 Newark Ave, Jersey City", "phone": "(201) 217-1800", "state": "New Jersey", "products": ["Chicken", "Lamb", "Goat", "Beef"], "expires": "2025-12-31T00:00:00", "certification": "HMS", "lat": 40.7354704, "lng": -74.0662024, "nav_url": "https://www.google.com/maps/search/?api=1&query=827%20Newark%20Ave%2C%20Jersey%20City&query_place_id=ChIJJ3_FgYRXwokR6dKWDxTVhXE"}, {"name": "Halal Eatz", "address": "195 Cambridge Street, Burlington, MA 01803", "phone": "(781) 203-1554", "state": "Massachusetts", "products": ["Chicken", "Lamb", "Beef"], "expires": "2025-12-31T00:00:00", "certification": "HMS", "lat": 42.5107485, "lng": -71.201223, "nav_url": "https://www.google.com/maps/search/?api=1&query=195%20Cambridge%20Street%2C%20Burlington%2C%20MA%2001803&query_place_id=ChIJge-haRSf44kRm8atGHKHf8U"}, {"name": "Tim Tim's Halal Grill", "address": "4148 W MONTROSE AVE, CHICAGO, IL 60641", "phone": "(773) 657-3180", "state": "Illinois", "products": ["Chicken", "Beef"], "expires": "2025-12-31T00:00:00", "certification": "HMS", "lat": 41.9610179, "lng": -87.7318904, "nav_url": "https://www.google.com/maps/search/?api=1&query=4148%20W%20MONTROSE%20AVE%2C%20CHICAGO%2C%20IL%2060641&query_place_id=ChIJvYTouTrND4gRuccr5Ls5QfE"}, {"name": "Hyderabad House Schaumburg", "address": "825 W. HIGGINS, SCHAUMBURG, IL 60194 ", "phone": "(847) 466-7055", "state": "Illinois", "products": ["Chicken", "Lamb", "Goat", "Veal", "Beef"], "expires": "2025-12-31T00:00:00", "certification": "HMS", "lat": 42.0495536, "lng": -88.1010078, "nav_url": "https://www.google.com/maps/search/?api=1&query=825%20W.%20HIGGINS%2C%20SCHAUMBURG%2C%20IL%2060194%20&query_place_id=ChIJLXJhMPapD4gRsU-xA25ENrE"}, {"name": "Shalimar Restaurant", "address": "474 N. GREENBAY RD, WAUKEGAN, IL 60085 ", "phone": "(847) 599-9306", "state": "Illinois", "products": ["Chicken", "Lamb", "Goat", "Veal", "Beef"], "expires": "2025-12-31T00:00:00", "certification": "HMS", "lat": 42.3664863, "lng": -87.87980639999999, "nav_url": "https://www.google.com/maps/search/?api=1&query=474%20N.%20GREENBAY%20RD%2C%20WAUKEGAN%2C%20IL%2060085%20&query_place_id=ChIJBw9AJxuTD4gR-uKfFdmpKHs"}, {"name": "BBQ King", "address": "3112 N Jupiter Rd #307, Garland, TX 75044", "phone": "(972) 807-6910", "state": "Texas", "products": ["Chicken", "Lamb", "Goat", "Veal", "Beef"], "expires": "2025-12-31T00:00:00", "certification": "HMS", "lat": 32.9456926, "lng": -96.6808676, "nav_url": "https://www.google.com/maps/search/?api=1&query=3112%20N%20Jupiter%20Rd%20%23307%2C%20Garland%2C%20TX%2075044&query_place_id=ChIJ-24KWjcfTIYR44-lnyZi_j8"}, {"name": "Mannan Bakery", "address": "71-14 35 Ave, Jackson Heights, NY 11372", "phone": "(718) 424-0262", "state": "New York", "products": ["Chicken", "Lamb", "Goat", "Veal", "Beef", "All Bakery Items"], "expires": "2025-12-31T00:00:00", "certification": "HMS", "lat": 40.7506644, "lng": -73.8943899, "nav_url": "https://www.google.com/maps/search/?api=1&query=71-14%2035%20Ave%2C%20Jackson%20Heights%2C%20NY%2011372&query_place_id=ChIJR-TDiTFfwokRfin9symmnGg"}, {"name": "Khizer's Kitchen", "address": "112 N BOLINGBROOK DR.BOLINGBROOK, IL 60440", "phone": "(630) 863-7018", "state": "Illinois", "products": ["Chicken", "Lamb", "Goat", "Veal", "Beef"], "expires": "2025-12-31T00:00:00", "certification": "HMS", "lat": 41.6990312, "lng": -88.06691409999999, "nav_url": "https://www.google.com/maps/search/?api=1&query=112%20N%20BOLINGBROOK%20DR.BOLINGBROOK%2C%20IL%2060440&query_place_id=ChIJ61hP8mFbDogRLa-bHgj7abI"}, {"name": "Mannan Bakery & Restaurant", "address": "167-15 Hillside Ave, Jamaica, NY 11432", "phone": "(718) 374-3679", "state": "New York", "products": ["Chicken", "Lamb", "Goat", "Veal", "Beef", "All Bakery Items"], "expires": "2025-12-31T00:00:00", "certification": "HMS", "lat": 40.7100794, "lng": -73.7950784, "nav_url": "https://www.google.com/maps/search/?api=1&query=167-15%20Hillside%20Ave%2C%20Jamaica%2C%20NY%2011432&query_place_id=ChIJHzcwHxRhwokR0x3k4QlCe-k"}, {"name": "Fire Stone Grill & Pizza", "address": "380 B Franklin Ave, Franklin Square, NY 11010", "phone": "(516) 326-1214", "state": "New York", "products": ["Chicken", "Lamb", "Goat", "Beef"], "expires": "2024-12-31T00:00:00", "certification": "HMS", "lat": 40.6978916, "lng": -73.6827302, "nav_url": "https://www.google.com/maps/search/?api=1&query=380%20B%20Franklin%20Ave%2C%20Franklin%20Square%2C%20NY%2011010&query_place_id=ChIJrWYJS4ZjwokRTjapL3BBF28"}, {"name": "Karahi Corner", "address": "2658 W Devon Ave Chicago IL 60659", "phone": "(773) 856-3090", "state": "Illinois", "products": ["Chicken", "Lamb", "Goat", "Veal", "Beef"], "expires": "2025-12-31T00:00:00", "certification": "HMS", "lat": 41.99771399999999, "lng": -87.69705669999999, "nav_url": "https://www.google.com/maps/search/?api=1&query=2658%20W%20Devon%20Ave%20Chicago%20IL%2060659&query_place_id=ChIJCUAFhd_RD4gRgCqVKXZoOuw"}, {"name": "Pita & Hummus", "address": "1655 Stelton Rd, Piscataway, NJ 08854", "phone": "(732) 354-4648", "state": "New Jersey", "products": ["Chicken", "Lamb", "Goat", "Beef"], "expires": "2025-12-31T00:00:00", "certification": "HMS", "lat": 40.5338231, "lng": -74.4190485, "nav_url": "https://www.google.com/maps/search/?api=1&query=1655%20Stelton%20Rd%2C%20Piscataway%2C%20NJ%2008854&query_place_id=ChIJNwplLyTHw4kRHdiVjMPu1Jk"}, {"name": "Mannan Sweets & Restaurant", "address": "75-13 101 Ave, Ozone Park, NY 11416", "phone": "(718) 480-6880", "state": "New York", "products": ["Chicken", "Lamb", "Goat", "Veal", "Beef"], "expires": "2025-12-31T00:00:00", "certification": "HMS", "lat": 40.6799204, "lng": -73.86187530000001, "nav_url": "https://www.google.com/maps/search/?api=1&query=75-13%20101%20Ave%2C%20Ozone%20Park%2C%20NY%2011416&query_place_id=ChIJV2CzMJ5dwokRhp6R0wonl8M"}, {"name": "Poblano's Piri Piri", "address": "3636 N Belt Line Rd, Irving, TX 75062", "phone": "(972) 514-1792", "state": "Texas", "products": ["Chicken", "Lamb", "Beef"], "expires": "2025-12-31T00:00:00", "certification": "HMS", "lat": 32.8561251, "lng": -96.9906987, "nav_url": "https://www.google.com/maps/search/?api=1&query=3636%20N%20Belt%20Line%20Rd%2C%20Irving%2C%20TX%2075062&query_place_id=ChIJkRcV8-yDToYRKE34sm6lIeo"}, {"name": "Star Restaurant", "address": "326 Chamberlain Ave, Paterson, NJ 07502", "phone": "(973) 653-3208", "state": "New Jersey", "products": ["Chicken", "Lamb", "Goat", "Beef"], "expires": "2025-12-31T00:00:00", "certification": "HMS", "lat": 40.9228074, "lng": -74.1922056, "nav_url": "https://www.google.com/maps/search/?api=1&query=326%20Chamberlain%20Ave%2C%20Paterson%2C%20NJ%2007502&query_place_id=ChIJEzEbfxD9wokRda0Omv3k_m0"}, {"name": "Mannan Bakery Factory", "address": "149-21 Jamaica Ave, Jamaica, NY 11435", "phone": "0000000000", "state": "New York", "products": ["Chicken", "Lamb", "Goat", "Beef", "All Bakery Items"], "expires": "2025-12-31T00:00:00", "certification": "HMS", "lat": 40.7100794, "lng": -73.7950784, "nav_url": "https://www.google.com/maps/search/?api=1&query=149-21%20Jamaica%20Ave%2C%20Jamaica%2C%20NY%2011435&query_place_id=ChIJHzcwHxRhwokR0x3k4QlCe-k"}, {"name": "Two Brothers Chicken & Sub (ONLY THIS LOCATION)", "address": "14845 Build America Dr, Woodbridge, VA 22191", "phone": "(703) 491-3663", "state": "Virginia", "products": ["Chicken", "Beef"], "expires": "2025-12-31T00:00:00", "certification": "HMS", "lat": 38.630405, "lng": -77.27295, "nav_url": "https://www.google.com/maps/search/?api=1&query=14845%20Build%20America%20Dr%2C%20Woodbridge%2C%20VA%2022191&query_place_id=ChIJm5hw6fBVtokRcr0PfdHkhus"}, {"name": "NYC Halal Eats", "address": "1939 E Wattles Rd, Troy, MI 48085", "phone": "(248) 729-7200", "state": "Michigan", "products": ["Chicken", "Lamb", "Beef"], "expires": "2025-12-31T00:00:00", "certification": "HMS", "lat": 42.5786238, "lng": -83.1105585, "nav_url": "https://www.google.com/maps/search/?api=1&query=1939%20E%20Wattles%20Rd%2C%20Troy%2C%20MI%2048085&query_place_id=ChIJ45jCASTFJIgRKtESbldgtyw"}, {"name": "Hyderabad Kitchen", "address": "6242 - 44 N. California Ave, Chicago, IL 60659", "phone": "(773) 961-7023", "state": "Illinois", "products": ["Chicken", "Lamb", "Goat", "Veal", "Beef"], "expires": "2025-12-31T00:00:00", "certification": "HMS", "lat": 41.9952299, "lng": -87.7000061, "nav_url": "https://www.google.com/maps/search/?api=1&query=6242%20-%2044%20N.%20California%20Ave%2C%20Chicago%2C%20IL%2060659&query_place_id=ChIJKXZUu9jPD4gR_puP82T4s9E"}, {"name": "Burgermania", "address": "274 West 40 Street, New York, NY 10018", "phone": "(929) 235-7861", "state": "New York", "products": ["Chicken", "Lamb", "Beef"], "expires": "2025-12-31T00:00:00", "certification": "HMS", "lat": 40.7557265, "lng": -73.99051519999999, "nav_url": "https://www.google.com/maps/search/?api=1&query=274%20West%2040%20Street%2C%20New%20York%2C%20NY%2010018&query_place_id=ChIJw-FUB3pZwokROaAFxzqHzp4"}, {"name": "Al Bawadi Grill Bridgeview", "address": "7216 W 87TH ST, BRIDGEVIEW, IL 60455", "phone": "(708) 599-1999", "state": "Illinois", "products": ["Chicken", "Lamb", "Beef"], "expires": "2025-12-31T00:00:00", "certification": "HMS", "lat": 41.7338135, "lng": -87.8012114, "nav_url": "https://www.google.com/maps/search/?api=1&query=7216%20W%2087TH%20ST%2C%20BRIDGEVIEW%2C%20IL%2060455&query_place_id=ChIJs8og9Ns5DogREeC8JXB-JZk"}, {"name": "Al Bawadi Grill Niles", "address": "8501 DEMPSTER ST, NILES, IL 60714", "phone": "(847) 957-1999", "state": "Illinois", "products": ["Chicken", "Lamb", "Beef"], "expires": "2025-12-31T00:00:00", "certification": "HMS", "lat": 42.0397963, "lng": -87.8385929, "nav_url": "https://www.google.com/maps/search/?api=1&query=8501%20DEMPSTER%20ST%2C%20NILES%2C%20IL%2060714&query_place_id=ChIJqQBFpmrJD4gRb8zhFDnciTg"}, {"name": "Healthy Sugar NYC (Yogurt La Crepe)", "address": "61 North Broadway, Tarrytown, NY 10591", "phone": "(914) 372-7037", "state": "New York", "products": ["Chicken", "Lamb", "Goat", "Beef", "All Bakery Items"], "expires": "2024-12-31T00:00:00", "certification": "HMS", "lat": 41.0784338, "lng": -73.8579034, "nav_url": "https://www.google.com/maps/search/?api=1&query=61%20North%20Broadway%2C%20Tarrytown%2C%20NY%2010591&query_place_id=ChIJYdIogDrrwokRmWNxMuPVy1g"}, {"name": "New Zaiqa", "address": "1316 N Clybourn Ave Chicago, IL 60610", "phone": "(312) 266-0786", "state": "Illinois", "products": ["Chicken", "Lamb", "Goat", "Beef"], "expires": "2025-12-31T00:00:00", "certification": "HMS", "lat": 41.9059262, "lng": -87.6429277, "nav_url": "https://www.google.com/maps/search/?api=1&query=1316%20N%20Clybourn%20Ave%20Chicago%2C%20IL%2060610&query_place_id=ChIJIbkvjGbTD4gRwyg2Bgec16k"}, {"name": "La Estacion Deli & Pizzeria", "address": "22 1st Ave, Brentwood, NY 11717", "phone": "(631) 231-3131", "state": "New York", "products": ["Chicken", "Lamb", "Goat", "Beef"], "expires": "2025-12-31T00:00:00", "certification": "HMS", "lat": 40.7799512, "lng": -73.24690009999999, "nav_url": "https://www.google.com/maps/search/?api=1&query=22%201st%20Ave%2C%20Brentwood%2C%20NY%2011717&query_place_id=ChIJHYtHMMEx6IkRua8SpOLSAfA"}, {"name": "Al-Medinah Restaurant", "address": "10158 West Broad Street, Glen Allen, VA 23060", "phone": "(804) 562-9470", "state": "Virginia", "products": ["Chicken", "Lamb", "Goat", "Veal", "Beef"], "expires": "2024-12-31T00:00:00", "certification": "HMS", "lat": 37.646626, "lng": -77.57454659999999, "nav_url": "https://www.google.com/maps/search/?api=1&query=10158%20West%20Broad%20Street%2C%20Glen%20Allen%2C%20VA%2023060&query_place_id=ChIJ62KiiAdrsYkRNO51ZoPvHRY"}, {"name": "Byrd's Hot Chicken Algonquin", "address": "1748 S Randall Rd, Algonquin, IL 60102", "phone": "224-678-9433", "state": "Illinois", "products": ["Chicken"], "expires": "2025-12-31T00:00:00", "certification": "HMS", "lat": 42.1487383, "lng": -88.3380471, "nav_url": "https://www.google.com/maps/search/?api=1&query=1748%20S%20Randall%20Rd%2C%20Algonquin%2C%20IL%2060102&query_place_id=ChIJk9LWUxwTD4gRi3KD1Om5lrk"}, {"name": "Moon Restaurant", "address": "69-11 Woodside Ave, Woodside, NY 11377", "phone": "(718) 335-1828", "state": "New York", "products": ["Chicken", "Lamb", "Goat", "Beef"], "expires": "2025-12-31T00:00:00", "certification": "HMS", "lat": 40.7427531, "lng": -73.8951434, "nav_url": "https://www.google.com/maps/search/?api=1&query=69-11%20Woodside%20Ave%2C%20Woodside%2C%20NY%2011377&query_place_id=ChIJY1w2JeBfwokRGE7NP_DaQhQ"}, {"name": "Grill O Pizzeria & Kabab", "address": "72-55 Kissena Blvd, Flushing, NY 11367", "phone": "(718) 793-2984", "state": "New York", "products": ["Chicken", "Lamb", "Goat", "Beef"], "expires": "2024-12-31T00:00:00", "certification": "HMS", "lat": 40.7276054, "lng": -73.8129525, "nav_url": "https://www.google.com/maps/search/?api=1&query=72-55%20Kissena%20Blvd%2C%20Flushing%2C%20NY%2011367&query_place_id=ChIJ5YgBJvRgwokRXk7XR_qL5O0"}, {"name": "Fahrenheit ", "address": "136 E Army Trail Rd, Glendale Heights, IL 60139", "phone": "(847) 466-5705", "state": "Illinois", "products": ["Chicken", "Beef"], "expires": "2025-12-31T00:00:00", "certification": "HMS", "lat": 41.9382028, "lng": -88.0838316, "nav_url": "https://www.google.com/maps/search/?api=1&query=136%20E%20Army%20Trail%20Rd%2C%20Glendale%20Heights%2C%20IL%2060139&query_place_id=ChIJvycVcAatD4gRMBCVV0X6ZhI"}, {"name": "Halal Pizza & Food", "address": "15921 Weber Rd, Unit B, Crest Hill, IL 60403", "phone": "(815) 552-2452", "state": "Illinois", "products": ["Chicken", "Lamb", "Goat", "Veal", "Beef"], "expires": "2025-12-31T00:00:00", "certification": "HMS", "lat": 41.5942666, "lng": -88.1216884, "nav_url": "https://www.google.com/maps/search/?api=1&query=15921%20Weber%20Rd%2C%20Unit%20B%2C%20Crest%20Hill%2C%20IL%2060403&query_place_id=ChIJYQBXrkNfDogRffeLMnCKOLI"}, {"name": "Hyderabad House JC", "address": "523 Newark Ave, Jersey City, NJ 07306", "phone": "(201) 876-2943", "state": "New Jersey", "products": ["Chicken", "Lamb", "Goat", "Beef"], "expires": "2025-12-31T00:00:00", "certification": "HMS", "lat": 40.7303206, "lng": -74.0558391, "nav_url": "https://www.google.com/maps/search/?api=1&query=523%20Newark%20Ave%2C%20Jersey%20City%2C%20NJ%2007306&query_place_id=ChIJc8cFpL9XwokRGBXli6EVp7k"}, {"name": "Two Brothers Chicken Express", "address": "9745 Liberia Ave, Manassas, VA 20110", "phone": "(703) 595-0109", "state": "Virginia", "products": ["Chicken", "Lamb", "Goat", "Beef"], "expires": "2025-12-31T00:00:00", "certification": "HMS", "lat": 38.7441047, "lng": -77.4501511, "nav_url": "https://www.google.com/maps/search/?api=1&query=9745%20Liberia%20Ave%2C%20Manassas%2C%20VA%2020110&query_place_id=ChIJl_xwAQVbtokR8dklUSPwXJU"}, {"name": "Halal Eatz", "address": "574B Stewart Ave, Bethpage, NY 11714", "phone": "(516) 813-7660", "state": "New York", "products": ["Chicken", "Lamb", "Goat", "Beef"], "expires": "2024-12-31T00:00:00", "certification": "HMS", "lat": 40.7433768, "lng": -73.4808445, "nav_url": "https://www.google.com/maps/search/?api=1&query=574B%20Stewart%20Ave%2C%20Bethpage%2C%20NY%2011714&query_place_id=ChIJDUIvUrKBwokRFNAuYoC5B_M"}, {"name": "Holy Buckets Bridgeview", "address": "7331 W 87th St, Bridgeview, IL 60455", "phone": "(708) 931-4659", "state": "Illinois", "products": ["Chicken", "Beef"], "expires": "2025-12-31T00:00:00", "certification": "HMS", "lat": 41.7330479, "lng": -87.80275619999999, "nav_url": "https://www.google.com/maps/search/?api=1&query=7331%20W%2087th%20St%2C%20Bridgeview%2C%20IL%2060455&query_place_id=ChIJC2TlXRs5DogRLQjVW1I7h5w"}, {"name": "BBQ King Express & Pizzeria", "address": "888 S GREENVILLE AVE #222, RICHARDSON, TX 75081", "phone": "(214) 238-6590 ", "state": "Texas", "products": ["Chicken", "Lamb", "Goat", "Veal", "Beef"], "expires": "2025-12-31T00:00:00", "certification": "HMS", "lat": 32.9383115, "lng": -96.73459729999999, "nav_url": "https://www.google.com/maps/search/?api=1&query=888%20S%20GREENVILLE%20AVE%20%23222%2C%20RICHARDSON%2C%20TX%2075081&query_place_id=ChIJ9-opmQEfTIYR2UD9MAiEuuU"}, {"name": "Cultura Subs", "address": "9432 Waukegan Rd, Morton Grove, IL 60053", "phone": "(872) 285-8872", "state": "Illinois", "products": ["Chicken", "Beef"], "expires": "2024-12-31T00:00:00", "certification": "HMS", "lat": 42.0531831, "lng": -87.7999415, "nav_url": "https://www.google.com/maps/search/?api=1&query=9432%20Waukegan%20Rd%2C%20Morton%20Grove%2C%20IL%2060053&query_place_id=ChIJSw9sFuTJD4gR8Ol-iGNmq6M"}, {"name": "Fatzee\u2019s", "address": "1608 Emerson St, Evanston. IL 60201", "phone": "847-859-6293", "state": "Illinois", "products": ["Chicken", "Beef"], "expires": "2024-12-31T00:00:00", "certification": "HMS", "lat": 42.0518782, "lng": -87.6950198, "nav_url": "https://www.google.com/maps/search/?api=1&query=1608%20Emerson%20St%2C%20Evanston.%20IL%2060201&query_place_id=ChIJi7T5pgHQD4gRZSc1leoe2bI"}, {"name": "Halal Express Mart (Take Out)", "address": "6065 Dempster St, Morton Grove, IL 60053", "phone": "(224) 534-7048", "state": "Illinois", "products": ["Chicken", "Lamb", "Goat", "Veal", "Beef"], "expires": "2025-12-31T00:00:00", "certification": "HMS", "lat": 42.0406632, "lng": -87.7782986, "nav_url": "https://www.google.com/maps/search/?api=1&query=6065%20Dempster%20St%2C%20Morton%20Grove%2C%20IL%2060053&query_place_id=ChIJPZuLQ7PJD4gRqENBI_1Wpuc"}, {"name": "Flame on Peri Peri Grill", "address": "7041 N MILWAUKEE AVE, NILES, IL 60714", "phone": "(847) 779-3950", "state": "Illinois", "products": ["Chicken", "Beef"], "expires": "2025-12-31T00:00:00", "certification": "HMS", "lat": 42.0095693, "lng": -87.7986402, "nav_url": "https://www.google.com/maps/search/?api=1&query=7041%20N%20MILWAUKEE%20AVE%2C%20NILES%2C%20IL%2060714&query_place_id=ChIJS9iqUMvJD4gR_Jn4EjdocL4"}, {"name": "Mazadar Mediterranean Kitchen", "address": "1839 Central Ave, Albany, NY 12205", "phone": "(518) 464-0800", "state": "New York", "products": ["Chicken", "Lamb", "Goat", "Beef"], "expires": "2025-12-31T00:00:00", "certification": "HMS", "lat": 42.7317163, "lng": -73.8478356, "nav_url": "https://www.google.com/maps/search/?api=1&query=1839%20Central%20Ave%2C%20Albany%2C%20NY%2012205&query_place_id=ChIJyXVK-CJz3okR6arUZ3EXVjk"}, {"name": "Al Safa (Restaurant) ", "address": "3146 W Touhy Ave,  Chicago, IL 60645", "phone": "(773) 654-1664", "state": "Illinois", "products": ["Chicken", "Lamb", "Beef"], "expires": "2025-12-31T00:00:00", "certification": "HMS", "lat": 42.0121458, "lng": -87.7086167, "nav_url": "https://www.google.com/maps/search/?api=1&query=3146%20W%20Touhy%20Ave%2C%20%20Chicago%2C%20IL%2060645&query_place_id=ChIJCb5Xg_DPD4gRswCHbPMmUQc"}, {"name": "Crescent Moon", "address": "3013 W Spring Creek Pkwy #200, Plano, TX 75023", "phone": "(972) 618-7888", "state": "Texas", "products": ["Chicken", "Lamb", "Beef"], "expires": "2025-12-31T00:00:00", "certification": "HMS", "lat": 33.0583993, "lng": -96.75158429999999, "nav_url": "https://www.google.com/maps/search/?api=1&query=3013%20W%20Spring%20Creek%20Pkwy%20%23200%2C%20Plano%2C%20TX%2075023&query_place_id=ChIJa9ay36AiTIYRuSJ1LzW01HA"}, {"name": "Coconut Hill Kitchen", "address": "1201 E Main St Suite 200, Allen, TX 75002", "phone": "(972) 332-8838", "state": "Texas", "products": ["Chicken", "Lamb", "Goat", "Veal", "Beef"], "expires": "2025-12-31T00:00:00", "certification": "HMS", "lat": 33.1009145, "lng": -96.64118169999999, "nav_url": "https://www.google.com/maps/search/?api=1&query=1201%20E%20Main%20St%20Suite%20200%2C%20Allen%2C%20TX%2075002&query_place_id=ChIJBemZu5UQTIYRv3UDFobNYWg"}, {"name": "Haji Ali Juice", "address": "6300 Independence Pkwy, Plano, TX 75023", "phone": "(469) 814-0258", "state": "Texas", "products": ["Chicken", "Beef"], "expires": "2024-12-31T00:00:00", "certification": "HMS", "lat": 33.0589784, "lng": -96.7501083, "nav_url": "https://www.google.com/maps/search/?api=1&query=6300%20Independence%20Pkwy%2C%20Plano%2C%20TX%2075023&query_place_id=ChIJs8wckJkjTIYRNzXlbr8Xo-k"}, {"name": "Sal\u2019s Nashville Hot Chicken", "address": "6205 Coit Rd Suite 352, Plano, TX 75024", "phone": "(972) 212-4403", "state": "Texas", "products": ["Chicken"], "expires": "2025-12-31T00:00:00", "certification": "HMS", "lat": 33.0569988, "lng": -96.7720688, "nav_url": "https://www.google.com/maps/search/?api=1&query=6205%20Coit%20Rd%20Suite%20352%2C%20Plano%2C%20TX%2075024&query_place_id=ChIJU1mLmEMjTIYRoGKdWfkymTs"}, {"name": "Hadramout Restaurant & Bakery", "address": "3100 W Devon Ave, Chicago, IL 60659", "phone": "(773) 942-7541", "state": "Illinois", "products": ["Chicken", "Lamb", "Goat", "Beef"], "expires": "2025-12-31T00:00:00", "certification": "HMS", "lat": 41.9977044, "lng": -87.70715009999999, "nav_url": "https://www.google.com/maps/search/?api=1&query=3100%20W%20Devon%20Ave%2C%20Chicago%2C%20IL%2060659&query_place_id=ChIJDT8iySLOD4gRNOgUVaefzis"}, {"name": "Kolachi Tandoori Grill ", "address": "937 S Roselle Rd, Schaumburg, IL 60193", "phone": "(630) 339-9002", "state": "Illinois", "products": ["Chicken", "Lamb", "Goat", "Veal", "Beef"], "expires": "2025-12-31T00:00:00", "certification": "HMS", "lat": 42.0100993, "lng": -88.07891839999999, "nav_url": "https://www.google.com/maps/search/?api=1&query=937%20S%20Roselle%20Rd%2C%20Schaumburg%2C%20IL%2060193&query_place_id=ChIJSR0_OHQBD4gR3LJsI9nILas"}, {"name": "Azka BBQ", "address": "87-16 Parsons Blvd, Jamaica, NY 11432", "phone": "(718) 750-2952", "state": "New York", "products": ["Chicken", "Lamb", "Goat", "Beef"], "expires": "2025-12-31T00:00:00", "certification": "HMS", "lat": 40.7085263, "lng": -73.80368670000001, "nav_url": "https://www.google.com/maps/search/?api=1&query=87-16%20Parsons%20Blvd%2C%20Jamaica%2C%20NY%2011432&query_place_id=ChIJC7v4RPthwokRIhxtteOP6DQ"}, {"name": "Byrd's Hot Chicken Skokie", "address": "4839 OAKTON ST, SKOKIE, IL 60077", "phone": "(224) 251-8296", "state": "Illinois", "products": ["Chicken"], "expires": "2025-12-31T00:00:00", "certification": "HMS", "lat": 42.0260162, "lng": -87.7492876, "nav_url": "https://www.google.com/maps/search/?api=1&query=4839%20OAKTON%20ST%2C%20SKOKIE%2C%20IL%2060077&query_place_id=ChIJG7shkhPPD4gRvsKux-JTUfo"}, {"name": "Calibun", "address": "23-14 36 Ave, Astoria, NY 11106", "phone": "(347) 848-0080", "state": "New York", "products": ["Chicken", "Lamb", "Beef"], "expires": "2024-12-31T00:00:00", "certification": "HMS", "lat": 40.75878489999999, "lng": -73.9347751, "nav_url": "https://www.google.com/maps/search/?api=1&query=23-14%2036%20Ave%2C%20Astoria%2C%20NY%2011106&query_place_id=ChIJcz0_F8tfwokRHWBq9PMYFQM"}, {"name": "Holy Cow JFK", "address": "125 JFK Travel Plaza, Jamaica, NY 11430", "phone": "(718) 691-6382", "state": "New York", "products": ["Chicken", "Lamb", "Beef", "Turkey"], "expires": "2025-12-31T00:00:00", "certification": "HMS", "lat": 40.6630036, "lng": -73.7929777, "nav_url": "https://www.google.com/maps/search/?api=1&query=125%20JFK%20Travel%20Plaza%2C%20Jamaica%2C%20NY%2011430&query_place_id=ChIJAYIj7JhnwokR0uSreSWZ974"}, {"name": "Sweet Reserve Bakery", "address": "625 E Roosevelt Rd, Lombard, IL 60148", "phone": "(630) 899-4896", "state": "Illinois", "products": ["Chicken", "Beef"], "expires": "2025-12-31T00:00:00", "certification": "HMS", "lat": 41.860168, "lng": -88.00169919999999, "nav_url": "https://www.google.com/maps/search/?api=1&query=625%20E%20Roosevelt%20Rd%2C%20Lombard%2C%20IL%2060148&query_place_id=ChIJm-uPxxutD4gRdlGU_jOyLvE"}, {"name": "Classic International Market (Kitchen)", "address": "2310 Virginia Pkwy #130, McKinney, TX 75071", "phone": "(469) 714-0060", "state": "Texas", "products": ["Chicken", "Lamb", "Goat", "Veal", "Beef"], "expires": "2025-12-31T00:00:00", "certification": "HMS", "lat": 33.1989462, "lng": -96.6427252, "nav_url": "https://www.google.com/maps/search/?api=1&query=2310%20Virginia%20Pkwy%20%23130%2C%20McKinney%2C%20TX%2075071&query_place_id=ChIJ6TNLiL8TTIYRanO4OZ0S6Mg"}, {"name": "La Charanga Mexican Halal", "address": "4003 W. Algonquin Road Rolling Meadows, IL 60008", "phone": "(847) 496-5642", "state": "Illinois", "products": ["Chicken", "Lamb", "Beef"], "expires": "2025-12-31T00:00:00", "certification": "HMS", "lat": 42.0622964, "lng": -88.0310051, "nav_url": "https://www.google.com/maps/search/?api=1&query=4003%20W.%20Algonquin%20Road%20Rolling%20Meadows%2C%20IL%2060008&query_place_id=ChIJ7ZhP4V-lD4gRMpO9MEssQdk"}, {"name": "Hotstone", "address": "908 E Roosevelt Rd, Lombard, IL 60148", "phone": "(630) 613-8173", "state": "Illinois", "products": ["Chicken", "Beef"], "expires": "2025-12-31T00:00:00", "certification": "HMS", "lat": 41.8609294, "lng": -87.9949444, "nav_url": "https://www.google.com/maps/search/?api=1&query=908%20E%20Roosevelt%20Rd%2C%20Lombard%2C%20IL%2060148&query_place_id=ChIJz9xsE05NDogRb2IW9DWMAGo"}, {"name": "Sagar Restaurant (ONLY THIS RESTAURANT, VERIFY ADDRESS)", "address": "168-25B Hillside Ave, Jamaica, NY 11432", "phone": "(718) 298-5696", "state": "New York", "products": ["Chicken", "Lamb", "Goat", "Beef"], "expires": "2025-12-31T00:00:00", "certification": "HMS", "lat": 40.7104377, "lng": -73.79415019999999, "nav_url": "https://www.google.com/maps/search/?api=1&query=168-25B%20Hillside%20Ave%2C%20Jamaica%2C%20NY%2011432&query_place_id=ChIJHe510R9hwokRChLemd8Nkac"}, {"name": "Fiery Hot Nashville Chicken", "address": "151 W Spring Creek Pkwy Ste 509, Plano, TX 75023", "phone": "(469) 814-0959", "state": "Texas", "products": ["Chicken"], "expires": "2025-12-31T00:00:00", "certification": "HMS", "lat": 33.0585388, "lng": -96.695719, "nav_url": "https://www.google.com/maps/search/?api=1&query=151%20W%20Spring%20Creek%20Pkwy%20Ste%20509%2C%20Plano%2C%20TX%2075023&query_place_id=ChIJ1Tdt8rAZTIYR7yrHNY1pjXg"}, {"name": "Student Burger", "address": "2110 Army Trail Rd, Addison, IL 60101", "phone": "(630) 376-6058", "state": "Illinois", "products": ["Chicken", "Beef"], "expires": "2025-12-31T00:00:00", "certification": "HMS", "lat": 41.9332944, "lng": -88.04307659999999, "nav_url": "https://www.google.com/maps/search/?api=1&query=2110%20Army%20Trail%20Rd%2C%20Addison%2C%20IL%2060101&query_place_id=ChIJi1cPicKtD4gRVpD8v4PP9-U"}, {"name": "OMG Nafisa's Kitchen", "address": "6027 Dempster St, Morton Grove, IL 60053", "phone": "(224) 534-7525", "state": "Illinois", "products": ["Chicken", "Lamb", "Goat", "Veal", "Beef"], "expires": "2025-12-31T00:00:00", "certification": "HMS", "lat": 42.0406407, "lng": -87.7773595, "nav_url": "https://www.google.com/maps/search/?api=1&query=6027%20Dempster%20St%2C%20Morton%20Grove%2C%20IL%2060053&query_place_id=ChIJzcKOTFDJD4gRoxzE_k6crik"},