[
    {
        "name": "Ghareeb Nawaz",
        "address": "807 W Roosevelt Rd. Chicago, IL 60608",
        "phone": "(312) 433-0123",
        "website": "https://ghareebnawazonline.com/",
        "certification": "HFSAA",
        "lat": 41.8666002,
        "lng": -87.6470698
    },
    {
        "name": "Ghareeb Nawaz",
        "address": "2032 W Devon Ave. Chicago, IL 60659",
        "phone": "(773) 465-9200",
        "website": "https://ghareebnawazonline.com/",
        "certification": "HFSAA",
        "lat": 41.9980717,
        "lng": -87.6815194
    },
    {
        "name": "Ghareeb Nawaz",
        "address": "2364 N Lincoln Ave. Chicago, IL 60614",
        "phone": "(773) 360-8496",
        "website": "https://ghareebnawazonline.com/",
        "certification": "HFSAA",
        "lat": 41.9248789,
        "lng": -87.6483842
    },
    {
        "name": "Halaleez",
        "address": "400 S Financial Pl, Chicago, IL 60605",
        "phone": "(630) 730-1186",
        "website": "https://halaleez.com/",
        "certification": "HFSAA",
        "lat": 41.87664400000001,
        "lng": -87.6332966
    },
    {
        "name": "Pak Sweets",
        "address": "2326 W Devon Ave. Chicago, IL 60659",
        "phone": "(773) 761-5300",
        "website": "http://www.pak-sweets.com/",
        "certification": "HFSAA",
        "lat": 41.9979507,
        "lng": -87.6884245
    },
    {
        "name": "Salt Burgers & Fries",
        "address": "1920 W North Ave. Chicago, IL 60622",
        "phone": "(312) 786-5929",
        "website": "https://www.saltchicago.com/",
        "certification": "HFSAA",
        "lat": 41.910698,
        "lng": -87.6759885
    },
    {
        "name": "Salt Burgers & Fries",
        "address": "6558 N Sheridan Rd. Chicago, IL 60626",
        "phone": "(872) 999-8521",
        "website": "https://www.saltchicago.com/",
        "certification": "HFSAA",
        "lat": 42.0018273,
        "lng": -87.6609677
    },
    {
        "name": "Sheeba Mandi House",
        "address": "3456 W Foster Ave. Chicago, IL 60625",
        "phone": "(773) 654-3349",
        "website": "https://sheebamandihouse.com/",
        "certification": "HFSAA",
        "lat": 41.9758973,
        "lng": -87.7157186
    },
    {
        "name": "Tanoor Kabob",
        "address": "2304 S Kedzie Ave. Chicago, IL 60623",
        "phone": "(773) 254-9991",
        "website": "https://www.tanoormediterraneangrill.com/",
        "certification": "HFSAA",
        "lat": 41.8497581,
        "lng": -87.7055334
    },
    {
        "name": "Usmania Chinese",
        "address": "2253 W. Devon Ave. Chicago, IL 60659",
        "phone": "(773) 338-4488",
        "website": "http://www.usmaniachinese.com/",
        "certification": "HFSAA",
        "lat": 41.9975871,
        "lng": -87.68705949999999
    },
    {
        "name": "Usmania Fine Dining",
        "address": "2244 W. Devon Ave. Chicago, IL 60659",
        "phone": "(773) 262-1900",
        "website": "http://www.usmaniarestaurant.com/",
        "certification": "HFSAA",
        "lat": 41.9979165,
        "lng": -87.6869059
    },
    {
        "name": "Buns on Fire",
        "address": "466 W Half Day Rd. Buffalo Grove, IL 60089",
        "phone": "(630) 326-5105",
        "website": "https://www.bunsonfire.com/",
        "certification": "HFSAA",
        "lat": 42.1982691,
        "lng": -87.9689077
    },
    {
        "name": "Falafel Makers",
        "address": "1169 McHenry Rd. Buffalo Grove, IL 60089",
        "phone": "(847) 383-6982",
        "website": "https://falafelmakersq.com/",
        "certification": "HFSAA",
        "lat": 42.17395510000001,
        "lng": -87.9829414
    },
    {
        "name": "Krispy\u2019s",
        "address": "8401 N Milwaukee Ave. Niles, IL 60714",
        "phone": "(224) 830-8309",
        "website": "https://www.krispysbc.com/",
        "certification": "HFSAA",
        "lat": 42.0336288,
        "lng": -87.8201225
    },
    {
        "name": "Mr. Broast",
        "address": "7104 Mannheim Rd. Rosemont, IL 60018",
        "phone": "(847) 813-5797",
        "website": "https://www.mrbroast.com/",
        "certification": "HFSAA",
        "lat": 42.0082683,
        "lng": -87.88706309999999
    },
    {
        "name": "Nash Bros",
        "address": "9353 N. Milwaukee Ave. Niles, IL 60714",
        "phone": "(224) 470-6121",
        "website": "N/A",
        "certification": "HFSAA",
        "lat": 42.0506128,
        "lng": -87.83348699999999
    },
    {
        "name": "Nothing Bundt Cakes",
        "address": "1071 N Elmhurst Rd. #103 Mt Prospect, IL 60056",
        "phone": "(847) 253-2253",
        "website": "https://www.nothingbundtcakes.com/find-a-bakery/il/mtprospect/bakery-99.html",
        "certification": "HFSAA",
        "lat": 42.0852871,
        "lng": -87.93636819999999
    },
    {
        "name": "Pita Bowl",
        "address": "6699 Lincoln Ave. Lincolnwood, IL 60712",
        "phone": "(847) 213-0900",
        "website": "https://www.pitabowlmenu.com/",
        "certification": "HFSAA",
        "lat": 42.002972,
        "lng": -87.7269199
    },
    {
        "name": "The Port of Peri Peri",
        "address": "1663 N Buffalo Grove Rd. Buffalo Grove, IL 60089",
        "phone": "(847) 383-5689",
        "website": "https://www.myperiperi.com/",
        "certification": "HFSAA",
        "lat": 42.1815754,
        "lng": -87.964702
    },
    {
        "name": "The Port of Peri Peri",
        "address": "4915 Oakton St. Skokie, IL 60077",
        "phone": "(847) 675-5000",
        "website": "https://www.myperiperi.com/",
        "certification": "HFSAA",
        "lat": 42.0260243,
        "lng": -87.75069119999999
    },
    {
        "name": "Ali Baba Kabab",
        "address": "869 S Roselle Rd. Schaumburg, IL 60193",
        "phone": "(630) 912-4499",
        "website": "http://www.alibaba-kabab.com/",
        "certification": "HFSAA",
        "lat": 42.0113722,
        "lng": -88.0788354
    },
    {
        "name": "Bo Burgerz",
        "address": "258 Town Center Ln. Glendale Heights, IL 60139",
        "phone": "(630) 614-1010",
        "website": "https://boburgerz.com/",
        "certification": "HFSAA",
        "lat": 41.9377487,
        "lng": -88.07769259999999
    },
    {
        "name": "Buns on Fire",
        "address": "258 Town Center Ln, Glendale Heights, IL 60139",
        "phone": "(630) 326-5105",
        "website": "https://www.bunsonfire.com/",
        "certification": "HFSAA",
        "lat": 41.9377487,
        "lng": -88.07769259999999
    },
    {
        "name": "Char Kabobs",
        "address": "821 N Roselle Rd. Roselle, IL 60172",
        "phone": "(630) 464-7240",
        "website": "https://www.charkabobs.com/",
        "certification": "HFSAA",
        "lat": 41.998876,
        "lng": -88.07879729999999
    },
    {
        "name": "Chi Tea",
        "address": "602 W Wise Rd. Schaumburg, IL 60193",
        "phone": "(847) 220-4616",
        "website": "https://officialchitea.com/",
        "certification": "HFSAA",
        "lat": 42.0053852,
        "lng": -88.0947647
    },
    {
        "name": "Desi Tadka",
        "address": "927 W Golf Rd. Schaumburg, IL 60194",
        "phone": "(847) 519-9100",
        "website": "https://www.desitadkas.com/",
        "certification": "HFSAA",
        "lat": 42.0476911,
        "lng": -88.1037721
    },
    {
        "name": "Falafil Hut",
        "address": "1027 W Golf Rd. Hoffman Estates, IL 60169",
        "phone": "(847) 519-3656",
        "website": "https://www.eatatfalafilhut.com/",
        "certification": "HFSAA",
        "lat": 42.0473431,
        "lng": -88.105053
    },
    {
        "name": "J Beez Fast Food Mediterranean & Grill",
        "address": "976 W Army Trail Rd. Carol Stream, IL 60188",
        "phone": "(630) 855-5054",
        "website": "https://www.jbeezfastfood.com/",
        "certification": "HFSAA",
        "lat": 41.9392185,
        "lng": -88.1532685
    },
    {
        "name": "Lazzat Banquets",
        "address": "1117 East Ave. Streamwood, IL 60107",
        "phone": "(630) 837-0600",
        "website": "http://emteahouse.com/lazzatrestaurant/",
        "certification": "HFSAA",
        "lat": 42.0094399,
        "lng": -88.152872
    },
    {
        "name": "Nay Restaurant",
        "address": "365 E. North Ave. Glendale Heights, IL 60139",
        "phone": "(630) 868-3744",
        "website": "https://www.nay-restaurant.com/",
        "certification": "HFSAA",
        "lat": 41.9025229,
        "lng": -88.0745534
    },
    {
        "name": "Palooza Pizza",
        "address": "1820 W Irving Park Rd. Schaumburg, IL 60193",
        "phone": "(224) 653-8144",
        "website": "https://www.pizzapalooza.us/",
        "certification": "HFSAA",
        "lat": 42.0016212,
        "lng": -88.1239963
    },
    {
        "name": "Shaahi Biryani",
        "address": "246 Town Center Ln. Glendale Heights, IL 60139",
        "phone": "(630) 614-4546",
        "website": "https://shaahibiryani.com/",
        "certification": "HFSAA",
        "lat": 41.93791239999999,
        "lng": -88.0783096
    },
    {
        "name": "The Port of Peri Peri",
        "address": "7 W Weathersfield Way, Schaumburg, IL 60193",
        "phone": "(224) 353-6396",
        "website": "https://www.myperiperi.com/",
        "certification": "HFSAA",
        "lat": 42.01584400000001,
        "lng": -88.08082999999999
    },
    {
        "name": "Vasco\u2019s Peri Peri",
        "address": "927 S Roselle Rd. Schaumburg, IL 60193",
        "phone": "(224) 231-5900",
        "website": "https://www.vascosperiperi.com/",
        "certification": "HFSAA",
        "lat": 42.01037059999999,
        "lng": -88.0789344
    },
    {
        "name": "Anjir Halal Restaurant",
        "address": "1340 Butterfield Rd. Downers Grove, IL 60515",
        "phone": "(630) 541-9004",
        "website": "https://www.instagram.com/anjir.halal.restaurant",
        "certification": "HFSAA",
        "lat": 41.8358862,
        "lng": -88.0176218
    },
    {
        "name": "Biryani Pointe",
        "address": "40 W Roosevelt Rd. Lombard, IL 60148",
        "phone": "(630) 519-3815",
        "website": "https://www.biryanipointelombard.com/",
        "certification": "HFSAA",
        "lat": 41.8603841,
        "lng": -88.0194173
    },
    {
        "name": "Biryani Pot",
        "address": "2811 Patriot\u2019s Ln. Naperville, IL 60563",
        "phone": "(630) 470-9000",
        "website": "https://www.mybiryanipot.com/",
        "certification": "HFSAA",
        "lat": 41.7813773,
        "lng": -88.2023637
    },
    {
        "name": "Bumper 2 Burger",
        "address": "715 S Main St. Lombard, IL 60148",
        "phone": "(630) 613-8911",
        "website": "https://bumper2burger.com/",
        "certification": "HFSAA",
        "lat": 41.8723424,
        "lng": -88.0176984
    },
    {
        "name": "Bumper 2 Burger",
        "address": "966 Illinois Rte 59 Aurora, IL 60504",
        "phone": "(630) 820-9092",
        "website": "https://bumper2burger.com/",
        "certification": "HFSAA",
        "lat": 41.771148,
        "lng": -88.2063792
    },
    {
        "name": "Burger Factory",
        "address": "432 E Roosevelt Rd, Lombard, IL 60148",
        "phone": "(331) 307-7896",
        "website": "N/A",
        "certification": "HFSAA",
        "lat": 41.8609433,
        "lng": -88.00693419999999
    },
    {
        "name": "Caravan Restaurant",
        "address": "317 N Schmidt Rd. Bolingbrook, IL 60440",
        "phone": "(708) 606-9342",
        "website": "https://www.instagram.com/caravan.restaurant.illinois",
        "certification": "HFSAA",
        "lat": 41.7058991,
        "lng": -88.0883853
    },
    {
        "name": "Chi Tea",
        "address": "413 E Roosevelt Rd. Lombard, IL 60148",
        "phone": "(331) 307-7916",
        "website": "https://officialchitea.com/",
        "certification": "HFSAA",
        "lat": 41.859959,
        "lng": -88.0060931
    },
    {
        "name": "Chi Tea",
        "address": "1242 W Boughton Rd, Bolingbrook, IL 60440",
        "phone": "(331) 757-5192",
        "website": "https://officialchitea.com/",
        "certification": "HFSAA",
        "lat": 41.7035521,
        "lng": -88.1231119
    },
    {
        "name": "Dawat Restaurant",
        "address": "52 W Roosevelt Rd. Lombard, IL 60148",
        "phone": "(630) 519-4465",
        "website": "https://www.dawatlombard.com/",
        "certification": "HFSAA",
        "lat": 41.860389,
        "lng": -88.01977959999999
    },
    {
        "name": "Falak Restaurants & Banquets",
        "address": "233 E. Roosevelt Rd. Lombard, IL 60148",
        "phone": "(847) 322-2132",
        "website": "https://www.falakrb.com/",
        "certification": "HFSAA",
        "lat": 41.85977010000001,
        "lng": -88.01129809999999
    },
    {
        "name": "Ghareeb Nawaz",
        "address": "833 Roosevelt Rd. Lombard, IL 60148",
        "phone": "(630) 889-9433",
        "website": "https://ghareebnawazonline.com/",
        "certification": "HFSAA",
        "lat": 41.8601817,
        "lng": -87.998013
    },
    {
        "name": "Hussain Catering",
        "address": "1214 S Highland Ave. Lombard, IL 60148",
        "phone": "(773) 289-8089",
        "website": "http://www.hussaincatering.com/",
        "certification": "HFSAA",
        "lat": 41.8595227,
        "lng": -88.01283169999999
    },
    {
        "name": "J\u2019s Kitchen",
        "address": "115 E Ogden Ave #117 Naperville, IL 60563",
        "phone": "(331) 229-8998",
        "website": "https://chihuojskitchen.com/",
        "certification": "HFSAA",
        "lat": 41.7867174,
        "lng": -88.14642390000002
    },
    {
        "name": "Jerusalem Cafe",
        "address": "300 W Roosevelt Rd Lombard, IL 60148",
        "phone": "(630) 629-6400",
        "website": "http://www.jerusalemcafe-lombard.com/",
        "certification": "HFSAA",
        "lat": 41.8601869,
        "lng": -88.0231564
    },
    {
        "name": "Mr. Broast",
        "address": "2202 Ogden Ave. Aurora, IL 60504",
        "phone": "(630) 229-0429",
        "website": "http://mrbroast.com/",
        "certification": "HFSAA",
        "lat": 41.7327185,
        "lng": -88.262289
    },
    {
        "name": "Mr. Broast",
        "address": "820 E Roosevelt Rd. Lombard, IL 60148",
        "phone": "(630) 889-1188",
        "website": "http://mrbroast.com/",
        "certification": "HFSAA",
        "lat": 41.86100340000001,
        "lng": -87.9991482
    },
    {
        "name": "Niwaala",
        "address": "95 E Roosevelt Rd. Lombard, IL 60148",
        "phone": "(630) 519-4846",
        "website": "https://niwaala.com/",
        "certification": "HFSAA",
        "lat": 41.8597052,
        "lng": -88.0162008
    },
    {
        "name": "Nothing Bundt Cakes",
        "address": "2860 Showplace Dr. #106 Naperville, IL 60564",
        "phone": "(630) 857-3030",
        "website": "https://www.nothingbundtcakes.com/find-a-bakery/il/naperville/bakery-73.html",
        "certification": "HFSAA",
        "lat": 41.7118057,
        "lng": -88.20687439999999
    },
    {
        "name": "Nothing Bundt Cakes",
        "address": "207 Vertin Blvd. Shorewood, IL 60404",
        "phone": "(815) 782-8930",
        "website": "https://www.nothingbundtcakes.com/find-a-bakery/il/shorewood/bakery-196.html",
        "certification": "HFSAA",
        "lat": 41.540082,
        "lng": -88.2011075
    },
    {
        "name": "Nothing Bundt Cakes",
        "address": "355 IL-83 Elmhurst, IL 60126",
        "phone": "(630) 225-8300",
        "website": "https://www.nothingbundtcakes.com/find-a-bakery/il/shorewood/bakery-196.html",
        "certification": "HFSAA",
        "lat": 41.8906611,
        "lng": -87.961236
    },
    {
        "name": "Nothing Bundt Cakes",
        "address": "1086 Commons Dr. Geneva, IL 60134",
        "phone": "(630) 402-0311",
        "website": "https://www.nothingbundtcakes.com/find-a-bakery/il/shorewood/bakery-196.html",
        "certification": "HFSAA",
        "lat": 41.8951126,
        "lng": -88.34135119999999
    },
    {
        "name": "Nothing Bundt Cakes",
        "address": "7517 S Cass Ave. Darien, IL 60561",
        "phone": "(630) 541-8725",
        "website": "https://www.nothingbundtcakes.com/find-a-bakery/il/shorewood/bakery-196.html",
        "certification": "HFSAA",
        "lat": 41.7506063,
        "lng": -87.9732526
    },
    {
        "name": "OMG Grill!",
        "address": "874 Roosevelt Rd. Glen Ellyn, IL 60137",
        "phone": "(630) 474-9996",
        "website": "N/A",
        "certification": "HFSAA",
        "lat": 41.8607563,
        "lng": -88.05042510000001
    },
    {
        "name": "Peak Thai",
        "address": "845 E Roosevelt Rd. Lombard, IL 60148",
        "phone": "(630) 519-3073",
        "website": "https://www.peakthailombard.com/",
        "certification": "HFSAA",
        "lat": 41.86020370000001,
        "lng": -87.9978332
    },
    {
        "name": "Peak Thai",
        "address": "646 S Frontenac St. Aurora, IL 60504",
        "phone": "(630) 299-3675",
        "website": "https://www.peakthailombard.com/",
        "certification": "HFSAA",
        "lat": 41.744555,
        "lng": -88.229335
    },
    {
        "name": "Scrumptious by Hira",
        "address": "825 E. Roosevelt Rd. Lombard, IL 60148",
        "phone": "(630) 656-7760",
        "website": "https://scrumptiousbyhira.com/",
        "certification": "HFSAA",
        "lat": 41.8601876,
        "lng": -87.998162
    },
    {
        "name": "Se\u00f1or Jalape\u00f1o",
        "address": "436 S Main St Lombard, IL 60148",
        "phone": "(630) 495-3050",
        "website": "https://www.senor-jalapeno.com/",
        "certification": "HFSAA",
        "lat": 41.8789073,
        "lng": -88.01863279999999
    },
    {
        "name": "Seoul Bites",
        "address": "533 E Roosevelt Rd. Lombard, IL 60148",
        "phone": "N/A",
        "website": "https://linktr.ee/seoulbites",
        "certification": "HFSAA",
        "lat": 41.85865039999999,
        "lng": -88.0033208
    },
    {
        "name": "Shahi Nihari & Chopsticks",
        "address": "541 W North Ave. Villa Park, IL 60181",
        "phone": "(630) 792-8839",
        "website": "https://www.shahinihariandchopsticks.com/",
        "certification": "HFSAA",
        "lat": 41.904932,
        "lng": -87.9924788
    },
    {
        "name": "Shawarma Express",
        "address": "898 E Roosevelt Rd. Lombard, IL 60148",
        "phone": "(630) 424-0227",
        "website": "https://theshawarmaexpress.com/",
        "certification": "HFSAA",
        "lat": 41.8610041,
        "lng": -87.99590189999999
    },
    {
        "name": "Slyce of NY",
        "address": "219 E Roosevelt Rd. Lombard, IL 60148",
        "phone": "(331) 307-7108",
        "website": "https://slyceofny.com/",
        "certification": "HFSAA",
        "lat": 41.859685,
        "lng": -88.0135701
    },
    {
        "name": "Sugar Dose",
        "address": "841 E Roosevelt Rd. Lombard, IL 60148",
        "phone": "(331) 307-7193",
        "website": "N/A",
        "certification": "HFSAA",
        "lat": 41.860205,
        "lng": -87.9979097
    },
    {
        "name": "TeaTime AnyTime",
        "address": "340 E Roosevelt Rd, Lombard, IL 60148",
        "phone": "(630) 872-5498",
        "website": "https://www.teatimesanytime.com/",
        "certification": "HFSAA",
        "lat": 41.8607237,
        "lng": -88.0083861
    },
    {
        "name": "The Burger Life",
        "address": "1570 W Ogden Ave. #101 Naperville, IL 60540",
        "phone": "(630) 470-9727",
        "website": "https://www.theburgerlife.com/",
        "certification": "HFSAA",
        "lat": 41.7677082,
        "lng": -88.18534249999999
    },
    {
        "name": "The Port of Peri Peri",
        "address": "4151 McCoy Dr #151 Aurora, IL 60504",
        "phone": "(630) 701-2193",
        "website": "https://www.myperiperi.com/",
        "certification": "HFSAA",
        "lat": 41.7540921,
        "lng": -88.21697879999999
    },
    {
        "name": "The Port of Peri Peri",
        "address": "766 S Weber Rd. Bolingbrook, IL 60490",
        "phone": "(630) 410-8240",
        "website": "https://www.myperiperi.com/",
        "certification": "HFSAA",
        "lat": 41.6725171,
        "lng": -88.1245308
    },
    {
        "name": "The Port of Peri Peri",
        "address": "100 East Roosevelt Rd. Villa Park, Illinois 60181",
        "phone": "(630) 359-5161",
        "website": "https://www.myperiperi.com/",
        "certification": "HFSAA",
        "lat": 41.8612936,
        "lng": -87.97474729999999
    },
    {
        "name": "Vasco\u2019s Peri Peri",
        "address": "440 E Roosevelt Rd Lombard, IL 60148",
        "phone": "(331)-307-7187",
        "website": "https://www.vascosperiperi.com/",
        "certification": "HFSAA",
        "lat": 41.8608763,
        "lng": -88.0064171
    },
    {
        "name": "Fattoush",
        "address": "10700 S Harlem Ave. Worth, IL 60482",
        "phone": "(708) 671-9999",
        "website": "http://fattoushchicago.com/",
        "certification": "HFSAA",
        "lat": 41.696829,
        "lng": -87.7981772
    },
    {
        "name": "Pizza Track",
        "address": "10S650 Kingery HWY Willowbrook, IL 60527",
        "phone": "(630) 655-3375",
        "website": "http://www.pizzatrack.net/",
        "certification": "HFSAA",
        "lat": 41.7180411,
        "lng": -87.94591609999999
    },
    {
        "name": "CleaveLand Grill",
        "address": "13425 Snow Rd. Brook Park, OH 44142",
        "phone": "(216) 644-3340",
        "website": "https://www.facebook.com/CLEGNG/",
        "certification": "HFSAA",
        "lat": 41.4047041,
        "lng": -81.78537589999999
    },
    {
        "name": "CleaveLand Grocers",
        "address": "13425 Snow Rd. Brook Park, OH 44142",
        "phone": "(216) 644-3340",
        "website": "https://www.facebook.com/CLEGNG/",
        "certification": "HFSAA",
        "lat": 41.4047041,
        "lng": -81.78537589999999
    },
    {
        "name": "Ali\u2019s Pizza & Burgers",
        "address": "11608 Conant St. Hamtramck, MI 48212",
        "phone": "(313) 826-1403",
        "website": "https://www.alispizzaburgersmenu.com/",
        "certification": "HFSAA",
        "lat": 42.4049975,
        "lng": -83.0540518
    },
    {
        "name": "Atams Pizza & Wings",
        "address": "155 W Auburn Rd, Rochester Hills, MI 48307",
        "phone": "(248) 852-2767",
        "website": "https://www.atamspizzawings.com/",
        "certification": "HFSAA",
        "lat": 42.6354675,
        "lng": -83.1347462
    },
    {
        "name": "Checkmate Burgers",
        "address": "22660 Van Dyke Ave. Warren, MI 48089",
        "phone": "(586) 486-4261",
        "website": "https://checkmateburgers.com/",
        "certification": "HFSAA",
        "lat": 42.4607957,
        "lng": -83.0263457
    },
    {
        "name": "Khan\u2019s Hot Chicken",
        "address": "28893 Bunert Rd, Warren, MI 48088",
        "phone": "(586) 646-6700",
        "website": "https://khanshotchicken.com/",
        "certification": "HFSAA",
        "lat": 42.5075098,
        "lng": -82.9785047
    },
    {
        "name": "Kolachi Kitchen",
        "address": "45300 Hanford Rd. Canton, MI 48187",
        "phone": "(734) 331-7909",
        "website": "https://kolachikitchen.com/",
        "certification": "HFSAA",
        "lat": 42.3295676,
        "lng": -83.4872329
    },
    {
        "name": "Madni Food Mart (Restaurant)",
        "address": "20836 Telegraph Rd. Brownstown Charter Twp, MI 48174",
        "phone": "(734) 512-6177",
        "website": "https://www.madnifoodmart.com/",
        "certification": "HFSAA",
        "lat": 42.1538512,
        "lng": -83.2671457
    },
    {
        "name": "Mimi\u2019s Pizza",
        "address": "28931 John R Rd. Madison Heights, MI 48071",
        "phone": "(248) 677-4355",
        "website": "http://mimispizzami.com/",
        "certification": "HFSAA",
        "lat": 42.5041134,
        "lng": -83.1062716
    },
    {
        "name": "The Port of Peri Peri",
        "address": "6925 Orchard Lake Rd. West Bloomfield Township, MI 48322",
        "phone": "(248) 847-3768",
        "website": "https://www.myperiperi.com/",
        "certification": "HFSAA",
        "lat": 42.5370316,
        "lng": -83.3596098
    },
    {
        "name": "The Port of Peri Peri",
        "address": "2591 S Rochester Rd. Rochester Hills, MI 48307",
        "phone": "(248) 289-1496",
        "website": "https://www.myperiperi.com/",
        "certification": "HFSAA",
        "lat": 42.6421234,
        "lng": -83.1310365
    },
    {
        "name": "Madni Food Mart",
        "address": "20836 Telegraph Rd. Brownstown Charter Twp, MI 48174",
        "phone": "(734) 512-6177",
        "website": "https://www.madnifoodmart.com/",
        "certification": "HFSAA",
        "lat": 42.1538512,
        "lng": -83.2671457
    },
    {
        "name": "Warren Grocers",
        "address": "28885 Bunert Rd. Warren, MI 48088",
        "phone": "(586) 804-7447",
        "website": "N/A",
        "certification": "HFSAA",
        "lat": 42.5074602,
        "lng": -82.9785229
    },
    {
        "name": "The Port of Peri Peri",
        "address": "13951 Manchester Rd. Manchester, MO 63011",
        "phone": "(636) 220-2101",
        "website": "http://myperiperi.com/",
        "certification": "HFSAA",
        "lat": 38.5981324,
        "lng": -90.4879206
    },
    {
        "name": "Curry Leaf",
        "address": "943 Columbus Ave San Francisco, CA 94133",
        "phone": "(415) 440-4293",
        "website": "http://curryleafinsf.com/",
        "certification": "HFSAA",
        "lat": 37.803097,
        "lng": -122.4145392
    },
    {
        "name": "Falafel City",
        "address": "425 Ellis St. San Francisco, CA 94102",
        "phone": "(415) 655-3285",
        "website": "https://falafelcorner.us/",
        "certification": "HFSAA",
        "lat": 37.7845459,
        "lng": -122.4132313
    },
    {
        "name": "Halal Fried Chicken",
        "address": "601 Geary St. San Francisco, CA 94102",
        "phone": "(415) 829-3666",
        "website": "N/A",
        "certification": "HFSAA",
        "lat": 37.7866226,
        "lng": -122.4133208
    },
    {
        "name": "Kinara Fusion Kitchen",
        "address": "710 Post St. San Francisco, CA 94109",
        "phone": "(415) 932-6518",
        "website": "N/A",
        "certification": "HFSAA",
        "lat": 37.78780649999999,
        "lng": -122.4137382
    },
    {
        "name": "Falafel Flare",
        "address": "470 N Mathilda Ave. Sunnyvale, CA 94085",
        "phone": "(408) 685-2141",
        "website": "http://www.falafelflame.net/",
        "certification": "HFSAA",
        "lat": 37.3881635,
        "lng": -122.0298052
    },
    {
        "name": "Falafel Flame",
        "address": "375 Saratoga Ave, Suite D, San Jose, CA 95129",
        "phone": "(408) 490-4283",
        "website": "http://www.falafelflame.net/",
        "certification": "HFSAA",
        "lat": 37.3213493,
        "lng": -121.9719644
    },
    {
        "name": "Halal Fried Chicken \u2013 HFC",
        "address": "911 E Duane Ave. Sunnyvale, CA 94085",
        "phone": "(408) 542-9570",
        "website": "https://www.facebook.com/hfcusa/",
        "certification": "HFSAA",
        "lat": 37.3892124,
        "lng": -122.0043741
    },
    {
        "name": "Karimi Restaurant",
        "address": "1086 N 1st St. San Jose, CA 95112",
        "phone": "(408) 477-2914",
        "website": "https://www.karimirestaurant.com/",
        "certification": "HFSAA",
        "lat": 37.3558569,
        "lng": -121.9048277
    },
    {
        "name": "Tayyibaat Meat and Grill",
        "address": "10 S Abbott Ave. Milpitas, CA 95035",
        "phone": "(408) 586-9700",
        "website": "http://tayyibaat.com/index.html",
        "certification": "HFSAA",
        "lat": 37.4283155,
        "lng": -121.9133056
    },
    {
        "name": "Afghan Awasana Kabob House",
        "address": "37012 Towers Way. Fremont, CA 94536",
        "phone": "(510) 494-8043",
        "website": "N/A",
        "certification": "HFSAA",
        "lat": 37.5500989,
        "lng": -122.0193802
    },
    {
        "name": "Deccan Morsels",
        "address": "41093 Fremont Blvd. Fremont, CA 94538",
        "phone": "(341) 201-7123",
        "website": "N/A",
        "certification": "HFSAA",
        "lat": 37.531464,
        "lng": -121.9591758
    },
    {
        "name": "Falafel Corner",
        "address": "7351 Brentwood Blvd. Brentwood, CA 94513",
        "phone": "(925) 684-4280",
        "website": "https://falafelcorner.us",
        "certification": "HFSAA",
        "lat": 37.9484529,
        "lng": -121.6967292
    },
    {
        "name": "Falafel Flame",
        "address": "3244 N Tracy Blvd. Tracy, CA 95376",
        "phone": "(209) 666-2856",
        "website": "http://www.falafelflame.com/",
        "certification": "HFSAA",
        "lat": 37.7598153,
        "lng": -121.4336366
    },
    {
        "name": "Falafel Flare",
        "address": "22648 Mission Blvd. Hayward, CA 94541",
        "phone": "(510) 330-5000",
        "website": "http://www.falafelflame.com/",
        "certification": "HFSAA",
        "lat": 37.6717353,
        "lng": -122.0830787
    },
    {
        "name": "Falafel Flame",
        "address": "2118 Willow Pass Rd. Concord, CA 94520",
        "phone": "(925) 849-5353",
        "website": "http://www.falafelflame.com",
        "certification": "HFSAA",
        "lat": 37.9764268,
        "lng": -122.0336233
    },
    {
        "name": "Falafel Fremont",
        "address": "43450 Grimmer Blvd. Fremont, CA 94538",
        "phone": "(510) 252-1577",
        "website": "https://www.falafelfremont.com/",
        "certification": "HFSAA",
        "lat": 37.510917,
        "lng": -121.9634414
    },
    {
        "name": "Green N Grills",
        "address": "31804 Alvarado Blvd. Union City, CA 94587",
        "phone": "(510) 431-3021",
        "website": "https://www.greensngrills.com/",
        "certification": "HFSAA",
        "lat": 37.5916274,
        "lng": -122.0713495
    },
    {
        "name": "Kabob Fusion",
        "address": "41986 Fremont Blvd. Fremont, CA 94538",
        "phone": "(510) 270-8337",
        "website": "N/A",
        "certification": "HFSAA",
        "lat": 37.5243817,
        "lng": -121.9574048
    },
    {
        "name": "LiZhou Restaurant",
        "address": "1771 Decoto Rd. Union City, CA 94587",
        "phone": "(510) 345-3888",
        "website": "https://www.halallizhourestaurant.com/",
        "certification": "HFSAA",
        "lat": 37.5895249,
        "lng": -122.0228102
    },
    {
        "name": "Naan & Kabob Bazaar (Restaurant)",
        "address": "5035 Lone Tree Way Antioch, CA 94531",
        "phone": "(925) 470-3912",
        "website": "https://naanandkabobbazaar.com/",
        "certification": "HFSAA",
        "lat": 37.9622225,
        "lng": -121.7575243
    },
    {
        "name": "New York Pizza & Kabob",
        "address": "32106 Alvarado Blvd. Union City, CA 94587",
        "phone": "(510) 477-8888",
        "website": "https://www.newyorkpizzapastamenu.com/",
        "certification": "HFSAA",
        "lat": 37.5902367,
        "lng": -122.068541
    },
    {
        "name": "Peshawari Kababs",
        "address": "33330 Alvarado-Niles Rd. Union City, CA 94587",
        "phone": "(510) 471-0357",
        "website": "https://www.orderpeshawarikababs.com/",
        "certification": "HFSAA",
        "lat": 37.592606,
        "lng": -122.0386848
    },
    {
        "name": "Pizza Hub",
        "address": "40986 Fremont Blvd. Fremont, CA 94538",
        "phone": "(341) 201-7090",
        "website": "https://www.onepizzahub.com/",
        "certification": "HFSAA",
        "lat": 37.5334853,
        "lng": -121.9592944
    },
    {
        "name": "The Port of Peri Peri",
        "address": "3283 Walnut Ave. Fremont, CA 94538",
        "phone": "(510) 256-9901",
        "website": "https://www.myperiperi.com/",
        "certification": "HFSAA",
        "lat": 37.5502859,
        "lng": -121.9803025
    },
    {
        "name": "Q\u2019s Halal Pizza",
        "address": "12847 San Pablo Ave. Richmond, CA 94805",
        "phone": "(510) 233-1920",
        "website": "https://www.qhalal.com/",
        "certification": "HFSAA",
        "lat": 37.946065,
        "lng": -122.3305365
    },
    {
        "name": "Yeeshaans Grubb",
        "address": "4342 Thornton Ave, Suite A, Fremont, CA 94536",
        "phone": "(510) 605-9510",
        "website": "https://www.yeeshaansgrubb.com/",
        "certification": "HFSAA",
        "lat": 37.5566602,
        "lng": -122.0143769
    },
    {
        "name": "Falafel Corner",
        "address": "3620 N Freeway Blvd. #305 Sacramento, CA 95834",
        "phone": "(916) 891-0375",
        "website": "https://falafelcorner.us",
        "certification": "HFSAA",
        "lat": 38.6381194,
        "lng": -121.4980694
    },
    {
        "name": "Falafel Corner",
        "address": "1004 J St. Sacramento, CA 95814",
        "phone": "(916) 917-5556",
        "website": "https://falafelcorner.us",
        "certification": "HFSAA",
        "lat": 38.5799955,
        "lng": -121.4932368
    },
    {
        "name": "Falafel Corner",
        "address": "973 Pleasant Grove Blvd. #100 Roseville, CA 95678",
        "phone": "(916) 269-9988",
        "website": "https://falafelcorner.us",
        "certification": "HFSAA",
        "lat": 38.7810673,
        "lng": -121.2863726
    },
    {
        "name": "Falafel Corner",
        "address": "3539 Bradshaw Rd. #3B Sacramento, CA 95827",
        "phone": "(916) 970-7172",
        "website": "https://falafelcorner.us",
        "certification": "HFSAA",
        "lat": 38.55870669999999,
        "lng": -121.3341925
    },
    {
        "name": "Falafel Corner",
        "address": "4060 Douglas Blvd. #105 Granite Bay, CA 95746",
        "phone": "(916) 872-1727",
        "website": "https://falafelcorner.us",
        "certification": "HFSAA",
        "lat": 38.742352,
        "lng": -121.2256477
    },
    {
        "name": "Falafel Corner",
        "address": "8251 Bruceville Rd. #C140 Sacramento, CA 95823",
        "phone": "(916) 229-6200",
        "website": "https://falafelcorner.us",
        "certification": "HFSAA",
        "lat": 38.4585723,
        "lng": -121.4168262
    },
    {
        "name": "Falafel Corner",
        "address": "1121 Alhambra Blvd. Sacramento, CA 95816",
        "phone": "(916) 476-3411",
        "website": "https://falafelcorner.us",
        "certification": "HFSAA",
        "lat": 38.5711205,
        "lng": -121.4655637
    },
    {
        "name": "Supreme Wings",
        "address": "6721 Martin Luther King Jr Way S, Seattle, WA 98118",
        "phone": "(206) 941-3192",
        "website": "https://www.thesupremewings.com/",
        "certification": "HFSAA",
        "lat": 47.5417133,
        "lng": -122.2836835
    },
    {
        "name": "IFB Market",
        "address": "655 156th Ave. SE Suite A103, Bellevue, WA 98007",
        "phone": "(425) 614-0500",
        "website": "https://www.ifoodbazaar.com/",
        "certification": "HFSAA",
        "lat": 47.6038218,
        "lng": -122.131615
    },
    {
        "name": "International Food Bazaar",
        "address": "18439 E Valley Hwy #101, Kent, WA 98032",
        "phone": "(425) 656-9100",
        "website": "https://www.ifoodbazaar.com/",
        "certification": "HFSAA",
        "lat": 47.436612,
        "lng": -122.2256849
    },
    {
        "name": "Byrd\u2019s Hot Chicken",
        "address": "420 N. McKinley St. Corona, CA 92879",
        "phone": "(951) 268-6072",
        "website": "https://getbyrds.com/#corona",
        "certification": "HFSAA",
        "lat": 33.888887,
        "lng": -117.5209943
    },
    {
        "name": "Charo Chicken",
        "address": "4846 Paramount Blvd. Lakewood, CA 90712",
        "phone": "(562) 216-9000",
        "website": "https://www.lakewoodcharochicken.com/",
        "certification": "HFSAA",
        "lat": 33.8468684,
        "lng": -118.1590392
    },
    {
        "name": "Habibi\u2019s Hot Chicken",
        "address": "1311 S Grand Ave #140, Glendora, CA 91740",
        "phone": "(626) 629-3333",
        "website": "https://www.habibishotchicken.com/",
        "certification": "HFSAA",
        "lat": 34.1157486,
        "lng": -117.8732206
    },
    {
        "name": "Habibi\u2019s Hot Chicken",
        "address": "2955 W Ball Rd, Anaheim, CA 92804",
        "phone": "(657) 256-1125",
        "website": "https://www.habibishotchicken.com/",
        "certification": "HFSAA",
        "lat": 33.81790700000001,
        "lng": -117.991551
    },
    {
        "name": "Jasmine Market & Deli (Restaurant)",
        "address": "4135 Sepulveda Blvd. Culver City, CA 90230",
        "phone": "(310) 313-3767",
        "website": "http://jasminemarketdeli.com/",
        "certification": "HFSAA",
        "lat": 34.0059501,
        "lng": -118.4124713
    },
    {
        "name": "Krispi Hot Chicken",
        "address": "17292 McFadden Ave. Suite L, Tustin, CA 92780",
        "phone": "(714) 617-4442",
        "website": "N/A",
        "certification": "HFSAA",
        "lat": 33.7337277,
        "lng": -117.8279602
    },
    {
        "name": "Nomad Asian Bistro",
        "address": "6563 Pacific Coast Hwy. Long Beach, CA 90803",
        "phone": "(562) 430-6888",
        "website": "https://www.nomadasianbistrolongbeach.com/",
        "certification": "HFSAA",
        "lat": 33.756591,
        "lng": -118.107732
    },
    {
        "name": "Ribs n Kabobs",
        "address": "18925 Norwalk Blvd. Artesia, CA 90701",
        "phone": "(562) 402-2049",
        "website": "https://ribsnkabobs.com/",
        "certification": "HFSAA",
        "lat": 33.8592468,
        "lng": -118.0728549
    },
    {
        "name": "Shahi Mahal",
        "address": "12225 Centralia St, Lakewood, CA 90715",
        "phone": "(562) 202-4406",
        "website": "N/A",
        "certification": "HFSAA",
        "lat": 33.8395659,
        "lng": -118.0712909
    },
    {
        "name": "The Hotspot Grill",
        "address": "12211 Centralia St. Lakewood, CA 90715",
        "phone": "(562) 860-3031",
        "website": "https://thehotspotgrill.com/lakewood%2C-ca",
        "certification": "HFSAA",
        "lat": 33.83953899999999,
        "lng": -118.0716937
    },
    {
        "name": "The Port of Peri Peri",
        "address": "2555 E Chapman Ave. Fullerton, CA 92831",
        "phone": "(714) 770-0281",
        "website": "https://www.myperiperi.com/fullerton/",
        "certification": "HFSAA",
        "lat": 33.8744583,
        "lng": -117.8854295
    },
    {
        "name": "Zam Zam Foods",
        "address": "13645/49 S Inglewood Ave. Hawthorne, CA 90250",
        "phone": "(310) 978-1927",
        "website": "https://zamzamfoodsla.com/",
        "certification": "HFSAA",
        "lat": 33.9079784,
        "lng": -118.3615589
    },
    {
        "name": "Shahnawaz Grocery",
        "address": "12211 E Centralia St. Lakewood, CA 90715",
        "phone": "(562) 860-3031",
        "website": "N/A",
        "certification": "HFSAA",
        "lat": 33.8388827,
        "lng": -118.0700336
    },
    {
        "name": "The Port of Peri Peri",
        "address": "975 Old Post Rd. Walpole, MA 02081",
        "phone": "(781) 499-5919",
        "website": "http://myperiperi.com/",
        "certification": "HFSAA",
        "lat": 42.1243786,
        "lng": -71.2325506
    },
    {
        "name": "Guac Time",
        "address": "500 Connecticut Ave. Norwalk, CT 06854",
        "phone": "(203) 286-6452",
        "website": "https://guactimenyc.com/",
        "certification": "HFSAA",
        "lat": 41.0996374,
        "lng": -73.4443244
    },
    {
        "name": "Al Sultan",
        "address": "6050 Meadowridge Center Dr, Elkridge, MD 21075",
        "phone": "(410) 799-7700",
        "website": "https://alsultanrestaurantus.com/",
        "certification": "HFSAA",
        "lat": 39.2087862,
        "lng": -76.7809899
    },
    {
        "name": "Addy\u2019s Barbeque Baltimore",
        "address": "5860 Baltimore National Pike E. Catonsville, MD 21228",
        "phone": "(410) 747-7570",
        "website": "https://www.addysbarbeque.com/",
        "certification": "HFSAA",
        "lat": 39.2875255,
        "lng": -76.7360995
    },
    {
        "name": "Biryani & Bakers",
        "address": "6600 Baltimore National Pike, Catonsville, MD 21228",
        "phone": "(443) 300-7866",
        "website": "N/A",
        "certification": "HFSAA",
        "lat": 39.2871985,
        "lng": -76.7637467
    },
    {
        "name": "Bismillah Kabob House",
        "address": "7530 Ritchie Hwy, Glen Burnie, MD 21061",
        "phone": "(410) 590-9549",
        "website": "N/A",
        "certification": "HFSAA",
        "lat": 39.1601327,
        "lng": -76.6216383
    },
    {
        "name": "Danish Foods",
        "address": "1722 N. Rolling Rd. Windsormill, MD 21244",
        "phone": "(410) 298-0960",
        "website": "http://www.danishhalalfoods.com/",
        "certification": "HFSAA",
        "lat": 39.3084302,
        "lng": -76.75326869999999
    },
    {
        "name": "Hunan Village Tysons",
        "address": "8607 Westwood Center Dr, Vienna, VA 22182",
        "phone": "(703) 448-0900",
        "website": "https://www.hunanvillagetysons.com/",
        "certification": "HFSAA",
        "lat": 38.92872879999999,
        "lng": -77.24608839999999
    },
    {
        "name": "Meet & Feast Restaurant and Banquet Hall",
        "address": "1724 Woodlawn Dr. #30 Baltimore, MD 21207",
        "phone": "(443) 348-7376",
        "website": "N/A",
        "certification": "HFSAA",
        "lat": 39.3161362,
        "lng": -76.7398295
    },
    {
        "name": "Nash & Smash",
        "address": "8450 Baltimore National Pike, Suite 140, Ellicott City, MD 21043",
        "phone": "(410) 988-5572",
        "website": "https://www.nashandsmash.com/",
        "certification": "HFSAA",
        "lat": 39.2868239,
        "lng": -76.806769
    },
    {
        "name": "Peri Peri Original",
        "address": "8450 Baltimore National Pike, Suite 140 Ellicott City, MD 21043",
        "phone": "(410) 988-5572",
        "website": "https://periperioriginaldmv.com/",
        "certification": "HFSAA",
        "lat": 39.2868239,
        "lng": -76.806769
    },
    {
        "name": "All Halal Meat and Groceries",
        "address": "3551 Washington Blvd #100, Lansdowne, MD 21227",
        "phone": "(843) 814-4892",
        "website": "N/A",
        "certification": "HFSAA",
        "lat": 39.2511062,
        "lng": -76.6673862
    },
    {
        "name": "Al Wahid Foods",
        "address": "1724 Woodlawn Dr. #36 Woodlawn, MD 21207",
        "phone": "(410) 265-6622",
        "website": "N/A",
        "certification": "HFSAA",
        "lat": 39.3161362,
        "lng": -76.7398295
    },
    {
        "name": "Bamyan Halal Meat",
        "address": "5134 Thunder Hill Road, Suite A, Columbia, MD 21045",
        "phone": "(410) 801-5664",
        "website": "N/A",
        "certification": "HFSAA",
        "lat": 39.2291272,
        "lng": -76.8307268
    },
    {
        "name": "Bismillah Halal Meat & Grocery",
        "address": "7530 Ritchie Hwy, Glen Burnie, MD 21061",
        "phone": "(410) 590-9549",
        "website": "N/A",
        "certification": "HFSAA",
        "lat": 39.1601327,
        "lng": -76.6216383
    },
    {
        "name": "Danish Foods",
        "address": "1722 N. Rolling Rd. Windsormill, MD 21244",
        "phone": "(410) 298-0960",
        "website": "N/A",
        "certification": "HFSAA",
        "lat": 39.3084302,
        "lng": -76.75326869999999
    },
    {
        "name": "Paaq Halal Meat & Grocery",
        "address": "6400 Baltimore National Pike Catonsville, MD 21228",
        "phone": "(410) 970-2790",
        "website": "N/A",
        "certification": "HFSAA",
        "lat": 39.2848492,
        "lng": -76.75691549999999
    },
    {
        "name": "The Port of Peri Peri",
        "address": "51 NJ-17 East Rutherford, NJ 07073",
        "phone": "(201) 414-5505",
        "website": "http://myperiperi.com/",
        "certification": "HFSAA",
        "lat": 40.8311036,
        "lng": -74.0932545
    },
    {
        "name": "Chicken Shack",
        "address": "4011 E. Tremont Avenue Bronx, NY 10465 (929) 777-9190",
        "phone": "N/A",
        "website": "https://chickenshackny.com/",
        "certification": "HFSAA",
        "lat": 40.8203097,
        "lng": -73.8175895
    },
    {
        "name": "Guac Time",
        "address": "599 6th Ave. New York, NY 10011",
        "phone": "(646) 678-4053",
        "website": "https://guactimenyc.com/",
        "certification": "HFSAA",
        "lat": 40.7395675,
        "lng": -73.9955213
    },
    {
        "name": "Guac Time",
        "address": "412 S Broadway, Hicksville, NY 11801",
        "phone": "(516) 465-2042",
        "website": "https://guactimenyc.com/",
        "certification": "HFSAA",
        "lat": 40.7588418,
        "lng": -73.51344040000001
    },
    {
        "name": "Halal Bros Kabab Grill",
        "address": "667 Elmont Rd, Elmont, NY 11003",
        "phone": "(516) 612-7272",
        "website": "https://www.halalbroskababgrillmenu.com/",
        "certification": "HFSAA",
        "lat": 40.6934728,
        "lng": -73.7177708
    },
    {
        "name": "Hot Peppers",
        "address": "78-33 Springfield Blvd. Queens, NY 11364",
        "phone": "(347) 676-7566",
        "website": "http://hotpeppersinc.com/",
        "certification": "HFSAA",
        "lat": 40.7364718,
        "lng": -73.7467399
    },
    {
        "name": "Hot Peppers",
        "address": "28-21 Steinway St. Queens, NY 11103",
        "phone": "(347) 676-7566",
        "website": "http://hotpeppersinc.com/",
        "certification": "HFSAA",
        "lat": 40.76479210000001,
        "lng": -73.9139536
    },
    {
        "name": "Just Halal",
        "address": "205-02 Hillside Avenue, Queens, NY 11423",
        "phone": "(718) 464-0517",
        "website": "https://justhalalny.com/",
        "certification": "HFSAA",
        "lat": 40.7204609,
        "lng": -73.75999399999999
    },
    {
        "name": "Kandahar Grill",
        "address": "459A S Broadway Hicksville, NY 11801",
        "phone": "(516) 595-7886",
        "website": "https://www.nykandahargrill.com/",
        "certification": "HFSAA",
        "lat": 40.7579847,
        "lng": -73.51162120000001
    },
    {
        "name": "Sunshine Hicksville",
        "address": "275 W Old Country Rd, Hicksville, NY 11801",
        "phone": "(516) 622-0002",
        "website": "https://www.sunshinerestaurantny.com/",
        "certification": "HFSAA",
        "lat": 40.7607657,
        "lng": -73.5306538
    },
    {
        "name": "Uncle\u2019s Fried Chicken",
        "address": "16304 Hillside Ave. Queens, NY 11432",
        "phone": "(718) 374-3466",
        "website": "N/A",
        "certification": "HFSAA",
        "lat": 40.7085894,
        "lng": -73.7989544
    },
    {
        "name": "Zabiha Burgers & Fries",
        "address": "44-03 Kissena Blvd. Queens, NY 11355",
        "phone": "(201) 503-3719",
        "website": "N/A",
        "certification": "HFSAA",
        "lat": 40.7538203,
        "lng": -73.8223781
    },
    {
        "name": "Akma Halal Meat",
        "address": "876-21 Connetquot Ave, Islip Terrace, NY 11752",
        "phone": "(631) 228-0000",
        "website": "N/A",
        "certification": "HFSAA",
        "lat": 40.7664266,
        "lng": -73.17441889999999
    },
    {
        "name": "Barakat Halal Meat Grocery",
        "address": "73-09 Main St. Queens, NY 11367",
        "phone": "(718) 793-6991",
        "website": "N/A",
        "certification": "HFSAA",
        "lat": 40.7244815,
        "lng": -73.82040359999999
    },
    {
        "name": "Farmingdale Grocery & Halal Meat",
        "address": "974 Fulton St. Farmingdale, NY 11735",
        "phone": "(516) 927-8099",
        "website": "N/A",
        "certification": "HFSAA",
        "lat": 40.7252208,
        "lng": -73.435768
    },
    {
        "name": "Kawran Bazar Supermarket",
        "address": "8754 168th Pl, Queens, NY 11432",
        "phone": "(718) 206-3913",
        "website": "N/A",
        "certification": "HFSAA",
        "lat": 40.7106071,
        "lng": -73.7943231
    },
    {
        "name": "Mach Bazar",
        "address": "71-08 35th Ave. Queens, NY 11372",
        "phone": "(718) 205-6550",
        "website": "N/A",
        "certification": "HFSAA",
        "lat": 40.7504585,
        "lng": -73.8945751
    },
    {
        "name": "Lipton Hall",
        "address": "33 Washington Square West New York, NY 10011",
        "phone": "(212) 995-3074",
        "website": "https://www.nyu.edu/students/student-information-and-resources/housing-and-dining/dining/dietary-options/HalalDiningOptions.html",
        "certification": "HFSAA",
        "lat": 40.7314987,
        "lng": -73.99933639999999
    },
    {
        "name": "Kimmel Marketplace",
        "address": "60 Washington Square South New York, NY 10011",
        "phone": "(212) 998-4573",
        "website": "https://www.nyu.edu/students/student-information-and-resources/housing-and-dining/dining/dietary-options/HalalDiningOptions.html",
        "certification": "HFSAA",
        "lat": 40.7297809,
        "lng": -73.99786569999999
    },
    {
        "name": "Jasper Kane Caf\u00e9",
        "address": "6 MetroTech Center Brooklyn, NY 11201",
        "phone": "(718) 260-3786",
        "website": "https://www.nyu.edu/students/student-information-and-resources/housing-and-dining/dining/dietary-options/HalalDiningOptions.html",
        "certification": "HFSAA",
        "lat": 40.694424,
        "lng": -73.9865892
    },
    {
        "name": "Asian Family\u2019s No.1",
        "address": "819 Garrett Rd. Upper Darby, PA 19082",
        "phone": "(610) 352-1109",
        "website": "http://www.asianfamily1.com/",
        "certification": "HFSAA",
        "lat": 39.9570734,
        "lng": -75.2700469
    },
    {
        "name": "Geo Halal Takeout",
        "address": "1154 MacArthur Road, Whitehall, PA 18052",
        "phone": "(484) 274-6075",
        "website": "https://geo-halal-meat.business.site/?utm_source=gmb&utm_medium=referral",
        "certification": "HFSAA",
        "lat": 40.6208413,
        "lng": -75.4814777
    },
    {
        "name": "Amaanaat Supermarket",
        "address": "200 N Broad St. Lansdale, PA 19446",
        "phone": "(215) 626-2859",
        "website": "N/A",
        "certification": "HFSAA",
        "lat": 40.2422621,
        "lng": -75.28324309999999
    },
    {
        "name": "Geo Halal Meat",
        "address": "1154 MacArthur Road, Whitehall, PA 18052",
        "phone": "(484) 274-6075",
        "website": "https://geo-halal-meat.business.site/?utm_source=gmb&utm_medium=referral",
        "certification": "HFSAA",
        "lat": 40.6208413,
        "lng": -75.4814777
    },
    {
        "name": "The Port of Peri Peri",
        "address": "15817 Pines Blvd, Pembroke Pines, FL 33028",
        "phone": "(954) 544-5448",
        "website": "https://www.myperiperi.com/",
        "certification": "HFSAA",
        "lat": 26.008331,
        "lng": -80.3578065
    },
    {
        "name": "Hyderabad House",
        "address": "2225 W. Devon Ave., Chicago, IL 60659",
        "phone": "(773)381-1230",
        "state": "Illinois",
        "products": "Chicken Lamb Goat Veal Beef",
        "expires": "2024-12-31T00:00:00",
        "certification": "HMS",
        "lat": 41.9975984,
        "lng": -87.6858488
    },
    {
        "name": "New Naan on Devon",
        "address": "2241 W. Devon Ave., Chicago, IL 60659",
        "phone": "(773) 262-7676",
        "state": "Illinois",
        "products": "Chicken Lamb Goat Veal Beef",
        "expires": "2024-12-31T00:00:00",
        "certification": "HMS",
        "lat": 41.9975615,
        "lng": -87.6866088
    },
    {
        "name": "Tahoora Sweet & Bakery",
        "address": "2345 W. Devon Ave. Chicago, IL 60659",
        "phone": "(773) 743-7272",
        "state": "Illinois",
        "products": "Chicken Beef Misc",
        "expires": "2024-12-31T00:00:00",
        "certification": "HMS",
        "lat": 41.997504,
        "lng": -87.6892702
    },
    {
        "name": "Bundoo Khan Restaurant",
        "address": "2539 W. Devon Ave., Chicago, IL - 60659",
        "phone": "(872) 241-9100",
        "state": "Illinois",
        "products": "Chicken Lamb Goat Veal Beef",
        "expires": "2024-12-31T00:00:00",
        "certification": "HMS",
        "lat": 41.9975432,
        "lng": -87.69382859999999
    },
    {
        "name": "Charminar Restaurant",
        "address": "6350 N. Campbell Ave., Chicago, IL - 60659",
        "phone": "(773) 508-6766",
        "state": "Illinois",
        "products": "Chicken Lamb Goat Veal Beef",
        "expires": "2024-12-31T00:00:00",
        "certification": "HMS",
        "lat": 41.9974098,
        "lng": -87.6924427
    },
    {
        "name": "Ajwaah Sweets",
        "address": "2453 W. Devon Ave., Chicago, IL 60645",
        "phone": "(773) 262-4444",
        "state": "Illinois",
        "products": "Chicken Veal Beef Misc",
        "expires": "2024-12-31T00:00:00",
        "certification": "HMS",
        "lat": 41.9975967,
        "lng": -87.69191789999999
    },
    {
        "name": "Halal Express Cusine",
        "address": "17W731 Roosevelt Rd. Oakbrook, Terrace, IL - 60181",
        "phone": "(630) 678-0790",
        "state": "Illinois",
        "products": "Chicken Lamb Goat Beef",
        "expires": "2024-12-31T00:00:00",
        "certification": "HMS",
        "lat": 41.85881089999999,
        "lng": -87.9745356
    },
    {
        "name": "Addys BBQ",
        "address": "799 Elmont Road, Elmont",
        "phone": " (516) 285-6000",
        "state": "New York",
        "products": "Chicken Lamb Goat Beef",
        "expires": "2024-12-31T00:00:00",
        "certification": "HMS",
        "lat": 40.6906958,
        "lng": -73.72047979999999
    },
    {
        "name": "Wok & Grill",
        "address": "739 Elmont Road, Elmont, NY 11003",
        "phone": "(516) 285-1100",
        "state": "New York",
        "products": "Chicken Goat Beef",
        "expires": "2024-12-31T00:00:00",
        "certification": "HMS",
        "lat": 40.691936,
        "lng": -73.71943279999999
    },
    {
        "name": "Holy Cow Restaurant Inc.",
        "address": "34 Canal St, New York, NY 10002",
        "phone": "(347)630-9155",
        "state": "New York",
        "products": "Chicken Lamb Beef",
        "expires": "2024-12-31T00:00:00",
        "certification": "HMS",
        "lat": 40.7143638,
        "lng": -73.99069349999999
    },
    {
        "name": "The Halal Burger",
        "address": "6234 N California Ave, Chicago, IL 60659",
        "phone": "(773) 856-6663",
        "state": "Illinois",
        "products": "Chicken Beef",
        "expires": "2024-12-31T00:00:00",
        "certification": "HMS",
        "lat": 41.9949394,
        "lng": -87.69998679999999
    },
    {
        "name": "Anmol Restaurant",
        "address": "711 W Mitchell St, Milwaukee, WI 53204",
        "phone": "(414) 672-7878",
        "state": "Wisconsin",
        "products": "Chicken Lamb Goat Veal Beef",
        "expires": "2024-12-31T00:00:00",
        "certification": "HMS",
        "lat": 43.0121258,
        "lng": -87.9203789
    },
    {
        "name": "Anmol BBQ",
        "address": "2858 W Devon Ave, Chicago, IL 60659",
        "phone": "(773) 508-5050",
        "state": "Illinois",
        "products": "Chicken Lamb Goat Veal Beef",
        "expires": "2024-12-31T00:00:00",
        "certification": "HMS",
        "lat": 41.99777659999999,
        "lng": -87.701962
    },
    {
        "name": "Jerusalem Cafe",
        "address": "300 W. Roosevelt Rd, Lombard, IL 60148",
        "phone": "(630) 629-6400",
        "state": "Illinois",
        "products": "Chicken Lamb Beef",
        "expires": "2024-12-31T00:00:00",
        "certification": "HMS",
        "lat": 41.8601869,
        "lng": -88.0231564
    },
    {
        "name": "Tabaq Restaurant",
        "address": "1245 N. Clybourn Ave, Chicago, IL 60610",
        "phone": "(312) 944-1245",
        "state": "Illinois",
        "products": "Chicken Lamb Goat Veal Beef",
        "expires": "2024-12-31T00:00:00",
        "certification": "HMS",
        "lat": 41.9048124,
        "lng": -87.6405963
    },
    {
        "name": "BBQ Tonight",
        "address": "1061 W. Golf Rd, Hoffman Estates, IL 60169",
        "phone": "(847) 843-6248",
        "state": "Illinois",
        "products": "Chicken Lamb Goat Veal Beef",
        "expires": "2024-12-31T00:00:00",
        "certification": "HMS",
        "lat": 42.0475888,
        "lng": -88.1058923
    },
    {
        "name": "House of Biryani",
        "address": "2306 W Devon Ave, Chicago, IL 60659",
        "phone": "(773) 654-3228",
        "state": "Illinois",
        "products": "Chicken Lamb Goat",
        "expires": "2024-12-31T00:00:00",
        "certification": "HMS",
        "lat": 41.9979967,
        "lng": -87.6878276
    },
    {
        "name": "Khan BBQ",
        "address": "2401 W Devon Ave, Chicago, IL 60659",
        "phone": "(773) 274-8600",
        "state": "Illinois",
        "products": "Chicken Lamb Goat Veal Beef",
        "expires": "2024-12-31T00:00:00",
        "certification": "HMS",
        "lat": 41.9974091,
        "lng": -87.69023179999999
    },
    {
        "name": "Sheeba Mandi House",
        "address": "3456 W. Foster Ave, Chicago, IL 60625",
        "phone": "(773) 654-3349",
        "state": "Illinois",
        "products": "Chicken Lamb Beef",
        "expires": "2024-12-31T00:00:00",
        "certification": "HMS",
        "lat": 41.9758973,
        "lng": -87.7157186
    },
    {
        "name": "Halal Peri Peri Chicken and Grill",
        "address": "2350 W Devon Ave, Chicago, IL 60645",
        "phone": "(773) 754-7700",
        "state": "Illinois",
        "products": "Chicken Beef",
        "expires": "2024-12-31T00:00:00",
        "certification": "HMS",
        "lat": 41.99791039999999,
        "lng": -87.6893681
    },
    {
        "name": "Serena Restaurant",
        "address": "2536 W Devon Ave, Chicago, IL 60659",
        "phone": "(773) 338-5800",
        "state": "Illinois",
        "products": "Chicken Goat Veal Beef",
        "expires": "2024-12-31T00:00:00",
        "certification": "HMS",
        "lat": 41.9978631,
        "lng": -87.6938323
    },
    {
        "name": "Kabab King Grill",
        "address": "2305 W. Devon Ave, Chicago, IL 60659",
        "phone": "(773) 856-3786",
        "state": "Illinois",
        "products": "Chicken Lamb Goat Veal Beef",
        "expires": "2024-12-31T00:00:00",
        "certification": "HMS",
        "lat": 41.9976014,
        "lng": -87.68767559999999
    },
    {
        "name": "Mughal Bakery",
        "address": "6346 - 48 N. Maplewood Ave, Chicago, IL 60659",
        "phone": "(773) 761-9660",
        "state": "Illinois",
        "products": "Misc All Bakery Items",
        "expires": "2024-12-31T00:00:00",
        "certification": "HMS",
        "lat": 41.9972845,
        "lng": -87.69373610000001
    },
    {
        "name": "Four Seasons Steak & Grill",
        "address": "260 W North Ave, Addison, IL 60101",
        "phone": "(630) 519-5929",
        "state": "Illinois",
        "products": "Chicken Lamb Goat Veal Beef",
        "expires": "2024-12-31T00:00:00",
        "certification": "HMS",
        "lat": 41.9055692,
        "lng": -87.9948213
    },
    {
        "name": "Centro Burgers and Shakes",
        "address": "1271 S. Main St, Lombard, IL 60148",
        "phone": "(331) 307-7902",
        "state": "Illinois",
        "products": "Chicken Lamb Goat Veal Beef",
        "expires": "2024-12-31T00:00:00",
        "certification": "HMS",
        "lat": 41.8585889,
        "lng": -88.01660679999999
    },
    {
        "name": "Makkah Catering",
        "address": "17W612 14th St Oakbrook Terrace, IL",
        "phone": "(630) 475-1234",
        "state": "Illinois",
        "products": "Chicken Lamb Goat Veal Beef Caterer",
        "expires": "2024-12-31T00:00:00",
        "certification": "HMS",
        "lat": 41.8573788,
        "lng": -87.9738098
    },
    {
        "name": "Desi Dhaaba",
        "address": "3900 Washington St, Gurnee, IL 60031",
        "phone": "(224) 637-3233",
        "state": "Illinois",
        "products": "Chicken Goat",
        "expires": "2024-12-31T00:00:00",
        "certification": "HMS",
        "lat": 42.360542,
        "lng": -87.8984231
    },
    {
        "name": "Anmol South Asian Kitchen",
        "address": "1550 Rt 59, Ste 168 - 170, Naperville, IL 60653",
        "phone": "(630) 946-6760",
        "state": "Illinois",
        "products": "Chicken Lamb Goat Veal Beef",
        "expires": "2024-12-31T00:00:00",
        "certification": "HMS",
        "lat": 41.7952358,
        "lng": -88.2043431
    },
    {
        "name": "Eatzy Chinese",
        "address": "37 - 21 72nd Street, Jackson Heights, NY 11372",
        "phone": "(718) 533-9131",
        "state": "New York",
        "products": "Chicken Lamb Goat Veal Beef",
        "expires": "2024-12-31T00:00:00",
        "certification": "HMS",
        "lat": 40.74807,
        "lng": -73.8936149
    },
    {
        "name": "Bundoo Khan Express",
        "address": "2603 Aurora Ave Unit 123, Naperville, IL 60540",
        "phone": "(630) 857-9704 (and 9705)",
        "state": "Illinois",
        "products": "Chicken Lamb Goat Veal Beef",
        "expires": "2024-12-31T00:00:00",
        "certification": "HMS",
        "lat": 41.76439,
        "lng": -88.1981572
    },
    {
        "name": "Bismillah Restaurant",
        "address": "475 W. Boughton Rd, Bolingbrook, IL 60440",
        "phone": "(630) 759-4429",
        "state": "Illinois",
        "products": "Chicken Lamb Goat Veal Beef",
        "expires": "2024-12-31T00:00:00",
        "certification": "HMS",
        "lat": 41.7064812,
        "lng": -88.0861642
    },
    {
        "name": "Kababjees",
        "address": "495-18 South Broadway, Hicksville, NY 11801",
        "phone": "(516) 597-5777",
        "state": "New York",
        "products": "Chicken Lamb Goat Beef",
        "expires": "2024-12-31T00:00:00",
        "certification": "HMS",
        "lat": 40.75726299999999,
        "lng": -73.5104059
    },
    {
        "name": "Nay Restaurant",
        "address": "365 E. North Ave, Glendale Heights, IL 60139",
        "phone": "(630) 868-3744",
        "state": "Illinois",
        "products": "Chicken Lamb Beef",
        "expires": "2024-12-31T00:00:00",
        "certification": "HMS",
        "lat": 41.9025229,
        "lng": -88.0745534
    },
    {
        "name": "Tasty Nihari",
        "address": "2255 W Schaumburg Rd, Schaumburg, IL 60194",
        "phone": "(847) 524-1401",
        "state": "Illinois",
        "products": "Chicken Goat Beef",
        "expires": "2024-12-31T00:00:00",
        "certification": "HMS",
        "lat": 42.0243479,
        "lng": -88.13647809999999
    },
    {
        "name": "Karachi Dhaba & Chaat",
        "address": "1581 W. Bloomingdale Rd, Glendale Heights, IL 60139",
        "phone": "(630) 765-7079",
        "state": "Illinois",
        "products": "Chicken Lamb Goat Veal Beef",
        "expires": "2024-12-31T00:00:00",
        "certification": "HMS",
        "lat": 41.9585811,
        "lng": -88.03158719999999
    },
    {
        "name": "Afghan Kabob",
        "address": "6002 W. Dempster St, Morton Grove, IL 60053",
        "phone": "(224) 534-7262",
        "state": "Illinois",
        "products": "Chicken Lamb Beef",
        "expires": "2024-12-31T00:00:00",
        "certification": "HMS",
        "lat": 42.0410109,
        "lng": -87.77670359999999
    },
    {
        "name": "Hussain Catering",
        "address": "1214 S Highland Ave, Lombard, IL 60148",
        "phone": "(773) 289-8089",
        "state": "Illinois",
        "products": "Chicken Lamb Goat Veal Beef Caterer",
        "expires": "2024-12-31T00:00:00",
        "certification": "HMS",
        "lat": 41.8595227,
        "lng": -88.01283169999999
    },
    {
        "name": "Holy Cow Elmont",
        "address": "240-09 Linden Blvd, Elmont, NY 11003",
        "phone": "(516) 636-5299",
        "state": "New York",
        "products": "Chicken Lamb Beef",
        "expires": "2024-12-31T00:00:00",
        "certification": "HMS",
        "lat": 40.6897458,
        "lng": -73.7221108
    },
    {
        "name": "Vita Vita International",
        "address": "6315 N. Milwaukee Ave, Chicago, IL 60646",
        "phone": "(773) 853-0058",
        "state": "Illinois",
        "products": "Misc D3 B12 ZINC-CITRATE TURMERIC-BLEND ZINC-ECHINACEA LIPOSOMAL-VITAMIN-C MULTIVITAMINS-MEN MULTIVITAMINS-WOMEN MULTIVITAMINS-PRENATAL",
        "expires": "2024-12-31T00:00:00",
        "certification": "HMS",
        "lat": 41.9957665,
        "lng": -87.78597889999999
    },
    {
        "name": "Eatzy Thai",
        "address": "33-09 Broadway, Astoria, NY 11106",
        "phone": "(718) 956-7117",
        "state": "New York",
        "products": "Chicken Lamb Beef",
        "expires": "2024-12-31T00:00:00",
        "certification": "HMS",
        "lat": 40.76119790000001,
        "lng": -73.9232727
    },
    {
        "name": "Perdesi Grill",
        "address": "1184 Roosevelt Rd, Glen Ellyn, IL 60137",
        "phone": "(630) 678-9288",
        "state": "Illinois",
        "products": "Chicken Lamb Goat Veal Beef",
        "expires": "2024-12-31T00:00:00",
        "certification": "HMS",
        "lat": 41.8600778,
        "lng": -88.0326171
    },
    {
        "name": "Al Maidah Cuisine",
        "address": "184 Cambridge Street, Burlington, MA 01803",
        "phone": "(781) 273-0111",
        "state": "Massachusetts",
        "products": "Chicken Lamb Goat Beef",
        "expires": "2024-12-31T00:00:00",
        "certification": "HMS",
        "lat": 42.5115276,
        "lng": -71.2005654
    },
    {
        "name": "IONZ",
        "address": "14100 S. GARFIELD AVE #104",
        "phone": "(773) 551-2281",
        "state": "Illinois",
        "products": "Misc OMNIDROPZ OMNISPORTZ DAILY-FIBER OMNISALTZ IMMUNE-PRO MULTIVITAMINS FLEXABLE-JOINTS COLLAGEN-C ELDERBERRY-VITAMIN-C DIABEION DIABEION-POWDER INTESTINAL-CLEANSE-POWDER",
        "expires": "2024-01-31T00:00:00",
        "certification": "HMS",
        "lat": 34.0824301,
        "lng": -118.1230542
    },
    {
        "name": "Tawakkul Restaurant",
        "address": "6410 N. Claremont Ave, Chicago, IL 60659",
        "phone": "(773) 654-1424",
        "state": "Illinois",
        "products": "Chicken Lamb Goat Beef",
        "expires": "2024-12-31T00:00:00",
        "certification": "HMS",
        "lat": 41.9980289,
        "lng": -87.6888505
    },
    {
        "name": "Taj Grill & Gyro",
        "address": "700 Oak Tree Ave, South Plainfield, NJ 07080",
        "phone": "(908) 941-3430",
        "state": "New Jersey",
        "products": "Chicken Lamb Beef",
        "expires": "2024-12-31T00:00:00",
        "certification": "HMS",
        "lat": 40.576631,
        "lng": -74.39189549999999
    },
    {
        "name": "Asia Grocers",
        "address": "27616 Middlebelt Rd, Farmington Hills, MI 48334",
        "phone": "(248) 426-9000",
        "state": "Michigan",
        "products": "Chicken Lamb Goat Veal Beef",
        "expires": "2024-12-31T00:00:00",
        "certification": "HMS",
        "lat": 42.4978457,
        "lng": -83.3374625
    },
    {
        "name": "Samosa Paradise",
        "address": "804 Newark Ave, Jersey City, NJ 07306",
        "phone": "(201) 414-9493",
        "state": "New Jersey",
        "products": "Chicken Lamb Goat Veal Beef",
        "expires": "2024-12-31T00:00:00",
        "certification": "HMS",
        "lat": 40.7357257,
        "lng": -74.06509779999999
    },
    {
        "name": "Ali Baba Kabab",
        "address": "869 S ROSELLE RD, SCHAUMBURG, IL 60193",
        "phone": "(630) 912-4499",
        "state": "Illinois",
        "products": "Chicken Lamb Beef",
        "expires": "2024-12-31T00:00:00",
        "certification": "HMS",
        "lat": 42.0113722,
        "lng": -88.0788354
    },
    {
        "name": "Pariwaar Delights",
        "address": "827 Newark Ave, Jersey City",
        "phone": "(201) 217-1800",
        "state": "New Jersey",
        "products": "Chicken Lamb Goat Beef",
        "expires": "2024-12-31T00:00:00",
        "certification": "HMS",
        "lat": 40.7355224,
        "lng": -74.0661784
    },
    {
        "name": "Halal Eatz",
        "address": "195 Cambridge Street, Burlington, MA 01803",
        "phone": "(781) 203-1554",
        "state": "Massachusetts",
        "products": "Chicken Lamb Beef",
        "expires": "2024-12-31T00:00:00",
        "certification": "HMS",
        "lat": 42.5107045,
        "lng": -71.20128
    },
    {
        "name": "Tim Tim's Halal Grill",
        "address": "4148 W MONTROSE AVE, CHICAGO, IL 60641",
        "phone": "(773) 657-3180",
        "state": "Illinois",
        "products": "Chicken Beef",
        "expires": "2024-12-31T00:00:00",
        "certification": "HMS",
        "lat": 41.9610735,
        "lng": -87.73187329999999
    },
    {
        "name": "Hyderabad House",
        "address": "825 W. HIGGINS, SCHAUMBURG, IL 60194 ",
        "phone": "(847) 466-7055",
        "state": "Illinois",
        "products": "Chicken Lamb Goat Veal Beef",
        "expires": "2024-12-31T00:00:00",
        "certification": "HMS",
        "lat": 42.049547,
        "lng": -88.101002
    },
    {
        "name": "Shalimar Restaurant",
        "address": "474 N. GREENBAY RD, WAUKEGAN, IL 60085 ",
        "phone": "(847) 599-9306",
        "state": "Illinois",
        "products": "Chicken Lamb Goat Veal Beef",
        "expires": "2024-12-31T00:00:00",
        "certification": "HMS",
        "lat": 42.3664841,
        "lng": -87.8798873
    },
    {
        "name": "BBQ King",
        "address": "3112 N Jupiter Rd #307, Garland, TX 75044",
        "phone": "(972) 807-6910",
        "state": "Texas",
        "products": "Chicken Lamb Goat Veal Beef",
        "expires": "2024-12-31T00:00:00",
        "certification": "HMS",
        "lat": 32.9457115,
        "lng": -96.68081169999999
    },
    {
        "name": "Mannan Bakery",
        "address": "71-14 35 Ave, Jackson Heights, NY 11372",
        "phone": "(718) 424-0262",
        "state": "New York",
        "products": "Chicken Lamb Goat Veal Beef All Bakery Items",
        "expires": "2024-12-31T00:00:00",
        "certification": "HMS",
        "lat": 40.75064740000001,
        "lng": -73.89438620000001
    },
    {
        "name": "Khizer's Kitchen",
        "address": "112 N BOLINGBROOK DR.BOLINGBROOK, IL 60440",
        "phone": "(630) 863-7018",
        "state": "Illinois",
        "products": "Chicken Lamb Goat Veal Beef",
        "expires": "2024-12-31T00:00:00",
        "certification": "HMS",
        "lat": 41.6990312,
        "lng": -88.06691409999999
    },
    {
        "name": "Mannan Bakery & Restaurant",
        "address": "167-15 Hillside Ave, Jamaica, NY 11432",
        "phone": "(718) 374-3679",
        "state": "New York",
        "products": "Chicken Lamb Goat Veal Beef All Bakery Items",
        "expires": "2024-12-31T00:00:00",
        "certification": "HMS",
        "lat": 40.7101483,
        "lng": -73.7950929
    },
    {
        "name": "Fire Stone Grill & Pizza",
        "address": "380 B Franklin Ave, Franklin Square, NY 11010",
        "phone": "(516) 326-1214",
        "state": "New York",
        "products": "Chicken Lamb Goat Beef",
        "expires": "2024-12-31T00:00:00",
        "certification": "HMS",
        "lat": 40.6978916,
        "lng": -73.6827302
    },
    {
        "name": "Karahi Corner",
        "address": "2658 W Devon Ave Chicago IL 60659",
        "phone": "(773) 856-3090",
        "state": "Illinois",
        "products": "Chicken Lamb Goat Veal Beef",
        "expires": "2024-12-31T00:00:00",
        "certification": "HMS",
        "lat": 41.9978518,
        "lng": -87.697015
    },
    {
        "name": "Pita & Hummus",
        "address": "1655 Stelton Rd, Piscataway, NJ 08854",
        "phone": "(732) 354-4648",
        "state": "New Jersey",
        "products": "Chicken Lamb Goat Beef",
        "expires": "2024-12-31T00:00:00",
        "certification": "HMS",
        "lat": 40.534223,
        "lng": -74.41982209999999
    },
    {
        "name": "Mannan Sweets & Restaurant",
        "address": "75-13 101 Ave, Ozone Park, NY 11416",
        "phone": "(718) 480-6880",
        "state": "New York",
        "products": "Chicken Lamb Goat Veal Beef",
        "expires": "2024-12-31T00:00:00",
        "certification": "HMS",
        "lat": 40.6799204,
        "lng": -73.86187530000001
    },
    {
        "name": "Poblano's Piri Piri",
        "address": "3636 N Belt Line Rd, Irving, TX 75062",
        "phone": "(972) 514-1792",
        "state": "Texas",
        "products": "Chicken Lamb Beef",
        "expires": "2024-12-31T00:00:00",
        "certification": "HMS",
        "lat": 32.8561251,
        "lng": -96.9906987
    },
    {
        "name": "Star Restaurant",
        "address": "326 Chamberlain Ave, Paterson, NJ 07502",
        "phone": "(973) 653-3208",
        "state": "New Jersey",
        "products": "Chicken Lamb Goat Beef",
        "expires": "2024-12-31T00:00:00",
        "certification": "HMS",
        "lat": 40.9227548,
        "lng": -74.19228820000001
    },
    {
        "name": "Mannan Bakery Factory",
        "address": "149-21 Jamaica Ave, Jamaica, NY 11435",
        "phone": "0000000000",
        "state": "New York",
        "products": "Chicken Lamb Goat Beef All Bakery Items",
        "expires": "2024-12-31T00:00:00",
        "certification": "HMS",
        "lat": 40.7022236,
        "lng": -73.80493179999999
    },
    {
        "name": "Two Brothers Chicken & Sub (ONLY THIS LOCATION)",
        "address": "14845 Build America Dr, Woodbridge, VA 22191",
        "phone": "(703) 491-3663",
        "state": "Virginia",
        "products": "Chicken Beef",
        "expires": "2024-12-31T00:00:00",
        "certification": "HMS",
        "lat": 38.630405,
        "lng": -77.27295
    },
    {
        "name": "NYC Halal Eats",
        "address": "1939 E Wattles Rd, Troy, MI 48085",
        "phone": "(248) 729-7200",
        "state": "Michigan",
        "products": "Chicken Lamb Beef",
        "expires": "2024-12-31T00:00:00",
        "certification": "HMS",
        "lat": 42.5786926,
        "lng": -83.1105779
    },
    {
        "name": "Hyderabad Kitchen",
        "address": "6242 - 44 N. California Ave, Chicago, IL 60659",
        "phone": "(773) 961-7023",
        "state": "Illinois",
        "products": "Chicken Lamb Goat Veal Beef",
        "expires": "2024-12-31T00:00:00",
        "certification": "HMS",
        "lat": 41.9951483,
        "lng": -87.7000017
    },
    {
        "name": "Burgermania",
        "address": "274 West 40 Street, New York, NY 10018",
        "phone": "(929) 235-7861",
        "state": "New York",
        "products": "Chicken Lamb Beef",
        "expires": "2024-12-31T00:00:00",
        "certification": "HMS",
        "lat": 40.7557265,
        "lng": -73.99051519999999
    },
    {
        "name": "Al Bawadi Grill Bridgeview",
        "address": "7216 W 87TH ST, BRIDGEVIEW, IL 60455",
        "phone": "(708) 599-1999",
        "state": "Illinois",
        "products": "Chicken Lamb Beef",
        "expires": "2024-12-31T00:00:00",
        "certification": "HMS",
        "lat": 41.733812,
        "lng": -87.8011926
    },
    {
        "name": "Al Bawadi Grill Niles",
        "address": "8501 DEMPSTER ST, NILES, IL 60714",
        "phone": "(847) 957-1999",
        "state": "Illinois",
        "products": "Chicken Lamb Beef",
        "expires": "2024-12-31T00:00:00",
        "certification": "HMS",
        "lat": 42.039724,
        "lng": -87.8385538
    },
    {
        "name": "Healthy Sugar NYC (Yogurt La Crepe)",
        "address": "61 North Broadway, Tarrytown, NY 10591",
        "phone": "(914) 372-7037",
        "state": "New York",
        "products": "Chicken Lamb Goat Beef All Bakery Items",
        "expires": "2024-12-31T00:00:00",
        "certification": "HMS",
        "lat": 41.0784338,
        "lng": -73.8579034
    },
    {
        "name": "New Zaiqa",
        "address": "1316 N Clybourn Ave Chicago, IL 60610",
        "phone": "(312) 266-0786",
        "state": "Illinois",
        "products": "Chicken Lamb Goat Beef",
        "expires": "2024-12-31T00:00:00",
        "certification": "HMS",
        "lat": 41.9058932,
        "lng": -87.6429612
    },
    {
        "name": "La Estacion Deli & Pizzeria",
        "address": "22 1st Ave, Brentwood, NY 11717",
        "phone": "(631) 231-3131",
        "state": "New York",
        "products": "Chicken Lamb Goat Beef",
        "expires": "2024-12-31T00:00:00",
        "certification": "HMS",
        "lat": 40.7799905,
        "lng": -73.24690269999999
    },
    {
        "name": "Al-Medinah Restaurant",
        "address": "10158 West Broad Street, Glen Allen, VA 23060",
        "phone": "(804) 562-9470",
        "state": "Virginia",
        "products": "Chicken Lamb Goat Veal Beef",
        "expires": "2024-12-31T00:00:00",
        "certification": "HMS",
        "lat": 37.6462103,
        "lng": -77.5741996
    },
    {
        "name": "Byrd's Hot Chicken Algonquin",
        "address": "1748 S Randall Rd, Algonquin, IL 60102",
        "phone": "224-678-9433",
        "state": "Illinois",
        "products": "Chicken",
        "expires": "2024-12-31T00:00:00",
        "certification": "HMS",
        "lat": 42.1486428,
        "lng": -88.3380605
    },
    {
        "name": "Moon Restaurant",
        "address": "69-11 Woodside Ave, Woodside, NY 11377",
        "phone": "(718) 335-1828",
        "state": "New York",
        "products": "Chicken Lamb Goat Beef",
        "expires": "2024-12-31T00:00:00",
        "certification": "HMS",
        "lat": 40.7428073,
        "lng": -73.8951283
    },
    {
        "name": "Grill O Pizzeria & Kabab",
        "address": "72-55 Kissena Blvd, Flushing, NY 11367",
        "phone": "(718) 793-2984",
        "state": "New York",
        "products": "Chicken Lamb Goat Beef",
        "expires": "2024-12-31T00:00:00",
        "certification": "HMS",
        "lat": 40.7276675,
        "lng": -73.8129223
    },
    {
        "name": "Fahrenheit ",
        "address": "136 E Army Trail Rd, Glendale Heights, IL 60139",
        "phone": "(847) 466-5705",
        "state": "Illinois",
        "products": "Chicken Beef",
        "expires": "2024-12-31T00:00:00",
        "certification": "HMS",
        "lat": 41.938278,
        "lng": -88.0838771
    },
    {
        "name": "Halal Pizza & Food",
        "address": "15921 Weber Rd, Unit B, Crest Hill, IL 60403",
        "phone": "(815) 552-2452",
        "state": "Illinois",
        "products": "Chicken Lamb Goat Veal Beef",
        "expires": "2024-12-31T00:00:00",
        "certification": "HMS",
        "lat": 41.5942666,
        "lng": -88.1216884
    },
    {
        "name": "Hyderabad House JC",
        "address": "523 Newark Ave, Jersey City, NJ 07306",
        "phone": "(201) 876-2943",
        "state": "New Jersey",
        "products": "Chicken Lamb Goat Beef",
        "expires": "2024-12-31T00:00:00",
        "certification": "HMS",
        "lat": 40.7303206,
        "lng": -74.0558391
    },
    {
        "name": "Two Brothers Chicken Express",
        "address": "9745 Liberia Ave, Manassas, VA 20110",
        "phone": "(703) 595-0109",
        "state": "Virginia",
        "products": "Chicken Lamb Goat Beef",
        "expires": "2024-12-31T00:00:00",
        "certification": "HMS",
        "lat": 38.7438571,
        "lng": -77.4500113
    },
    {
        "name": "Halal Eatz",
        "address": "574B Stewart Ave, Bethpage, NY 11714",
        "phone": "(516) 813-7660",
        "state": "New York",
        "products": "Chicken Lamb Goat Beef",
        "expires": "2024-12-31T00:00:00",
        "certification": "HMS",
        "lat": 40.7433768,
        "lng": -73.4808445
    },
    {
        "name": "Holy Buckets",
        "address": "7331 W 87th St, Bridgeview, IL 60455",
        "phone": "(708) 931-4659",
        "state": "Illinois",
        "products": "Chicken Beef",
        "expires": "2024-12-31T00:00:00",
        "certification": "HMS",
        "lat": 41.7330468,
        "lng": -87.8028065
    },
    {
        "name": "BBQ King Express & Pizzeria",
        "address": "888 S GREENVILLE AVE #222, RICHARDSON, TX 75081",
        "phone": "(214) 238-6590 ",
        "state": "Texas",
        "products": "Chicken Lamb Goat Veal Beef",
        "expires": "2024-12-31T00:00:00",
        "certification": "HMS",
        "lat": 32.9383115,
        "lng": -96.73459729999999
    },
    {
        "name": "Cultura Subs",
        "address": "9432 Waukegan Rd, Morton Grove, IL 60053",
        "phone": "(872) 285-8872",
        "state": "Illinois",
        "products": "Chicken Beef",
        "expires": "2024-12-31T00:00:00",
        "certification": "HMS",
        "lat": 42.0532989,
        "lng": -87.799926
    },
    {
        "name": "Fatzee\u2019s",
        "address": "1608 Emerson St, Evanston. IL 60201",
        "phone": "847-859-6293",
        "state": "Illinois",
        "products": "Chicken Beef",
        "expires": "2024-12-31T00:00:00",
        "certification": "HMS",
        "lat": 42.0518782,
        "lng": -87.6950198
    },
    {
        "name": "HALAL EXPRESS MART (TAKE OUT)",
        "address": "6065 Dempster St, Morton Grove, IL 60053",
        "phone": "(224) 534-7048",
        "state": "Illinois",
        "products": "Chicken Lamb Goat Veal Beef",
        "expires": "2024-12-31T00:00:00",
        "certification": "HMS",
        "lat": 42.0405783,
        "lng": -87.7782986
    },
    {
        "name": "FLAME ON PERI PERI GRILL",
        "address": "7041 N MILWAUKEE AVE, NILES, IL 60714",
        "phone": "(847) 779-3950",
        "state": "Illinois",
        "products": "Chicken Beef",
        "expires": "2024-12-31T00:00:00",
        "certification": "HMS",
        "lat": 42.0095739,
        "lng": -87.7986313
    },
    {
        "name": "Mazadar Mediterranean Kitchen",
        "address": "1839 Central Ave, Albany, NY 12205",
        "phone": "(518) 464-0800",
        "state": "New York",
        "products": "Chicken Lamb Goat Beef",
        "expires": "2024-12-31T00:00:00",
        "certification": "HMS",
        "lat": 42.7320011,
        "lng": -73.84830199999999
    },
    {
        "name": "Al Safa (Restaurant) ",
        "address": "3146 W Touhy Ave,  Chicago, IL 60645",
        "phone": "(773) 654-1664",
        "state": "Illinois",
        "products": "Chicken Lamb Beef",
        "expires": "2024-12-31T00:00:00",
        "certification": "HMS",
        "lat": 42.01221779999999,
        "lng": -87.70861440000002
    },
    {
        "name": "Crescent Moon",
        "address": "3013 W Spring Creek Pkwy #200, Plano, TX 75023",
        "phone": "(972) 618-7888",
        "state": "Texas",
        "products": "Chicken Lamb Beef",
        "expires": "2024-12-31T00:00:00",
        "certification": "HMS",
        "lat": 33.058399,
        "lng": -96.7515684
    },
    {
        "name": "COCONUT HILL KITCHEN",
        "address": "1201 E Main St Suite 200, Allen, TX 75002",
        "phone": "(972) 332-8838",
        "state": "Texas",
        "products": "Chicken Lamb Goat Veal Beef",
        "expires": "2024-12-31T00:00:00",
        "certification": "HMS",
        "lat": 33.101026,
        "lng": -96.6412731
    },
    {
        "name": "Haji Ali Juice",
        "address": "6300 Independence Pkwy, Plano, TX 75023",
        "phone": "(469) 814-0258",
        "state": "Texas",
        "products": "Chicken Beef",
        "expires": "2024-12-31T00:00:00",
        "certification": "HMS",
        "lat": 33.0590971,
        "lng": -96.74951449999999
    },
    {
        "name": "SAL\u2019S NASHVILLE HOT CHICKEN",
        "address": "6205 Coit Rd Suite 352, Plano, TX 75024",
        "phone": "(972) 212-4403",
        "state": "Texas",
        "products": "Chicken",
        "expires": "2024-12-31T00:00:00",
        "certification": "HMS",
        "lat": 33.0573623,
        "lng": -96.7721456
    },
    {
        "name": "HADRAMOUT RESTAURANT & BAKERY",
        "address": "3100 W Devon Ave, Chicago, IL 60659",
        "phone": "(773) 942-7541",
        "state": "Illinois",
        "products": "Chicken Lamb Goat Beef",
        "expires": "2024-12-31T00:00:00",
        "certification": "HMS",
        "lat": 41.9977628,
        "lng": -87.70714889999999
    },
    {
        "name": "Kolachi Tandoori Grill\t",
        "address": "937 S Roselle Rd, Schaumburg, IL 60193",
        "phone": "(630) 339-9002",
        "state": "Illinois",
        "products": "Chicken Lamb Goat Veal Beef",
        "expires": "2024-12-31T00:00:00",
        "certification": "HMS",
        "lat": 42.01013,
        "lng": -88.0789028
    },
    {
        "name": "Azka BBQ",
        "address": "87-16 Parsons Blvd, Jamaica, NY 11432",
        "phone": "(718) 750-2952",
        "state": "New York",
        "products": "Chicken Lamb Goat Beef",
        "expires": "2024-12-31T00:00:00",
        "certification": "HMS",
        "lat": 40.7085263,
        "lng": -73.80368670000001
    },
    {
        "name": "Byrd's Hot Chicken Skokie",
        "address": "4839 OAKTON ST, SKOKIE, IL 60077",
        "phone": "(224) 251-8296",
        "state": "Illinois",
        "products": "Chicken",
        "expires": "2024-12-31T00:00:00",
        "certification": "HMS",
        "lat": 42.0260162,
        "lng": -87.7492876
    },
    {
        "name": "Calibun",
        "address": "23-14 36 Ave, Astoria, NY 11106",
        "phone": "(347) 848-0080",
        "state": "New York",
        "products": "Chicken Lamb Beef",
        "expires": "2024-12-31T00:00:00",
        "certification": "HMS",
        "lat": 40.75878489999999,
        "lng": -73.93477659999999
    },
    {
        "name": "Holy Cow JFK",
        "address": "125 JFK Travel Plaza, Jamaica, NY 11430",
        "phone": "(718) 691-6382",
        "state": "New York",
        "products": "Chicken Lamb Beef Turkey",
        "expires": "2024-12-31T00:00:00",
        "certification": "HMS",
        "lat": 40.6630354,
        "lng": -73.7925838
    },
    {
        "name": "Sweet Reserve Bakery",
        "address": "625 E Roosevelt Rd, Lombard, IL 60148",
        "phone": "(630) 899-4896",
        "state": "Illinois",
        "products": "Chicken Beef",
        "expires": "2024-12-31T00:00:00",
        "certification": "HMS",
        "lat": 41.8601689,
        "lng": -88.00169919999999
    },
    {
        "name": "Classic International Market (Kitchen)",
        "address": "2310 Virginia Pkwy #130, McKinney, TX 75071",
        "phone": "(469) 714-0060",
        "state": "Texas",
        "products": "Chicken Lamb Goat Veal Beef",
        "expires": "2024-12-31T00:00:00",
        "certification": "HMS",
        "lat": 33.1989462,
        "lng": -96.6427252
    },
    {
        "name": "La Charanga Mexican Halal",
        "address": "4003 W. Algonquin Road Rolling Meadows, IL 60008",
        "phone": "(847) 496-5642",
        "state": "Illinois",
        "products": "Chicken Lamb Beef",
        "expires": "2024-12-31T00:00:00",
        "certification": "HMS",
        "lat": 42.0629261,
        "lng": -88.0304993
    },
    {
        "name": "Hotstone",
        "address": "908 E Roosevelt Rd, Lombard, IL 60148",
        "phone": "(630) 613-8173",
        "state": "Illinois",
        "products": "Chicken Beef",
        "expires": "2024-12-31T00:00:00",
        "certification": "HMS",
        "lat": 41.8609304,
        "lng": -87.995002
    },
    {
        "name": "Sagar Restaurant (ONLY THIS RESTAURANT, VERIFY ADDRESS)",
        "address": "168-25B Hillside Ave, Jamaica, NY 11432",
        "phone": "(718) 298-5696",
        "state": "New York",
        "products": "Chicken Lamb Goat Beef",
        "expires": "2024-12-31T00:00:00",
        "certification": "HMS",
        "lat": 40.7107692,
        "lng": -73.7934111
    },
    {
        "name": "Fiery Hot Nashville Chicken",
        "address": "151 W Spring Creek Pkwy Ste 509, Plano, TX 75023",
        "phone": "(469) 814-0959",
        "state": "Texas",
        "products": "Chicken",
        "expires": "2024-12-31T00:00:00",
        "certification": "HMS",
        "lat": 33.0582625,
        "lng": -96.6955799
    },
    {
        "name": "Student Burger",
        "address": "2110 Army Trail Rd, Addison, IL 60101",
        "phone": "(630) 376-6058",
        "state": "Illinois",
        "products": "Chicken Beef",
        "expires": "2024-12-31T00:00:00",
        "certification": "HMS",
        "lat": 41.9332649,
        "lng": -88.0430751
    },
    {
        "name": "Mirch Family Dining",
        "address": "2510 W. Devon Ave, Chicago, IL 60659",
        "phone": "(773) 942-6800",
        "state": "Illinois",
        "products": "Chicken Lamb Goat Veal Beef",
        "expires": "2024-12-31T00:00:00",
        "certification": "HMS",
        "lat": 41.9979352,
        "lng": -87.69290629999999
    },
    {
        "name": "OMG Nafisa's Kitchen",
        "address": "6027 Dempster St, Morton Grove, IL 60053",
        "phone": "(224) 534-7525",
        "state": "Illinois",
        "products": "Chicken Lamb Goat Veal Beef",
        "expires": "2024-12-31T00:00:00",
        "certification": "HMS",
        "lat": 42.04063319999999,
        "lng": -87.7773818
    },
    {
        "name": "Byrd's Hot Chicken Schereville ",
        "address": "800 CEDAR PARKWAY, SCHEREVILLE, IN 46375",
        "phone": "(219) 322-6601",
        "state": "Indiana",
        "products": "Chicken",
        "expires": "2024-01-31T00:00:00",
        "certification": "HMS",
        "lat": 41.5141268,
        "lng": -87.4716445
    },
    {
        "name": "Ali Nihari",
        "address": "2548 W Devon Ave, Chicago, IL 60659",
        "phone": "(773) 856-0203",
        "state": "Illinois",
        "products": "Chicken Lamb Goat Veal Beef",
        "expires": "2024-12-31T00:00:00",
        "certification": "HMS",
        "lat": 41.997895,
        "lng": -87.6943391
    },
    {
        "name": "Art of Wings Bubbleology",
        "address": "2034 Green Acres Mall Rd, Valley Stream, NY 11581",
        "phone": "(516) 400-7900",
        "state": "New York",
        "products": "Chicken Lamb Goat Veal Beef",
        "expires": "2024-12-31T00:00:00",
        "certification": "HMS",
        "lat": 40.6620838,
        "lng": -73.71946729999999
    },
    {
        "name": "Texas King Irving",
        "address": "3455 N Beltline Rd, Irving, TX 75062 ",
        "phone": "(972) 871-0006",
        "state": "Texas",
        "products": "Chicken Lamb Goat Veal Beef",
        "expires": "2024-12-31T00:00:00",
        "certification": "HMS",
        "lat": 32.8540266,
        "lng": -96.99303909999999
    },
    {
        "name": "Food Paradise ",
        "address": "3825 W Spring Creek Pkwy Plano, TX 75023",
        "phone": "(972) 596-7786",
        "state": "Texas",
        "products": "Chicken Lamb Goat Veal Beef",
        "expires": "2024-12-31T00:00:00",
        "certification": "HMS",
        "lat": 33.0570626,
        "lng": -96.76799349999999
    },
    {
        "name": "Al Haramain Restaurant",
        "address": "24065 Orchard Lake Rd, Farmington, MI 48336",
        "phone": "(248) 476-0300",
        "state": "Michigan",
        "products": "Chicken Lamb Goat Veal Beef",
        "expires": "2024-12-31T00:00:00",
        "certification": "HMS",
        "lat": 42.4691862,
        "lng": -83.3582141
    },
    {
        "name": "Smokin Grill Xpress",
        "address": "3611 14th St, Suite 110, Plano, TX 75074",
        "phone": "(469) 755-9062",
        "state": "Texas",
        "products": "Chicken Lamb Goat Beef",
        "expires": "2024-12-31T00:00:00",
        "certification": "HMS",
        "lat": 33.0148118,
        "lng": -96.6635091
    },
    {
        "name": "Jazeera Restaurant",
        "address": "37 W John Street, Hicksville, NY 11801",
        "phone": "(631) 229-3646",
        "state": "New York",
        "products": "Chicken Lamb Goat Veal Beef",
        "expires": "2024-12-31T00:00:00",
        "certification": "HMS",
        "lat": 40.7688378,
        "lng": -73.52814699999999
    },
    {
        "name": "Slappin Chick",
        "address": "19 N Broadway, Hicksville, NY 11801",
        "phone": "(718) 569-5580",
        "state": "New York",
        "products": "Chicken Beef",
        "expires": "2024-12-31T00:00:00",
        "certification": "HMS",
        "lat": 40.7690613,
        "lng": -73.5253393
    },
    {
        "name": "Arzan Market & Cafe",
        "address": "4702 N KIMBALL AVE, CHICAGO, IL 60625",
        "phone": "(312) 898-2432",
        "state": "Illinois",
        "products": "Chicken Lamb Goat Veal Beef",
        "expires": "2024-12-31T00:00:00",
        "certification": "HMS",
        "lat": 41.96678050000001,
        "lng": -87.71377389999999
    },
    {
        "name": "Pizza Stop",
        "address": "4251 E Renner Rd, Richardson, TX 75082",
        "phone": "(972) 975-5555",
        "state": "Texas",
        "products": "Chicken Lamb Beef",
        "expires": "2024-12-31T00:00:00",
        "certification": "HMS",
        "lat": 33.0024947,
        "lng": -96.64294559999999
    },
    {
        "name": "AL HALAL ZAIQA",
        "address": "449 W North Ave, Chicago, IL 60610",
        "phone": "(312) 763-6972",
        "state": "Illinois",
        "products": "Chicken Lamb Goat Veal Beef",
        "expires": "2024-12-31T00:00:00",
        "certification": "HMS",
        "lat": 41.9108127,
        "lng": -87.6404836
    },
    {
        "name": "NYC Halal Eats",
        "address": "24311 Halsted Rd, Farmington Hills, MI 48335",
        "phone": "(248) 987-7100",
        "state": "Michigan",
        "products": "Chicken Lamb Beef",
        "expires": "2024-12-31T00:00:00",
        "certification": "HMS",
        "lat": 42.4696131,
        "lng": -83.416552
    },
    {
        "name": "TANDOORI AL BADIA",
        "address": "234 Roosevelt Rd, Villa Park, IL 60181",
        "phone": "(630) 433-2023",
        "state": "Illinois",
        "products": "Chicken Lamb Goat Veal Beef",
        "expires": "2024-12-31T00:00:00",
        "certification": "HMS",
        "lat": 41.8613129,
        "lng": -87.9846946
    },
    {
        "name": "Burns Road Foods",
        "address": "491 Manalapan Rd, Suite #6, Spotswood, NJ 08884",
        "phone": "(833) 287-6773",
        "state": "New Jersey",
        "products": "Chicken Lamb Goat Beef",
        "expires": "2024-12-31T00:00:00",
        "certification": "HMS",
        "lat": 40.3818638,
        "lng": -74.4097839
    },
    {
        "name": "Lekka Chows",
        "address": "297 North Central Ave, Valley Stream, NY 11580",
        "phone": "(516) 612-3227",
        "state": "New York",
        "products": "Chicken Lamb Beef",
        "expires": "2024-12-31T00:00:00",
        "certification": "HMS",
        "lat": 40.6759342,
        "lng": -73.7091252
    },
    {
        "name": "Deccan Grill Irving",
        "address": "535 W Airport Fwy #110, Irving, TX 75062",
        "phone": "(972) 594-1999",
        "state": "Texas",
        "products": "Chicken Lamb Goat Veal Beef",
        "expires": "2024-12-31T00:00:00",
        "certification": "HMS",
        "lat": 32.83918990000001,
        "lng": -96.953542
    },
    {
        "name": "Deccan Grill Frisco",
        "address": "2693 Preston Rd #1052, Frisco, TX 75034",
        "phone": "(214) 308-9988",
        "state": "Texas",
        "products": "Chicken Lamb Goat Veal Beef",
        "expires": "1950-01-01T00:00:00",
        "certification": "HMS",
        "lat": 33.1015123,
        "lng": -96.8066847
    },
    {
        "name": "Moho Mexican Grill",
        "address": "38-05 Bell Blvd, Bayside, NY 11361",
        "phone": "(718) 709-9695",
        "state": "New York",
        "products": "Chicken Beef",
        "expires": "2024-12-31T00:00:00",
        "certification": "HMS",
        "lat": 40.7663438,
        "lng": -73.7721818
    },
    {
        "name": "Bison Burger",
        "address": "598 Potter Rd, Des Plaines, IL 60016",
        "phone": "(224) 601-4031",
        "state": "Illinois",
        "products": "Chicken Beef",
        "expires": "2024-12-31T00:00:00",
        "certification": "HMS",
        "lat": 42.0435313,
        "lng": -87.8605302
    },
    {
        "name": "Labbaik Karahi Restaurant ",
        "address": "1682 Central Ct, Valley Stream, NY 11580",
        "phone": "(516) 599-2500",
        "state": "New York",
        "products": "Chicken Lamb Goat Veal Beef",
        "expires": "2024-12-31T00:00:00",
        "certification": "HMS",
        "lat": 40.6813523,
        "lng": -73.7113066
    },
    {
        "name": "UROOJ CATERERS AND BBQ",
        "address": "SKOKIE, IL",
        "phone": "(224) 935-2516",
        "state": "Illinois",
        "products": "Chicken Lamb Goat Veal Beef Caterer",
        "expires": "2024-12-31T00:00:00",
        "certification": "HMS",
        "lat": 42.0324025,
        "lng": -87.7416246
    },
    {
        "name": "Holy Cow Uniondale",
        "address": "315 Oak Street, Uniondale, NY 11553",
        "phone": "(516) 407-3305",
        "state": "New York",
        "products": "Chicken Lamb Beef Turkey",
        "expires": "2024-12-31T00:00:00",
        "certification": "HMS",
        "lat": 40.721888,
        "lng": -73.6069934
    },
    {
        "name": "Grillwaale",
        "address": "315 Oak Street, Uniondale, NY 11553\t",
        "phone": "(516) 774-1854",
        "state": "New York",
        "products": "Chicken Lamb Goat Beef",
        "expires": "2024-12-31T00:00:00",
        "certification": "HMS",
        "lat": 40.721888,
        "lng": -73.6069934
    },
    {
        "name": "Midnight Curry ",
        "address": "240-09 Linden Blvd, Elmont, NY 11003\t",
        "phone": "(516) 200-6339",
        "state": "New York",
        "products": "Chicken Lamb Goat Beef",
        "expires": "2024-12-31T00:00:00",
        "certification": "HMS",
        "lat": 40.6897458,
        "lng": -73.7221108
    },
    {
        "name": "Dhaka Restaurant ",
        "address": "168-32 Hillside Ave, Jamaica, NY 11432",
        "phone": "(718) 262-9774",
        "state": "New York",
        "products": "Chicken Lamb Goat Beef",
        "expires": "2024-12-31T00:00:00",
        "certification": "HMS",
        "lat": 40.710186,
        "lng": -73.7935418
    },