{"timestamp": 1782576740, "updated": "Jun 27, 2026", "places": [{"name": "Butt Karhai", "address": "2433 W Devon Ave, Chicago, IL 60659, USA", "phone": "(773) 764-3737", "state": "Illinois", "products": ["Chicken", "Lamb", "Goat", "Veal", "Beef"], "expires": "Dec 31, 26", "certification": "HMS", "lat": 41.99752549999999, "lng": -87.6912838, "nav_url": "https://www.google.com/maps/search/?api=1&query=2433%20W%20Devon%20Ave%2C%20Chicago%2C%20IL%2060659%2C%20USA&query_place_id=ChIJITaZBnPRD4gRdkCb9htG2eQ"}, {"name": "Campus Town Grill", "address": "300 Main Blvd E #501, Ewing Township, NJ 08618, USA", "phone": "(609) 225-9700", "state": "New Jersey", "products": ["Chicken", "Lamb", "Beef"], "expires": "Sep 24, 26", "certification": "HMS", "lat": 40.2677418, "lng": -74.783216, "nav_url": "https://www.google.com/maps/search/?api=1&query=300%20Main%20Blvd%20E%20%23501%2C%20Ewing%20Township%2C%20NJ%2008618%2C%20USA&query_place_id=ChIJ6SexTK5XwYkRRNjGm0p1rRM"}, {"name": "Mr. Broast Rosemont", "address": "7104 Mannheim Rd, Rosemont, IL 60018, USA", "phone": "(847) 813-5797", "state": "Illinois", "products": ["Chicken", "Beef"], "expires": "Dec 31, 26", "certification": "HMS", "lat": 42.0082683, "lng": -87.88706309999999, "nav_url": "https://www.google.com/maps/search/?api=1&query=7104%20Mannheim%20Rd%2C%20Rosemont%2C%20IL%2060018%2C%20USA&query_place_id=ChIJNWkPYVq2D4gRZkxswphiY-Y"}, {"name": "Sultan Sufra", "address": "498 West Side Ave, Jersey City, NJ 07304, USA", "phone": "(201) 449-5355", "state": "New Jersey", "products": ["Chicken", "Lamb", "Goat", "Beef"], "expires": "Sep 17, 26", "certification": "HMS", "lat": 40.7179513, "lng": -74.0839763, "nav_url": "https://www.google.com/maps/search/?api=1&query=498%20West%20Side%20Ave%2C%20Jersey%20City%2C%20NJ%2007304%2C%20USA&query_place_id=ChIJiXBafCtRwokRzHWX2Xe4jFI"}, {"name": "Villa Palermo", "address": "2154 W Devon Ave, Chicago, IL 60659, USA", "phone": "(773) 465-5400", "state": "Illinois", "products": ["Chicken", "Beef"], "expires": "Dec 31, 26", "certification": "HMS", "lat": 41.9979862, "lng": -87.68473449999999, "nav_url": "https://www.google.com/maps/search/?api=1&query=2154%20W%20Devon%20Ave%2C%20Chicago%2C%20IL%2060659%2C%20USA&query_place_id=ChIJCdfTDXDRD4gRa4UQFGrtAJY"}, {"name": "Dastarkhwan Signature", "address": "2439 W Devon Ave, Chicago, IL 60659, USA", "phone": "(773) 961-7460", "state": "Illinois", "products": ["Chicken", "Lamb", "Goat", "Veal", "Beef"], "expires": "Dec 31, 26", "certification": "HMS", "lat": 41.9974537, "lng": -87.6915552, "nav_url": "https://www.google.com/maps/search/?api=1&query=2439%20W%20Devon%20Ave%2C%20Chicago%2C%20IL%2060659%2C%20USA&query_place_id=ChIJF9pIMQDRD4gR9eZAj4nHYo4"}, {"name": "Guac Time Mexican Grill (Only This Location)", "address": "221 Main St, Hackensack, NJ 07601, USA", "phone": "(201) 455-6005", "state": "New Jersey", "products": ["Chicken", "Beef"], "expires": "Sep 10, 26", "certification": "HMS", "lat": 40.8853625, "lng": -74.0423824, "nav_url": "https://www.google.com/maps/search/?api=1&query=221%20Main%20St%2C%20Hackensack%2C%20NJ%2007601%2C%20USA&query_place_id=ChIJ71kpPwD7wokRJ4MFpnRrGOg"}, {"name": "Olive & Garlic Pizzeria", "address": "970 Hempstead Turnpike, Franklin Square, NY 11010, USA", "phone": "(516) 673-4630", "state": "New York", "products": ["Chicken", "Lamb", "Beef"], "expires": "Sep 10, 26", "certification": "HMS", "lat": 40.70766589999999, "lng": -73.67601309999999, "nav_url": "https://www.google.com/maps/search/?api=1&query=970%20Hempstead%20Turnpike%2C%20Franklin%20Square%2C%20NY%2011010%2C%20USA&query_place_id=ChIJSXiIvyFjwokR5r5u2BeuDvI"}, {"name": "Cloud Naan", "address": "888 S Greenville Ave unit 224, Richardson, TX 75081, USA", "phone": "(214) 200-3347", "state": "Texas", "products": ["Chicken", "Beef"], "expires": "Dec 31, 26", "certification": "HMS", "lat": 32.9382151, "lng": -96.73468439999999, "nav_url": "https://www.google.com/maps/search/?api=1&query=888%20S%20Greenville%20Ave%20unit%20224%2C%20Richardson%2C%20TX%2075081%2C%20USA&query_place_id=ChIJg2L3PwAfTIYR55v9pnesa4M"}, {"name": "Mighty Halal", "address": "1300 S Main St v, Lombard, IL 60148, USA", "phone": "(331) 551-6889", "state": "Illinois", "products": ["Chicken", "Beef"], "expires": "Dec 31, 26", "certification": "HMS", "lat": 41.8586692, "lng": -88.01920299999999, "nav_url": "https://www.google.com/maps/search/?api=1&query=1300%20S%20Main%20St%20v%2C%20Lombard%2C%20IL%2060148%2C%20USA&query_place_id=ChIJBQjb3GZTDogR9m12ucD0Gxc"}, {"name": "Holy Burger Richmond", "address": "8300 Brook Rd, Richmond, VA 23227, USA", "phone": "(804) 269-0717", "state": "Virginia", "products": ["Chicken", "Lamb", "Beef"], "expires": "Aug 26, 26", "certification": "HMS", "lat": 37.6364948, "lng": -77.4598481, "nav_url": "https://www.google.com/maps/search/?api=1&query=8300%20Brook%20Rd%2C%20Richmond%2C%20VA%2023227%2C%20USA&query_place_id=ChIJJW1j96oXsYkRFSUaqMWXSVo"}, {"name": "Rude Rooster", "address": "109 S Main St d, Lombard, IL 60148, USA", "phone": "(331) 307-7443", "state": "Illinois", "products": ["Chicken", "Beef"], "expires": "Dec 31, 26", "certification": "HMS", "lat": 41.8855377, "lng": -88.0175866, "nav_url": "https://www.google.com/maps/search/?api=1&query=109%20S%20Main%20St%20d%2C%20Lombard%2C%20IL%2060148%2C%20USA&query_place_id=ChIJA2rWrJBTDogR5juLcjcxdnI"}, {"name": "Karachi Restaurant", "address": "711 W Historic Mitchell St, Milwaukee, WI 53204, USA", "phone": "+14146762929", "state": "Wisconsin", "products": ["Chicken", "Lamb", "Goat", "Veal", "Beef"], "expires": "Dec 31, 26", "certification": "HMS", "lat": 43.0121025, "lng": -87.9203993, "nav_url": "https://www.google.com/maps/search/?api=1&query=711%20W%20Historic%20Mitchell%20St%2C%20Milwaukee%2C%20WI%2053204%2C%20USA&query_place_id=ChIJO8li7cEZBYgRJ9A3bqllogg"}, {"name": "Halal Mandi House", "address": "6240 N California Ave, Chicago, IL 60659, USA", "phone": "(773) 739-9898", "state": "Illinois", "products": ["Chicken", "Lamb", "Goat", "Veal", "Beef"], "expires": "Dec 31, 26", "certification": "HMS", "lat": 41.995156, "lng": -87.7, "nav_url": "https://www.google.com/maps/search/?api=1&query=6240%20N%20California%20Ave%2C%20Chicago%2C%20IL%2060659%2C%20USA&query_place_id=ChIJvbYivaDPD4gR_sRKwl3Si4o"}, {"name": "Asada Mexican Grill (Aurora-Naperville)", "address": "633 Rte 59, Aurora, IL 60504, USA", "phone": "(331) 300-2459", "state": "Illinois", "products": ["Chicken", "Beef"], "expires": "Dec 31, 26", "certification": "HMS", "lat": 41.74776869999999, "lng": -88.2090058, "nav_url": "https://www.google.com/maps/search/?api=1&query=633%20Rte%2059%2C%20Aurora%2C%20IL%2060504%2C%20USA&query_place_id=ChIJgYfrdHb5DogRdrHTeeS0seE"}, {"name": "Turan Uyghur Kitchen (Katy)", "address": "402 W Grand Pkwy S #108, Katy, TX 77494, USA", "phone": "(281) 392-9200", "state": "Texas", "products": ["Chicken", "Lamb", "Goat", "Beef"], "expires": "Dec 31, 26", "certification": "HMS", "lat": 29.776941, "lng": -95.7791402, "nav_url": "https://www.google.com/maps/search/?api=1&query=402%20W%20Grand%20Pkwy%20S%20%23108%2C%20Katy%2C%20TX%2077494%2C%20USA&query_place_id=ChIJRZHNvD8nQYYR-hNPKDTzfNw"}, {"name": "Burns Road Foods", "address": "3151 NJ-27, Franklin Park, NJ 08823, USA", "phone": "(833) 287-6773", "state": "New Jersey", "products": ["Chicken", "Lamb", "Goat", "Beef"], "expires": "Dec 31, 26", "certification": "HMS", "lat": 40.4359563, "lng": -74.5438128, "nav_url": "https://www.google.com/maps/search/?api=1&query=3151%20NJ-27%2C%20Franklin%20Park%2C%20NJ%2008823%2C%20USA&query_place_id=ChIJBceJdLrFw4kRu1pJFrMZVfY"}, {"name": "Subah Cafe", "address": "101 S Main St, Lombard, IL 60148, USA", "phone": "847) 845-2071", "state": "Illinois", "products": ["Chicken", "Beef"], "expires": "Dec 31, 26", "certification": "HMS", "lat": 41.8861147, "lng": -88.018053, "nav_url": "https://www.google.com/maps/search/?api=1&query=101%20S%20Main%20St%2C%20Lombard%2C%20IL%2060148%2C%20USA&query_place_id=ChIJQ903FgitD4gR47kY9TcHyCM"}, {"name": "Tandoori Al-Badia", "address": "5990 Dempster St, Morton Grove, IL 60053, USA", "phone": "847) 324-6050", "state": "Illinois", "products": ["Chicken", "Lamb", "Goat", "Veal", "Beef"], "expires": "Dec 31, 26", "certification": "HMS", "lat": 42.04119619999999, "lng": -87.7760751, "nav_url": "https://www.google.com/maps/search/?api=1&query=5990%20Dempster%20St%2C%20Morton%20Grove%2C%20IL%2060053%2C%20USA&query_place_id=ChIJEZzztRvPD4gRLtFZF2rUh-w"}, {"name": "Sal\u2019s Nashville Hot Chicken", "address": "746 S Central Expy #120, Richardson, TX 75080, USA", "phone": "+12142386422", "state": "Texas", "products": ["Chicken"], "expires": "Dec 31, 26", "certification": "HMS", "lat": 32.9426804, "lng": -96.743563, "nav_url": "https://www.google.com/maps/search/?api=1&query=746%20S%20Central%20Expy%20%23120%2C%20Richardson%2C%20TX%2075080%2C%20USA&query_place_id=ChIJs4RQHD8fTIYRwRc5ZK9YbNI"}, {"name": "Guacado Mexican Grill (Only This Location)", "address": "490 Pearl St, Buffalo, NY 14202, USA", "phone": "(716) 240-9803", "state": "New York", "products": ["Chicken", "Lamb", "Beef"], "expires": "Jul 29, 26", "certification": "HMS", "lat": 42.8926453, "lng": -78.87367139999999, "nav_url": "https://www.google.com/maps/search/?api=1&query=490%20Pearl%20St%2C%20Buffalo%2C%20NY%2014202%2C%20USA&query_place_id=ChIJYZV7WQoT04kRBGFt4Yke-GI"}, {"name": "Urban Crust Pizza & Grill", "address": "1150 Liberty Ave, Brooklyn, NY 11208, USA", "phone": "(718) 314-6236", "state": "New York", "products": ["Chicken", "Lamb", "Beef"], "expires": "Jul 27, 26", "certification": "HMS", "lat": 40.6785412, "lng": -73.8666818, "nav_url": "https://www.google.com/maps/search/?api=1&query=1150%20Liberty%20Ave%2C%20Brooklyn%2C%20NY%2011208%2C%20USA&query_place_id=ChIJmdEqKPhdwokRnzdGrDeBvSQ"}, {"name": "Falafel & Grill", "address": "6699 Lincoln Ave, Lincolnwood, IL 60712, USA", "phone": "+18478576699", "state": "Illinois", "products": ["Chicken", "Lamb", "Beef"], "expires": "Dec 31, 26", "certification": "HMS", "lat": 42.0028222, "lng": -87.7270934, "nav_url": "https://www.google.com/maps/search/?api=1&query=6699%20Lincoln%20Ave%2C%20Lincolnwood%2C%20IL%2060712%2C%20USA&query_place_id=ChIJT8MD2GLPD4gRWKLH3Xw6zGY"}, {"name": "Slappin Chick Hicksville", "address": "19 N Broadway, Hicksville, NY 11801, USA", "phone": "(718) 569-5580", "state": "New York", "products": ["Chicken", "Lamb", "Beef"], "expires": "Jul 08, 26", "certification": "HMS", "lat": 40.7690613, "lng": -73.5253393, "nav_url": "https://www.google.com/maps/search/?api=1&query=19%20N%20Broadway%2C%20Hicksville%2C%20NY%2011801%2C%20USA&query_place_id=ChIJ8XonSp2BwokR27itfnrCH2E"}, {"name": "Slappin Chick Selden", "address": "1245 Middle Country Rd, Selden, NY 11784, USA", "phone": "(631) 846-3536", "state": "New York", "products": ["Chicken", "Lamb", "Beef"], "expires": "Jul 08, 26", "certification": "HMS", "lat": 40.8633335, "lng": -73.05427089999999, "nav_url": "https://www.google.com/maps/search/?api=1&query=1245%20Middle%20Country%20Rd%2C%20Selden%2C%20NY%2011784%2C%20USA&query_place_id=ChIJn7nwywtH6IkRAt1eDAuU-F4"}, {"name": "Mirchi Boyz", "address": "203 W Parsons St, Manor, TX 78653, USA", "phone": "(512) 640 - 9545", "state": "Texas", "products": ["Chicken", "Beef"], "expires": "Dec 31, 26", "certification": "HMS", "lat": 30.34150189999999, "lng": -97.5590538, "nav_url": "https://www.google.com/maps/search/?api=1&query=203%20W%20Parsons%20St%2C%20Manor%2C%20TX%2078653%2C%20USA&query_place_id=ChIJ9a1K3pnHRIYRkoeNrqdA9L8"}, {"name": "Souq Fresh Market", "address": "523 E Roosevelt Rd, Lombard, IL 60148, USA", "phone": "(630) 613-1176", "state": "Illinois", "products": ["Chicken", "Lamb", "Goat", "Veal", "Beef"], "expires": "Dec 31, 26", "certification": "HMS", "lat": 41.8586237, "lng": -88.0040518, "nav_url": "https://www.google.com/maps/search/?api=1&query=523%20E%20Roosevelt%20Rd%2C%20Lombard%2C%20IL%2060148%2C%20USA&query_place_id=ChIJCxWBCH5NDogRf84qEDUg_fE"}, {"name": "Bite Burst", "address": "2622 W Walnut St, Garland, TX 75042, USA", "phone": "6028771042", "state": "Texas", "products": ["Chicken", "Beef"], "expires": "Dec 31, 26", "certification": "HMS", "lat": 32.9162644, "lng": -96.6677327, "nav_url": "https://www.google.com/maps/search/?api=1&query=2622%20W%20Walnut%20St%2C%20Garland%2C%20TX%2075042%2C%20USA&query_place_id=ChIJgel6voYfTIYRppVVxurTTTY"}, {"name": "Salaam Market", "address": "7103 Staples Mill Rd, Richmond, VA 23228, USA", "phone": "(804) 262-9950", "state": "Virginia", "products": ["Chicken", "Lamb", "Goat", "Beef"], "expires": "Dec 31, 26", "certification": "HMS", "lat": 37.614125, "lng": -77.49614199999999, "nav_url": "https://www.google.com/maps/search/?api=1&query=7103%20Staples%20Mill%20Rd%2C%20Richmond%2C%20VA%2023228%2C%20USA&query_place_id=ChIJ3x8a-LYVsYkRtdHhWmGUQW8"}, {"name": "Sabri Nihari", "address": "2502 W Devon Ave, Chicago, IL 60659, USA", "phone": "(773) 465-3272", "state": "Illinois", "products": ["Chicken", "Lamb", "Goat", "Veal", "Beef"], "expires": "Dec 31, 26", "certification": "HMS", "lat": 41.9978139, "lng": -87.6925723, "nav_url": "https://www.google.com/maps/search/?api=1&query=2502%20W%20Devon%20Ave%2C%20Chicago%2C%20IL%2060659%2C%20USA&query_place_id=ChIJFVZR1t3RD4gRVvYqcGhnaxw"}, {"name": "Holy Smash", "address": "3405 Breckenridge Dr, Indianapolis, IN 46228, USA", "phone": "3172062701", "state": "Indiana", "products": ["Chicken", "Beef"], "expires": "Dec 31, 26", "certification": "HMS", "lat": 39.9119946, "lng": -86.2234356, "nav_url": "https://www.google.com/maps/search/?api=1&query=3405%20Breckenridge%20Dr%2C%20Indianapolis%2C%20IN%2046228%2C%20USA&query_place_id=ChIJW5FNEudXa4gRjZjLG9oW3nM"}, {"name": "Hello Shawarma Niles", "address": "5606 Touhy Ave, Niles, IL 60714, USA", "phone": "(847) 636-4444", "state": "Illinois", "products": ["Chicken", "Lamb", "Beef"], "expires": "Dec 31, 26", "certification": "HMS", "lat": 42.01306960000001, "lng": -87.76797400000001, "nav_url": "https://www.google.com/maps/search/?api=1&query=5606%20Touhy%20Ave%2C%20Niles%2C%20IL%2060714%2C%20USA&query_place_id=ChIJs2BDL5DPD4gRsz5vcmeuxOI"}, {"name": "Saffron Restaurant (Westmont, IL)", "address": "329 W 63rd St, Westmont, IL 60559, USA", "phone": "(224) 631-4275", "state": "Illinois", "products": ["Chicken", "Lamb", "Goat", "Beef"], "expires": "Dec 31, 26", "certification": "HMS", "lat": 41.77284, "lng": -87.9829252, "nav_url": "https://www.google.com/maps/search/?api=1&query=329%20W%2063rd%20St%2C%20Westmont%2C%20IL%2060559%2C%20USA&query_place_id=ChIJ6QBuJE5PDogR1BBUJ9mzSsI"}, {"name": "Southern Burn Chicken", "address": "2906 Hillsborough St, Raleigh, NC 27607, USA", "phone": "(919) 301-8856", "state": "North Carolina", "products": ["Chicken"], "expires": "Dec 31, 26", "certification": "HMS", "lat": 35.7896724, "lng": -78.6753548, "nav_url": "https://www.google.com/maps/search/?api=1&query=2906%20Hillsborough%20St%2C%20Raleigh%2C%20NC%2027607%2C%20USA&query_place_id=ChIJcX5sODD1rIkRPk2KWCEwF5c"}, {"name": "The Port of Peri Peri East Rutherford", "address": "51 NJ-17, Unit 49, East Rutherford, NJ 07073, USA", "phone": "(201) 414- 5505", "state": "New Jersey", "products": ["Chicken", "Lamb", "Beef"], "expires": "Dec 31, 26", "certification": "HMS", "lat": 40.8313427, "lng": -74.0920596, "nav_url": "https://www.google.com/maps/search/?api=1&query=51%20NJ-17%2C%20Unit%2049%2C%20East%20Rutherford%2C%20NJ%2007073%2C%20USA&query_place_id=ChIJN-7Fd6D5wokRgkTfthJyzB4"}, {"name": "Holy Burger Beverly", "address": "131 Rantoul St, Beverly, MA 01915, USA", "phone": "(413) 563-3852", "state": "Massachusetts", "products": ["Chicken", "Lamb", "Beef", "Turkey"], "expires": "May 12, 26", "certification": "HMS", "lat": 42.5463594, "lng": -70.8842808, "nav_url": "https://www.google.com/maps/search/?api=1&query=131%20Rantoul%20St%2C%20Beverly%2C%20MA%2001915%2C%20USA&query_place_id=ChIJEVpYQh8U44kRMARA5u0xZLE"}, {"name": "Mintza", "address": "2245 W Devon Ave, Chicago, IL 60659, USA", "phone": "(773) 739-9231", "state": "Illinois", "products": ["Chicken", "Lamb", "Goat", "Beef"], "expires": "Dec 31, 26", "certification": "HMS", "lat": 41.9975876, "lng": -87.68679039999999, "nav_url": "https://www.google.com/maps/search/?api=1&query=2245%20W%20Devon%20Ave%2C%20Chicago%2C%20IL%2060659%2C%20USA&query_place_id=ChIJ5d7QEgDRD4gRNMjzjgJ-6I0"}, {"name": "See Outside Holy Burger Southfield", "address": "26780 Southfield Rd, Lathrup Village, MI 48076, USA", "phone": "(248) 281-4962", "state": "Michigan", "products": ["Chicken", "Beef"], "expires": "Dec 31, 26", "certification": "HMS", "lat": 42.48647680000001, "lng": -83.2211626, "nav_url": "https://www.google.com/maps/search/?api=1&query=26780%20Southfield%20Rd%2C%20Lathrup%20Village%2C%20MI%2048076%2C%20USA&query_place_id=ChIJCQL_bVnJJIgRjIItvwnmYyA"}, {"name": "Times Square Kitchen", "address": "2327 S Venoy Rd, Westland, MI 48186, USA", "phone": "(734) 729-1700", "state": "Michigan", "products": ["Chicken", "Lamb", "Veal", "Beef"], "expires": "Dec 31, 26", "certification": "HMS", "lat": 42.2921169, "lng": -83.36309849999999, "nav_url": "https://www.google.com/maps/search/?api=1&query=2327%20S%20Venoy%20Rd%2C%20Westland%2C%20MI%2048186%2C%20USA&query_place_id=ChIJcUgjlRhNO4gR3ZTwuT6J7CE"}, {"name": "Sheikhs N Burgers (Skokie)", "address": "7158 Carpenter Rd, Skokie, IL 60077, USA", "phone": "(224) 470-6266", "state": "Illinois", "products": ["Chicken", "Lamb", "Beef"], "expires": "Dec 31, 26", "certification": "HMS", "lat": 42.011033, "lng": -87.76228379999999, "nav_url": "https://www.google.com/maps/search/?api=1&query=7158%20Carpenter%20Rd%2C%20Skokie%2C%20IL%2060077%2C%20USA&query_place_id=ChIJx4-xSjPPD4gR3ER37j8EP0Q"}, {"name": "Filli Cafe", "address": "350 S Broadway, Hicksville, NY 11801, USA", "phone": "(516) 444-0021", "state": "New York", "products": ["Chicken", "Lamb", "Beef"], "expires": "Dec 31, 26", "certification": "HMS", "lat": 40.7610622, "lng": -73.5162931, "nav_url": "https://www.google.com/maps/search/?api=1&query=350%20S%20Broadway%2C%20Hicksville%2C%20NY%2011801%2C%20USA&query_place_id=ChIJ1RgWYRyBwokRR6kKE1XHqvE"}, {"name": "Slammin Pizza", "address": "586 Lawrence Square Blvd S, Lawrence Township, NJ 08648, USA", "phone": "(609) 949-5919", "state": "New Jersey", "products": ["Chicken", "Lamb", "Beef"], "expires": "Dec 31, 26", "certification": "HMS", "lat": 40.2710367, "lng": -74.67152899999999, "nav_url": "https://www.google.com/maps/search/?api=1&query=586%20Lawrence%20Square%20Blvd%20S%2C%20Lawrence%20Township%2C%20NJ%2008648%2C%20USA&query_place_id=ChIJmRgpl1zhw4kRzymK89GLyZY"}, {"name": "Reza's Restaurant", "address": "40 N Tower Rd, Oak Brook, IL 60523, USA", "phone": "(630) 424-9900", "state": "Illinois", "products": ["Chicken", "Lamb", "Goat", "Beef"], "expires": "Dec 31, 26", "certification": "HMS", "lat": 41.8450917, "lng": -87.9878111, "nav_url": "https://www.google.com/maps/search/?api=1&query=40%20N%20Tower%20Rd%2C%20Oak%20Brook%2C%20IL%2060523%2C%20USA&query_place_id=ChIJhZ9NM75NDogRR76LnhfyemM"}, {"name": "Byrd's Hot Chicken Canton", "address": "Ford Rd, Canton Township, MI 48187, USA", "phone": "(734) 228-5144", "state": "Michigan", "products": ["Chicken", "Beef"], "expires": "Dec 31, 26", "certification": "HMS", "lat": 42.322087, "lng": -83.463724, "nav_url": "https://www.google.com/maps/search/?api=1&query=Ford%20Rd%2C%20Canton%20Township%2C%20MI%2048187%2C%20USA&query_place_id=ChIJ-WVoashTO4gR810zZNhRrts"}, {"name": "Al Maidah Mandi House", "address": "388 Boston Post Rd E, Marlborough, MA 01752, USA", "phone": "(978) 816-0963", "state": "Massachusetts", "products": ["Chicken", "Lamb", "Goat", "Beef"], "expires": "Dec 31, 26", "certification": "HMS", "lat": 42.3485814, "lng": -71.51562899999999, "nav_url": "https://www.google.com/maps/search/?api=1&query=388%20Boston%20Post%20Rd%20E%2C%20Marlborough%2C%20MA%2001752%2C%20USA&query_place_id=ChIJczjMWgmL44kRGoVBZnjVgNo"}, {"name": "Holy Burger Buffalo", "address": "3941 Broadway, Cheektowaga, NY 14227, USA", "phone": "(716) 288-9013", "state": "New York", "products": ["Chicken", "Lamb", "Beef", "Turkey"], "expires": "Dec 31, 26", "certification": "HMS", "lat": 42.9048881, "lng": -78.7277593, "nav_url": "https://www.google.com/maps/search/?api=1&query=3941%20Broadway%2C%20Cheektowaga%2C%20NY%2014227%2C%20USA&query_place_id=ChIJNVaNf6sL04kR9py_ntjhhG4"}, {"name": "Sheikhs N Burgers Jericho", "address": "287 N Broadway, Jericho, NY 11853, USA", "phone": "(516) 943-9525", "state": "New York", "products": ["Chicken", "Lamb", "Beef"], "expires": "Dec 31, 26", "certification": "HMS", "lat": 40.7791892, "lng": -73.5295269, "nav_url": "https://www.google.com/maps/search/?api=1&query=287%20N%20Broadway%2C%20Jericho%2C%20NY%2011853%2C%20USA&query_place_id=ChIJyzWIBVuBwokRAv-ndUeoZ1M"}, {"name": "Halal Eatz Revere", "address": "750 Washington Ave #4, Revere, MA 02151, USA", "phone": "(781) 629-8071", "state": "Massachusetts", "products": ["Chicken", "Lamb", "Beef"], "expires": "Dec 31, 26", "certification": "HMS", "lat": 42.4298695, "lng": -71.0228351, "nav_url": "https://www.google.com/maps/search/?api=1&query=750%20Washington%20Ave%20%234%2C%20Revere%2C%20MA%2002151%2C%20USA&query_place_id=ChIJXa3yNbZz44kRWhoWs5P7lDA"}, {"name": "Byrd's Hot Chicken Libertyville", "address": "147 N Milwaukee Ave, Libertyville, IL 60048, USA", "phone": "(224) 206-8117", "state": "Illinois", "products": ["Chicken", "Beef"], "expires": "Dec 31, 26", "certification": "HMS", "lat": 42.2842756, "lng": -87.95376759999999, "nav_url": "https://www.google.com/maps/search/?api=1&query=147%20N%20Milwaukee%20Ave%2C%20Libertyville%2C%20IL%2060048%2C%20USA&query_place_id=ChIJ-yZUFzeXD4gRUDnEk6FeDXA"}, {"name": "JJ Fish & Chicken", "address": "184 S Bolingbrook Dr, Bolingbrook, IL 60440, USA", "phone": "(630) 783-9160", "state": "Illinois", "products": ["Chicken"], "expires": "Dec 31, 26", "certification": "HMS", "lat": 41.6967046, "lng": -88.06648609999999, "nav_url": "https://www.google.com/maps/search/?api=1&query=184%20S%20Bolingbrook%20Dr%2C%20Bolingbrook%2C%20IL%2060440%2C%20USA&query_place_id=ChIJySOCp7dbDogRcBiVaGIPpY4"}, {"name": "Mighty Halal", "address": "7026 W 111th St, Worth, IL 60482, USA", "phone": "(464) 646-5033", "state": "Illinois", "products": ["Chicken", "Beef"], "expires": "Dec 31, 26", "certification": "HMS", "lat": 41.690434, "lng": -87.7943548, "nav_url": "https://www.google.com/maps/search/?api=1&query=7026%20W%20111th%20St%2C%20Worth%2C%20IL%2060482%2C%20USA&query_place_id=ChIJFYEwtIk5DogRBHIhvd8eLBM"}, {"name": "Peshawar Restaurant", "address": "7510 W Layton Ave, Greenfield, WI 53220, USA", "phone": "(414) 800-4226", "state": "Wisconsin", "products": ["Chicken", "Lamb", "Goat", "Veal", "Beef"], "expires": "Dec 31, 26", "certification": "HMS", "lat": 42.9597284, "lng": -88.00739209999999, "nav_url": "https://www.google.com/maps/search/?api=1&query=7510%20W%20Layton%20Ave%2C%20Greenfield%2C%20WI%2053220%2C%20USA&query_place_id=ChIJhyqbn3YRBYgRzp9bP8HCfXE"}, {"name": "Busn' Halal From the Streets of NYC", "address": "4367 John Marr Dr, Annandale, VA 22003, USA", "phone": "(571) 378-0791", "state": "Virginia", "products": ["Chicken", "Lamb", "Beef"], "expires": "Dec 31, 26", "certification": "HMS", "lat": 38.8301913, "lng": -77.1879522, "nav_url": "https://www.google.com/maps/search/?api=1&query=4367%20John%20Marr%20Dr%2C%20Annandale%2C%20VA%2022003%2C%20USA&query_place_id=ChIJDWDV6Dazt4kRLezd9dF6osA"}, {"name": "Noor N Spice Kitchen", "address": "217 E Main St, Lansdale, PA 19446, USA", "phone": "(267) 263-4022", "state": "Pennsylvania", "products": ["Chicken", "Lamb", "Goat", "Beef"], "expires": "Dec 31, 26", "certification": "HMS", "lat": 40.2394696, "lng": -75.28000779999999, "nav_url": "https://www.google.com/maps/search/?api=1&query=217%20E%20Main%20St%2C%20Lansdale%2C%20PA%2019446%2C%20USA&query_place_id=ChIJk9q5eACjxokRzQR6l_eurNM"}, {"name": "Chick N Kick", "address": "1350b Queen Anne Rd, Teaneck, NJ 07666, USA", "phone": "(201) 282-3034", "state": "New Jersey", "products": ["Chicken", "Lamb", "Beef"], "expires": "Dec 31, 26", "certification": "HMS", "lat": 40.90059979999999, "lng": -74.005939, "nav_url": "https://www.google.com/maps/search/?api=1&query=1350b%20Queen%20Anne%20Rd%2C%20Teaneck%2C%20NJ%2007666%2C%20USA&query_place_id=ChIJ0epvaizxwokR1sbteBtkddc"}, {"name": "Al Noor Restaurant & Fried Chicken", "address": "2159 Genesee St, Buffalo, NY 14211, USA", "phone": "(716) 424-0009", "state": "New York", "products": ["Chicken", "Lamb", "Goat", "Beef"], "expires": "Dec 31, 26", "certification": "HMS", "lat": 42.9164781, "lng": -78.8032595, "nav_url": "https://www.google.com/maps/search/?api=1&query=2159%20Genesee%20St%2C%20Buffalo%2C%20NY%2014211%2C%20USA&query_place_id=ChIJKT9HDlcN04kRbZgt3uDPrdY"}, {"name": "Holy Burger Middletown", "address": "157 Dolson Ave, Middletown, NY 10940, USA", "phone": "(845) 741-3382", "state": "New York", "products": ["Chicken", "Lamb", "Beef", "Turkey"], "expires": "Dec 31, 26", "certification": "HMS", "lat": 41.4284172, "lng": -74.4252999, "nav_url": "https://www.google.com/maps/search/?api=1&query=157%20Dolson%20Ave%2C%20Middletown%2C%20NY%2010940%2C%20USA&query_place_id=ChIJKcMJgRczw4kRxf0KED62__Y"}, {"name": "JK Kabab Express (Niles)", "address": "9108 W Golf Rd, Niles, IL 60714, USA", "phone": "(847) 795-2700", "state": "Illinois", "products": [], "expires": "Dec 31, 26", "certification": "HMS", "lat": 42.05539960000001, "lng": -87.8539255, "nav_url": "https://www.google.com/maps/search/?api=1&query=9108%20W%20Golf%20Rd%2C%20Niles%2C%20IL%2060714%2C%20USA&query_place_id=ChIJV9MOXAXJD4gRGp834fPX67s"}, {"name": "Spice Wok Frisco", "address": "7151 Preston Rd #201b, Frisco, TX 75034, USA", "phone": "(469) 200-5700", "state": "Texas", "products": ["Chicken", "Lamb", "Beef"], "expires": "Dec 31, 26", "certification": "HMS", "lat": 33.1373456, "lng": -96.8061578, "nav_url": "https://www.google.com/maps/search/?api=1&query=7151%20Preston%20Rd%20%23201b%2C%20Frisco%2C%20TX%2075034%2C%20USA&query_place_id=ChIJY8OdnJQ9TIYRXKFIXr-WJ4E"}, {"name": "JK Kabab Express (Devon)", "address": "2510 W Devon Ave, Chicago, IL 60659, USA", "phone": "(773) 739-9786", "state": "Illinois", "products": ["Chicken", "Lamb", "Goat", "Beef"], "expires": "Dec 31, 26", "certification": "HMS", "lat": 41.9979352, "lng": -87.69290629999999, "nav_url": "https://www.google.com/maps/search/?api=1&query=2510%20W%20Devon%20Ave%2C%20Chicago%2C%20IL%2060659%2C%20USA&query_place_id=ChIJY8AojDrRD4gROLFLH1-940A"}, {"name": "Fibis", "address": "3950 Rochester Rd, Troy, MI 48083, USA", "phone": "(248) 687-1925", "state": "Michigan", "products": ["Chicken", "Lamb", "Beef"], "expires": "Dec 31, 26", "certification": "HMS", "lat": 42.5767506, "lng": -83.1276001, "nav_url": "https://www.google.com/maps/search/?api=1&query=3950%20Rochester%20Rd%2C%20Troy%2C%20MI%2048083%2C%20USA&query_place_id=ChIJJ4nc17LFJIgRKicQ0Vyzieg"}, {"name": "KEBAB UNCLE (Plano)", "address": "909 W Spring Creek Pkwy suite 460, Plano, TX 75023, USA", "phone": "(972) 996-4699", "state": "Texas", "products": ["Chicken", "Lamb", "Veal", "Beef"], "expires": "Dec 31, 26", "certification": "HMS", "lat": 33.0576358, "lng": -96.71081699999999, "nav_url": "https://www.google.com/maps/search/?api=1&query=909%20W%20Spring%20Creek%20Pkwy%20suite%20460%2C%20Plano%2C%20TX%2075023%2C%20USA&query_place_id=ChIJG0Wha6kZTIYRf7Zd2oA5UeQ"}, {"name": "KEBAB UNCLE (Coppell)", "address": "612 E Sandy Lake Rd suite 120, Coppell, TX 75019, USA", "phone": "(469) 453-0700", "state": "Texas", "products": ["Chicken", "Lamb", "Veal", "Beef"], "expires": "Dec 31, 26", "certification": "HMS", "lat": 32.9699636, "lng": -96.9759888, "nav_url": "https://www.google.com/maps/search/?api=1&query=612%20E%20Sandy%20Lake%20Rd%20suite%20120%2C%20Coppell%2C%20TX%2075019%2C%20USA&query_place_id=ChIJXRKdW2YpTIYRpOZo1RpguQU"}, {"name": "BBQLAND Restaurant", "address": "1234 E Lake St, Hanover Park, IL 60133, USA", "phone": "(630) 855-6274", "state": "Illinois", "products": ["Chicken", "Lamb", "Goat", "Beef"], "expires": "Dec 31, 26", "certification": "HMS", "lat": 41.977987, "lng": -88.135734, "nav_url": "https://www.google.com/maps/search/?api=1&query=1234%20E%20Lake%20St%2C%20Hanover%20Park%2C%20IL%2060133%2C%20USA&query_place_id=ChIJZfDvRmmrD4gRQRlFhxbZ-ns"}, {"name": "Arzu", "address": "1742 W Golf Rd, Mt Prospect, IL 60056, USA", "phone": "(847) 262-5987", "state": "Illinois", "products": ["Chicken", "Lamb", "Beef"], "expires": "Dec 31, 26", "certification": "HMS", "lat": 42.0494209, "lng": -87.9616053, "nav_url": "https://www.google.com/maps/search/?api=1&query=1742%20W%20Golf%20Rd%2C%20Mt%20Prospect%2C%20IL%2060056%2C%20USA&query_place_id=ChIJad2Qb5CwD4gRBzsrGtGAOgw"}, {"name": "Little Asia Bazar", "address": "6700 Denton Hwy ste i, Watauga, TX 76148, USA", "phone": "(682) 235-5836", "state": "Texas", "products": ["Chicken", "Beef"], "expires": "Dec 31, 26", "certification": "HMS", "lat": 32.8682461, "lng": -97.2621807, "nav_url": "https://www.google.com/maps/search/?api=1&query=6700%20Denton%20Hwy%20ste%20i%2C%20Watauga%2C%20TX%2076148%2C%20USA&query_place_id=ChIJOVPOvCLXTYYR2KBZuiIqzzA"}, {"name": "Holy Cow Burgers Temple Hills", "address": "3210 Branch Ave, Temple Hills, MD 20748, USA", "phone": "(301) 500-3190", "state": "Maryland", "products": ["Chicken", "Lamb", "Beef", "Turkey"], "expires": "Dec 31, 26", "certification": "HMS", "lat": 38.8492157, "lng": -76.95341499999999, "nav_url": "https://www.google.com/maps/search/?api=1&query=3210%20Branch%20Ave%2C%20Temple%20Hills%2C%20MD%2020748%2C%20USA&query_place_id=ChIJ9UdflG-5t4kRKysqJACiL1E"}, {"name": "Ahar Restaurant", "address": "125 Mills St, Buffalo, NY 14212, USA", "phone": "(716) 259-8666", "state": "New York", "products": ["Chicken", "Lamb", "Goat", "Beef"], "expires": "Dec 31, 26", "certification": "HMS", "lat": 42.8971306, "lng": -78.8363055, "nav_url": "https://www.google.com/maps/search/?api=1&query=125%20Mills%20St%2C%20Buffalo%2C%20NY%2014212%2C%20USA&query_place_id=ChIJdYUetJUN04kRTpay-5ZJX9w"}, {"name": "Byrd's Hot Chicken Naperville", "address": "618 Illinois Rte 59 unit 120, Naperville, IL 60540, USA", "phone": "(331) 226-2404", "state": "Illinois", "products": ["Chicken", "Beef"], "expires": "Dec 31, 26", "certification": "HMS", "lat": 41.7618269, "lng": -88.2044954, "nav_url": "https://www.google.com/maps/search/?api=1&query=618%20Illinois%20Rte%2059%20unit%20120%2C%20Naperville%2C%20IL%2060540%2C%20USA&query_place_id=ChIJC_r9-5n5DogRtT92F9Z5zuE"}, {"name": "NYC Halal Eats (Warren)", "address": "5377 12 Mile Rd, Warren, MI 48092, USA", "phone": "(586) 806-0091", "state": "Michigan", "products": ["Chicken", "Lamb", "Beef"], "expires": "Dec 31, 26", "certification": "HMS", "lat": 42.5065208, "lng": -83.0524939, "nav_url": "https://www.google.com/maps/search/?api=1&query=5377%2012%20Mile%20Rd%2C%20Warren%2C%20MI%2048092%2C%20USA&query_place_id=ChIJbekxSXzbJIgRvC-82yhl1CE"}, {"name": "Zabiha Chicken and Sub", "address": "9104 East 35th St S, Independence, MO 64052, USA", "phone": "(816) 516-7809", "state": "Missouri", "products": ["Chicken", "Lamb", "Beef"], "expires": "Dec 31, 26", "certification": "HMS", "lat": 39.0600823, "lng": -94.4711732, "nav_url": "https://www.google.com/maps/search/?api=1&query=9104%20East%2035th%20St%20S%2C%20Independence%2C%20MO%2064052%2C%20USA&query_place_id=ChIJu_SadgDjwIcRuJWSUB7UC9A"}, {"name": "Holy Burger Dallas", "address": "18111 Dallas Pkwy suite c200, Dallas, TX 75287, USA", "phone": "(972) 863-8207", "state": "Texas", "products": ["Chicken", "Beef"], "expires": "Dec 31, 26", "certification": "HMS", "lat": 32.99604, "lng": -96.830314, "nav_url": "https://www.google.com/maps/search/?api=1&query=18111%20Dallas%20Pkwy%20suite%20c200%2C%20Dallas%2C%20TX%2075287%2C%20USA&query_place_id=ChIJxfWvNwAjTIYRY6f8We0Hyi0"}, {"name": "Pizza Lab & Grill", "address": "4911 Dempster St, Skokie, IL 60077, USA", "phone": "(847) 213-0291", "state": "Illinois", "products": ["Chicken", "Beef"], "expires": "Dec 31, 26", "certification": "HMS", "lat": 42.0405509, "lng": -87.75000209999999, "nav_url": "https://www.google.com/maps/search/?api=1&query=4911%20Dempster%20St%2C%20Skokie%2C%20IL%2060077%2C%20USA&query_place_id=ChIJ5TDmQwDPD4gRdrtjFuId-2s"}, {"name": "Al Mawa Eats", "address": "5844 Dempster St, Morton Grove, IL 60053, USA", "phone": "(224) 470-6077", "state": "Illinois", "products": ["Chicken", "Beef"], "expires": "Dec 31, 26", "certification": "HMS", "lat": 42.0411411, "lng": -87.77360379999999, "nav_url": "https://www.google.com/maps/search/?api=1&query=5844%20Dempster%20St%2C%20Morton%20Grove%2C%20IL%2060053%2C%20USA&query_place_id=ChIJi-FKu23PD4gRAO1bfU-Z7Lc"}, {"name": "Flamin Bites", "address": "2814 N Halsted St, Chicago, IL 60657, USA", "phone": "(773) 250-3160", "state": "Illinois", "products": ["Chicken", "Lamb", "Goat", "Beef"], "expires": "Dec 31, 26", "certification": "HMS", "lat": 41.9332108, "lng": -87.6492877, "nav_url": "https://www.google.com/maps/search/?api=1&query=2814%20N%20Halsted%20St%2C%20Chicago%2C%20IL%2060657%2C%20USA&query_place_id=ChIJ24bSoWvTD4gRFPla83q0Kv0"}, {"name": "Kabab Mahal", "address": "1023 W North Ave, Villa Park, IL 60181, USA", "phone": "(630) 895-5001", "state": "Illinois", "products": ["Chicken", "Goat", "Beef"], "expires": "Dec 31, 26", "certification": "HMS", "lat": 41.9044827, "lng": -88.00402530000001, "nav_url": "https://www.google.com/maps/search/?api=1&query=1023%20W%20North%20Ave%2C%20Villa%20Park%2C%20IL%2060181%2C%20USA&query_place_id=ChIJ_UgoWjuzD4gR0QSooOlbUEs"}, {"name": "Drippin Bites", "address": "6808 N Sheridan Rd, Chicago, IL 60626, USA", "phone": "(773) 856-6808", "state": "Illinois", "products": ["Chicken", "Beef"], "expires": "Dec 31, 26", "certification": "HMS", "lat": 42.005862, "lng": -87.6613236, "nav_url": "https://www.google.com/maps/search/?api=1&query=6808%20N%20Sheridan%20Rd%2C%20Chicago%2C%20IL%2060626%2C%20USA&query_place_id=ChIJ5Y_nVrHRD4gR4kdKnPCvFjI"}, {"name": "Burger Buzz", "address": "3901 W Touhy Ave, Lincolnwood, IL 60712, USA", "phone": "(847) 324-6753", "state": "Illinois", "products": ["Chicken", "Lamb", "Beef"], "expires": "Dec 31, 26", "certification": "HMS", "lat": 42.0114826, "lng": -87.7264712, "nav_url": "https://www.google.com/maps/search/?api=1&query=3901%20W%20Touhy%20Ave%2C%20Lincolnwood%2C%20IL%2060712%2C%20USA&query_place_id=ChIJC9LuWwDPD4gR7TpxrgiUtkw"}, {"name": "Deccani Zaiqah", "address": "1071 W Golf Rd, Hoffman Estates, IL 60169, USA", "phone": "(847) 466-7069", "state": "Illinois", "products": ["Chicken", "Lamb", "Goat", "Veal", "Beef"], "expires": "Dec 31, 26", "certification": "HMS", "lat": 42.0478306, "lng": -88.1059018, "nav_url": "https://www.google.com/maps/search/?api=1&query=1071%20W%20Golf%20Rd%2C%20Hoffman%20Estates%2C%20IL%2060169%2C%20USA&query_place_id=ChIJ2coz91ypD4gRYyoNYILPbuM"}, {"name": "Biryani Baithak", "address": "1125 N Salem Dr, Schaumburg, IL 60194, USA", "phone": "(847) 885-7482", "state": "Illinois", "products": ["Chicken", "Lamb", "Goat", "Beef"], "expires": "Dec 31, 26", "certification": "HMS", "lat": 42.047416, "lng": -88.0985848, "nav_url": "https://www.google.com/maps/search/?api=1&query=1125%20N%20Salem%20Dr%2C%20Schaumburg%2C%20IL%2060194%2C%20USA&query_place_id=ChIJ9bNbI4OpD4gR_7ysWJyq0pM"}, {"name": "Zacs Burger", "address": "64 Princeton Hightstown Rd, Princeton Junction, NJ 08550, USA", "phone": "(609) 269-9066", "state": "New Jersey", "products": ["Chicken", "Lamb", "Beef"], "expires": "Dec 31, 26", "certification": "HMS", "lat": 40.31268379999999, "lng": -74.6208271, "nav_url": "https://www.google.com/maps/search/?api=1&query=64%20Princeton%20Hightstown%20Rd%2C%20Princeton%20Junction%2C%20NJ%2008550%2C%20USA&query_place_id=ChIJabJaw8bgw4kRcfERT3SDpkc"}, {"name": "Saffron Restaurant", "address": "130 Wayne Ave, Paterson, NJ 07502, USA", "phone": "(973) 341-4520", "state": "New Jersey", "products": ["Chicken", "Lamb", "Goat", "Beef"], "expires": "Dec 31, 26", "certification": "HMS", "lat": 40.919, "lng": -74.1859142, "nav_url": "https://www.google.com/maps/search/?api=1&query=130%20Wayne%20Ave%2C%20Paterson%2C%20NJ%2007502%2C%20USA&query_place_id=ChIJzaEmq6P9wokRKArtndw3AdU"}, {"name": "Holy Burger Albany", "address": "1012 Central Ave, Albany, NY 12205, USA", "phone": "(518) 650-7788", "state": "New York", "products": ["Chicken", "Lamb", "Beef", "Turkey"], "expires": "Dec 31, 26", "certification": "HMS", "lat": 42.6842017, "lng": -73.7954613, "nav_url": "https://www.google.com/maps/search/?api=1&query=1012%20Central%20Ave%2C%20Albany%2C%20NY%2012205%2C%20USA&query_place_id=ChIJVbm6GgAL3okR036bfQ5o3m8"}, {"name": "Saffron & Salsa", "address": "3605 N Western Ave, Chicago, IL 60618, USA", "phone": "(312) 955-0644", "state": "Illinois", "products": ["Chicken", "Beef"], "expires": "Dec 31, 26", "certification": "HMS", "lat": 41.9471034, "lng": -87.68778879999999, "nav_url": "https://www.google.com/maps/search/?api=1&query=3605%20N%20Western%20Ave%2C%20Chicago%2C%20IL%2060618%2C%20USA&query_place_id=ChIJCYiUgfjTD4gRcPXrNSrd7tA"}, {"name": "Gravitea", "address": "725 E Roosevelt Rd, Lombard, IL 60148, USA", "phone": "(847) 527-6800", "state": "Illinois", "products": [], "expires": "Dec 31, 26", "certification": "HMS", "lat": 41.86013800000001, "lng": -88.0001947, "nav_url": "https://www.google.com/maps/search/?api=1&query=725%20E%20Roosevelt%20Rd%2C%20Lombard%2C%20IL%2060148%2C%20USA&query_place_id=ChIJYTWkiZpNDogRSykhfWcOg38"}, {"name": "Kick Starrt", "address": "14560 River Rd, Carmel, IN 46033, USA", "phone": "(317) 300-4835", "state": "Indiana", "products": ["Chicken", "Lamb", "Goat", "Beef"], "expires": "Mar 07, 26", "certification": "HMS", "lat": 39.998616, "lng": -86.034339, "nav_url": "https://www.google.com/maps/search/?api=1&query=14560%20River%20Rd%2C%20Carmel%2C%20IN%2046033%2C%20USA&query_place_id=ChIJT2vKbqKtFIgR3_BCAugE36g"}, {"name": "The Fry Fusion", "address": "8818 Gross Point Rd, Skokie, IL 60077, USA", "phone": "(224) 470-6234", "state": "Illinois", "products": ["Chicken", "Beef"], "expires": "Dec 31, 26", "certification": "HMS", "lat": 42.0415403, "lng": -87.75632449999999, "nav_url": "https://www.google.com/maps/search/?api=1&query=8818%20Gross%20Point%20Rd%2C%20Skokie%2C%20IL%2060077%2C%20USA&query_place_id=ChIJfdx4hnjPD4gRIpPrTzNzFdg"}, {"name": "Meltwich (Lombard Location Only)", "address": "1300 S Main St, Lombard, IL 60148, USA", "phone": "(630) 376 4429", "state": "Illinois", "products": ["Chicken", "Beef"], "expires": "Dec 31, 26", "certification": "HMS", "lat": 41.8585953, "lng": -88.01826129999999, "nav_url": "https://www.google.com/maps/search/?api=1&query=1300%20S%20Main%20St%2C%20Lombard%2C%20IL%2060148%2C%20USA&query_place_id=ChIJ96yq29NTDogRd72xmHL2okA"}, {"name": "Desi Chowk", "address": "2693 Preston Rd #1052, Frisco, TX 75034, USA", "phone": "(469) 200-5110", "state": "Texas", "products": ["Chicken", "Goat"], "expires": "Dec 31, 26", "certification": "HMS", "lat": 33.1015123, "lng": -96.8066847, "nav_url": "https://www.google.com/maps/search/?api=1&query=2693%20Preston%20Rd%20%231052%2C%20Frisco%2C%20TX%2075034%2C%20USA&query_place_id=ChIJ1wYtuHs9TIYRVyhGQStgGCo"}, {"name": "Masala Twist Xpress Sachse", "address": "4275 Miles Rd #101, Sachse, TX 75048, USA", "phone": "(469) 373-3116", "state": "Texas", "products": ["Chicken", "Lamb", "Goat", "Beef"], "expires": "Dec 31, 26", "certification": "HMS", "lat": 32.9637761, "lng": -96.5838991, "nav_url": "https://www.google.com/maps/search/?api=1&query=4275%20Miles%20Rd%20%23101%2C%20Sachse%2C%20TX%2075048%2C%20USA&query_place_id=ChIJ0ToHlbQdTIYR6tvCHPKqMKo"}, {"name": "Burger Zone", "address": "3332 W Foster Ave, Chicago, IL 60625, USA", "phone": "(773) 831-4900", "state": "Illinois", "products": ["Chicken", "Lamb", "Beef"], "expires": "Dec 31, 26", "certification": "HMS", "lat": 41.9759124, "lng": -87.71252799999999, "nav_url": "https://www.google.com/maps/search/?api=1&query=3332%20W%20Foster%20Ave%2C%20Chicago%2C%20IL%2060625%2C%20USA&query_place_id=ChIJn45juYHND4gRTWJDD9EZwD0"}, {"name": "NYC Halal Eats (Niles)", "address": "8624 W Golf Rd, Niles, IL 60714, USA", "phone": "(224) 443-4545", "state": "Illinois", "products": ["Chicken", "Lamb", "Beef"], "expires": "Dec 31, 26", "certification": "HMS", "lat": 42.0549281, "lng": -87.8419205, "nav_url": "https://www.google.com/maps/search/?api=1&query=8624%20W%20Golf%20Rd%2C%20Niles%2C%20IL%2060714%2C%20USA&query_place_id=ChIJ-YszdTrJD4gRUd_j9TwmFps"}, {"name": "Bar.B.Q Tonight", "address": "2525 W Devon Ave, Chicago, IL 60659", "phone": "(872) 348-1999", "state": "Illinois", "products": ["Chicken", "Lamb", "Goat", "Veal", "Beef"], "expires": "Dec 31, 26", "certification": "HMS", "lat": 41.9975798, "lng": -87.69338909999999, "nav_url": "https://www.google.com/maps/search/?api=1&query=2525%20W%20Devon%20Ave%2C%20Chicago%2C%20IL%2060659&query_place_id=ChIJP7FFFQDRD4gR_AK8KbA3A0Q"}, {"name": "Jbeez", "address": "976 Army Trail Rd, Carol Stream, IL 60188", "phone": "(630) 855-5054", "state": "Illinois", "products": ["Chicken", "Lamb", "Goat", "Veal", "Beef"], "expires": "Dec 31, 26", "certification": "HMS", "lat": 41.9393148, "lng": -88.1531303, "nav_url": "https://www.google.com/maps/search/?api=1&query=976%20Army%20Trail%20Rd%2C%20Carol%20Stream%2C%20IL%2060188&query_place_id=ChIJ8zUDz5OrD4gRrGYrUnXtfn8"}, {"name": "Ace Shawarma & Burgers", "address": "3455 Jerome Ave, Bronx, NY 10467", "phone": "(929) 632-6081", "state": "New York", "products": ["Chicken", "Lamb", "Beef"], "expires": "Dec 31, 26", "certification": "HMS", "lat": 40.8817958, "lng": -73.88277149999999, "nav_url": "https://www.google.com/maps/search/?api=1&query=3455%20Jerome%20Ave%2C%20Bronx%2C%20NY%2010467&query_place_id=ChIJ0yLqb4_zwokRHNWMD34JRTE"}, {"name": "Pizza Stop Wylie", "address": "560 Country Club Rd #111B, Wylie, TX 75098", "phone": "(214) 501-4979", "state": "Texas", "products": ["Chicken", "Beef"], "expires": "Dec 31, 26", "certification": "HMS", "lat": 33.0206395, "lng": -96.56810159999999, "nav_url": "https://www.google.com/maps/search/?api=1&query=560%20Country%20Club%20Rd%20%23111B%2C%20Wylie%2C%20TX%2075098&query_place_id=ChIJs9_7ZWYFTIYRBsujjXpqPb4"}, {"name": "Slaw Burger", "address": "1332 N Roselle Rd, Schaumburg, IL 60195", "phone": "(224) 477-3839", "state": "Illinois", "products": ["Chicken", "Beef"], "expires": "Dec 31, 26", "certification": "HMS", "lat": 42.0522906, "lng": -88.081098, "nav_url": "https://www.google.com/maps/search/?api=1&query=1332%20N%20Roselle%20Rd%2C%20Schaumburg%2C%20IL%2060195&query_place_id=ChIJWVzDlE6vD4gRn1yCp7BFxOk"}, {"name": "Mike's Chicken and Sushi", "address": "742 Higgins Rd Ste 2, Park Ridge, IL 60068, USA", "phone": "(224) 866-9637", "state": "Illinois", "products": ["Chicken", "Beef"], "expires": "Dec 31, 26", "certification": "HMS", "lat": 41.9863919, "lng": -87.8346364, "nav_url": "https://www.google.com/maps/search/?api=1&query=742%20Higgins%20Rd%20Ste%202%2C%20Park%20Ridge%2C%20IL%2060068%2C%20USA&query_place_id=ChIJDx3V3VjJD4gRJHDI9JIWrZM"}, {"name": "Hello Shawarma Lombard", "address": "521 E Roosevelt Rd, Lombard, IL 60148", "phone": "(630) 330-4444", "state": "Illinois", "products": ["Chicken", "Lamb", "Beef"], "expires": "Dec 31, 26", "certification": "HMS", "lat": 41.8586226, "lng": -88.00446699999999, "nav_url": "https://www.google.com/maps/search/?api=1&query=521%20E%20Roosevelt%20Rd%2C%20Lombard%2C%20IL%2060148&query_place_id=ChIJub0a4uxNDogRHrSsVRl4-F4"}, {"name": "Baithak of Punjab", "address": "4252 S. Howell Ave, Milwaukee, WI 53207", "phone": "(414) 763-0033", "state": "Wisconsin", "products": ["Chicken", "Lamb", "Goat", "Veal", "Beef"], "expires": "Dec 31, 26", "certification": "HMS", "lat": 43.0121025, "lng": -87.9203993, "nav_url": "https://www.google.com/maps/search/?api=1&query=4252%20S.%20Howell%20Ave%2C%20Milwaukee%2C%20WI%2053207&query_place_id=ChIJ5WJ3Gu8ZBYgRi85ncE0qbHc"}, {"name": "Holy Burger Pisctataway", "address": "1314 Centennial Ave, Piscataway, NJ 08854", "phone": "(732) 200-5345", "state": "New Jersey", "products": ["Chicken", "Lamb", "Beef", "Turkey"], "expires": "Dec 31, 26", "certification": "HMS", "lat": 40.5517844, "lng": -74.4423898, "nav_url": "https://www.google.com/maps/search/?api=1&query=1314%20Centennial%20Ave%2C%20Piscataway%2C%20NJ%2008854&query_place_id=ChIJKc9fOli5w4kRrbpcQiPE-jk"}, {"name": "La Estacion Mela Restaurant", "address": "22 1st Ave, Brentwood, NY 11717", "phone": "(631) 231-3131", "state": "New York", "products": ["Chicken", "Lamb", "Goat", "Beef"], "expires": "Dec 31, 26", "certification": "HMS", "lat": 40.7799512, "lng": -73.24690009999999, "nav_url": "https://www.google.com/maps/search/?api=1&query=22%201st%20Ave%2C%20Brentwood%2C%20NY%2011717&query_place_id=ChIJHYtHMMEx6IkRua8SpOLSAfA"}, {"name": "Holy Burger Jersey City", "address": "356 Varick St, Jersey City, NJ 07302", "phone": "(201) 300-4888", "state": "New Jersey", "products": ["Chicken", "Lamb", "Beef", "Turkey"], "expires": "Dec 31, 26", "certification": "HMS", "lat": 40.7209068, "lng": -74.0481312, "nav_url": "https://www.google.com/maps/search/?api=1&query=356%20Varick%20St%2C%20Jersey%20City%2C%20NJ%2007302&query_place_id=ChIJDWJLtwJRwokRECayiXeqYPU"}, {"name": "GuGu Chicken", "address": "112 Barrington Rd, Streamwood, IL 60107", "phone": "(630) 855-4717", "state": "Illinois", "products": ["Chicken", "Beef"], "expires": "Dec 31, 26", "certification": "HMS", "lat": 42.0344793, "lng": -88.1454649, "nav_url": "https://www.google.com/maps/search/?api=1&query=112%20Barrington%20Rd%2C%20Streamwood%2C%20IL%2060107&query_place_id=ChIJI_wAEsipD4gRNz5Q5Hh3LaU"}, {"name": "Mediterranean Oasis Food (Take Out)", "address": "357 E Bailey Rd, Naperville, IL 60565", "phone": "(630) 420-9507", "state": "Illinois", "products": ["Chicken", "Lamb", "Goat", "Veal", "Beef"], "expires": "Dec 31, 26", "certification": "HMS", "lat": 41.7410583, "lng": -88.1239343, "nav_url": "https://www.google.com/maps/search/?api=1&query=357%20E%20Bailey%20Rd%2C%20Naperville%2C%20IL%2060565&query_place_id=ChIJK7BOq9ZZDogRpRot523C8NY"}, {"name": "Smile Burger", "address": "315 Irving Park Rd, Wood Dale, IL 60191", "phone": "(224) 935-2602", "state": "Illinois", "products": ["Chicken", "Lamb", "Beef"], "expires": "Dec 31, 26", "certification": "HMS", "lat": 41.9658853, "lng": -87.9891597, "nav_url": "https://www.google.com/maps/search/?api=1&query=315%20Irving%20Park%20Rd%2C%20Wood%20Dale%2C%20IL%2060191&query_place_id=ChIJKxgwJSizD4gRePGgMjJPvo8"}, {"name": "Taqueria Los Sombreros", "address": "1300 S Main St A, Lombard, IL 60148", "phone": "(630) 613-9352", "state": "Illinois", "products": ["Chicken", "Beef", "Turkey"], "expires": "Dec 31, 26", "certification": "HMS", "lat": 41.8586921, "lng": -88.0177001, "nav_url": "https://www.google.com/maps/search/?api=1&query=1300%20S%20Main%20St%20A%2C%20Lombard%2C%20IL%2060148&query_place_id=ChIJcVMLL3RTDogRNt27i3XVjgU"}, {"name": "Maria's Halal Pizzeria", "address": "245 S Roselle Rd, Schaumburg, IL 60193", "phone": "(847) 534-0910", "state": "Illinois", "products": ["Chicken", "Lamb", "Beef"], "expires": "Dec 31, 26", "certification": "HMS", "lat": 42.0225194, "lng": -88.0791964, "nav_url": "https://www.google.com/maps/search/?api=1&query=245%20S%20Roselle%20Rd%2C%20Schaumburg%2C%20IL%2060193&query_place_id=ChIJw4p5B9iuD4gRzpiqsTEaXGc"}, {"name": "Maria's Halal Pizzeria", "address": "590 Potter Rd, Des Plaines, IL 60016", "phone": "(847) 297-7181", "state": "Illinois", "products": ["Chicken", "Lamb", "Beef"], "expires": "Dec 31, 26", "certification": "HMS", "lat": 42.04359059999999, "lng": -87.860485, "nav_url": "https://www.google.com/maps/search/?api=1&query=590%20Potter%20Rd%2C%20Des%20Plaines%2C%20IL%2060016&query_place_id=ChIJ14Zlqua3D4gR8pmFUBGOmZA"}, {"name": "Mehfil Kitchen", "address": "5264 Lincoln Ave, Skokie, IL 60077", "phone": "(786) 763-4000", "state": "Illinois", "products": ["Chicken", "Lamb", "Goat", "Veal", "Beef"], "expires": "Dec 31, 26", "certification": "HMS", "lat": 42.033933, "lng": -87.7589819, "nav_url": "https://www.google.com/maps/search/?api=1&query=5264%20Lincoln%20Ave%2C%20Skokie%2C%20IL%2060077&query_place_id=ChIJUZpZpz7PD4gR8FPByVG2zYg"}, {"name": "Mannan Bakery and Grill", "address": "1449 Olmstead Ave, Bronx, NY 10462", "phone": "(917) 640-0616", "state": "New York", "products": ["Chicken", "Lamb", "Goat", "Veal", "Beef", "Turkey"], "expires": "Dec 31, 26", "certification": "HMS", "lat": 40.8357056, "lng": -73.8551873, "nav_url": "https://www.google.com/maps/search/?api=1&query=1449%20Olmstead%20Ave%2C%20Bronx%2C%20NY%2010462&query_place_id=ChIJtU0DIqP1wokRpQDALUtDyMU"}, {"name": "Royal Kabab and Grill", "address": "7806 101st Ave, Ozone Park, NY 11416", "phone": "(718) 374-3770", "state": "New York", "products": ["Chicken", "Lamb", "Beef"], "expires": "Dec 31, 26", "certification": "HMS", "lat": 40.6802861, "lng": -73.8594341, "nav_url": "https://www.google.com/maps/search/?api=1&query=7806%20101st%20Ave%2C%20Ozone%20Park%2C%20NY%2011416&query_place_id=ChIJgYfpZwBdwokRyhKaGXEp6lI"}, {"name": "Pizza 101", "address": "7806 101st Ave, Ozone Park, NY 11416", "phone": "(718) 374-3771", "state": "New York", "products": ["Chicken", "Lamb", "Beef"], "expires": "Dec 31, 26", "certification": "HMS", "lat": 40.6803266, "lng": -73.8594542, "nav_url": "https://www.google.com/maps/search/?api=1&query=7806%20101st%20Ave%2C%20Ozone%20Park%2C%20NY%2011416&query_place_id=ChIJo5ITUQBdwokREGw8FzUgJGw"}, {"name": "NYC Halal Eats (Lombard)", "address": "52 W Roosevelt Rd, Lombard, IL 60148", "phone": "(331) 307-7939", "state": "Illinois", "products": ["Chicken", "Lamb", "Beef"], "expires": "Dec 31, 26", "certification": "HMS", "lat": 41.860389, "lng": -88.01977959999999, "nav_url": "https://www.google.com/maps/search/?api=1&query=52%20W%20Roosevelt%20Rd%2C%20Lombard%2C%20IL%2060148&query_place_id=ChIJwSuE9HBTDogRBZuxe2Xvh5I"}, {"name": "Deccan Delights", "address": "2811 Patriot's Ln #101, Naperville, IL 60563", "phone": "(630) 470-9000", "state": "Illinois", "products": ["Chicken", "Lamb", "Goat", "Veal"], "expires": "Dec 31, 26", "certification": "HMS", "lat": 41.7813926, "lng": -88.20239099999999, "nav_url": "https://www.google.com/maps/search/?api=1&query=2811%20Patriot%27s%20Ln%20%23101%2C%20Naperville%2C%20IL%2060563&query_place_id=ChIJvUVc0Jv5DogRGtoFOvEFVqI"}, {"name": "Al Souq", "address": "8481 Hungary Rd, Glen Allen, VA 23060", "phone": "000000000000", "state": "Virginia", "products": ["Chicken", "Lamb", "Goat", "Beef"], "expires": "Dec 31, 26", "certification": "HMS", "lat": 37.6463387, "lng": -77.5267361, "nav_url": "https://www.google.com/maps/search/?api=1&query=8481%20Hungary%20Rd%2C%20Glen%20Allen%2C%20VA%2023060&query_place_id=ChIJh8o3THsVsYkRd0jYneggNDM"}, {"name": "Royal Pizza", "address": "286 Fillmore Ave, Buffalo, NY 41206", "phone": "(716) 400-3286", "state": "New York", "products": ["Chicken", "Lamb", "Beef"], "expires": "Dec 31, 26", "certification": "HMS", "lat": 42.12534309999999, "lng": -72.53438129999999, "nav_url": "https://www.google.com/maps/search/?api=1&query=286%20Fillmore%20Ave%2C%20Buffalo%2C%20NY%2041206&query_place_id=ChIJOze0z-_n5okRbkTTcNqAfWE"}, {"name": "Madina Market (Kitchen)", "address": "1409 Shiloh Rd #200, Plano, TX 75074", "phone": "(469) 626-3657", "state": "Texas", "products": ["Chicken", "Lamb", "Goat", "Veal", "Beef"], "expires": "Dec 31, 26", "certification": "HMS", "lat": 33.0157013, "lng": -96.6653656, "nav_url": "https://www.google.com/maps/search/?api=1&query=1409%20Shiloh%20Rd%20%23200%2C%20Plano%2C%20TX%2075074&query_place_id=ChIJBR28RmAZTIYRFCAtEdsMbyc"}, {"name": "Shan Grills", "address": "3040 E Farm To Market 544 Ste 200, Wylie, TX 75098", "phone": "(945) 800-7999", "state": "Texas", "products": ["Chicken", "Beef"], "expires": "Dec 31, 26", "certification": "HMS", "lat": 33.0108153, "lng": -96.5878156, "nav_url": "https://www.google.com/maps/search/?api=1&query=3040%20E%20Farm%20To%20Market%20544%20Ste%20200%2C%20Wylie%2C%20TX%2075098&query_place_id=ChIJH9514V8bTIYRf-U8uINjVO4"}, {"name": "Hello Shawarma Bolingbrook", "address": "282 S Weber Rd, Bolingbrook, IL 60490", "phone": "(630) 770-4444", "state": "Illinois", "products": ["Chicken", "Lamb", "Beef"], "expires": "Dec 31, 26", "certification": "HMS", "lat": 41.6902386, "lng": -88.1252864, "nav_url": "https://www.google.com/maps/search/?api=1&query=282%20S%20Weber%20Rd%2C%20Bolingbrook%2C%20IL%2060490&query_place_id=ChIJd0K1CTBZDogRJGjpxAy6X3I"}, {"name": "Holy Cow Selden", "address": "1245 Middle Country Rd, Selden, NY 11784", "phone": "(631) 846-3393", "state": "New York", "products": ["Chicken", "Lamb", "Beef", "Turkey"], "expires": "Dec 31, 26", "certification": "HMS", "lat": 40.8633335, "lng": -73.05427089999999, "nav_url": "https://www.google.com/maps/search/?api=1&query=1245%20Middle%20Country%20Rd%2C%20Selden%2C%20NY%2011784&query_place_id=ChIJg4Z7rWlH6IkRylVdmk-aAbk"}, {"name": "Kolachi Tandoori Grill", "address": "937 S Roselle Rd, Schaumburg, IL 60193", "phone": "(630) 339-9002", "state": "Illinois", "products": ["Chicken", "Lamb", "Goat", "Veal", "Beef"], "expires": "Dec 31, 26", "certification": "HMS", "lat": 42.0100993, "lng": -88.07891839999999, "nav_url": "https://www.google.com/maps/search/?api=1&query=937%20S%20Roselle%20Rd%2C%20Schaumburg%2C%20IL%2060193&query_place_id=ChIJSR0_OHQBD4gR3LJsI9nILas"}, {"name": "Sheikhs N Burgers", "address": "82-37 164 Street, Jamaica, NY 11432", "phone": "(347) 829-3052", "state": "New York", "products": ["Chicken", "Lamb", "Beef"], "expires": "Dec 31, 26", "certification": "HMS", "lat": 40.7182725, "lng": -73.8034105, "nav_url": "https://www.google.com/maps/search/?api=1&query=82-37%20164%20Street%2C%20Jamaica%2C%20NY%2011432&query_place_id=ChIJ-TEjZxBhwokRw6wr5m64OEM"}, {"name": "Halal Eatz Burlington", "address": "195 Cambridge Street, Burlington, MA 01803", "phone": "(781) 203-1554", "state": "Massachusetts", "products": ["Chicken", "Lamb", "Beef"], "expires": "Dec 31, 26", "certification": "HMS", "lat": 42.5107045, "lng": -71.20128, "nav_url": "https://www.google.com/maps/search/?api=1&query=195%20Cambridge%20Street%2C%20Burlington%2C%20MA%2001803&query_place_id=ChIJge-haRSf44kRm8atGHKHf8U"}, {"name": "The Halal Steakhouse", "address": "2020 Army Trail Rd, Hanover Park, IL 60133", "phone": "(315) 975-2600", "state": "Illinois", "products": ["Chicken", "Lamb", "Goat", "Beef"], "expires": "Dec 31, 26", "certification": "HMS", "lat": 41.9417146, "lng": -88.1543355, "nav_url": "https://www.google.com/maps/search/?api=1&query=2020%20Army%20Trail%20Rd%2C%20Hanover%20Park%2C%20IL%2060133&query_place_id=ChIJA_F3FPWrD4gR-vuz8swCBl0"}, {"name": "Barbq Nite", "address": "40339 Michigan Ave, Canton, MI 48188", "phone": "(313) 500-9760", "state": "Michigan", "products": ["Chicken", "Goat", "Beef"], "expires": "Dec 31, 26", "certification": "HMS", "lat": 42.2790519, "lng": -83.4360193, "nav_url": "https://www.google.com/maps/search/?api=1&query=40339%20Michigan%20Ave%2C%20Canton%2C%20MI%2048188&query_place_id=ChIJv51jaQBRO4gRyrno1v-OcxY"}, {"name": "Cafe Bethak", "address": "471 E Roosevelt Rd, Lombard, IL 60148", "phone": "(630) 656-1481", "state": "Illinois", "products": ["Chicken", "Beef"], "expires": "Dec 31, 26", "certification": "HMS", "lat": 41.8590229, "lng": -88.0069151, "nav_url": "https://www.google.com/maps/search/?api=1&query=471%20E%20Roosevelt%20Rd%2C%20Lombard%2C%20IL%2060148&query_place_id=ChIJr6o48rVNDogRqUOodSP-7x8"}, {"name": "Holy Cow Astoria", "address": "23-14 36 Ave, Astoria, NY 11106", "phone": "(347) 242-3955", "state": "New York", "products": ["Chicken", "Lamb", "Beef", "Turkey"], "expires": "Dec 31, 26", "certification": "HMS", "lat": 40.75878489999999, "lng": -73.93477659999999, "nav_url": "https://www.google.com/maps/search/?api=1&query=23-14%2036%20Ave%2C%20Astoria%2C%20NY%2011106&query_place_id=ChIJ8V5E3c9fwokRmWGM7-Ubd7I"}, {"name": "Affan Indo-Chinese & Bangladeshi Restaurant", "address": "1011 Mcbride Ave, Woodland Park, NJ 07424", "phone": "(973) 200-0637", "state": "New Jersey", "products": ["Chicken", "Goat", "Beef"], "expires": "Dec 31, 26", "certification": "HMS", "lat": 40.892978, "lng": -74.2066561, "nav_url": "https://www.google.com/maps/search/?api=1&query=1011%20Mcbride%20Ave%2C%20Woodland%20Park%2C%20NJ%2007424&query_place_id=ChIJSQ3mOwD_wokRP93wOBy4lFQ"}, {"name": "Love Me Mochi (Name Changed)", "address": "191 W Golf Rd, Schaumburg, IL 60195", "phone": "(847) 812-7312", "state": "Illinois", "products": ["Chicken", "Beef"], "expires": "Dec 31, 26", "certification": "HMS", "lat": 42.0478869, "lng": -88.08410289999999, "nav_url": "https://www.google.com/maps/search/?api=1&query=191%20W%20Golf%20Rd%2C%20Schaumburg%2C%20IL%2060195&query_place_id=ChIJ-84zuiuvD4gRA2WOF4bemYw"}, {"name": "Indian Street Food by Tawakkul", "address": "2437 W Devon Ave, Chicago, IL 60659", "phone": "(312) 995-0863", "state": "Illinois", "products": ["Chicken", "Lamb", "Goat", "Beef"], "expires": "Dec 31, 26", "certification": "HMS", "lat": 41.9975011, "lng": -87.69139770000001, "nav_url": "https://www.google.com/maps/search/?api=1&query=2437%20W%20Devon%20Ave%2C%20Chicago%2C%20IL%2060659&query_place_id=ChIJX0qi0KLRD4gRerC_FTFF2CM"}, {"name": "Slaw Burger", "address": "1912 N Rand Rd, Palatine, IL 60074", "phone": "(847) 650-2221", "state": "Illinois", "products": ["Chicken", "Beef"], "expires": "Dec 31, 26", "certification": "HMS", "lat": 42.14363090000001, "lng": -88.027271, "nav_url": "https://www.google.com/maps/search/?api=1&query=1912%20N%20Rand%20Rd%2C%20Palatine%2C%20IL%2060074&query_place_id=ChIJOwtOpjGjD4gRa_f3fMVLc54"}, {"name": "Holy Cow Burgers", "address": "28805 Mound Rd, Warren, MI 48092", "phone": "(586) 486-5127", "state": "Michigan", "products": ["Chicken", "Beef"], "expires": "Dec 31, 26", "certification": "HMS", "lat": 42.5049007, "lng": -83.04706139999999, "nav_url": "https://www.google.com/maps/search/?api=1&query=28805%20Mound%20Rd%2C%20Warren%2C%20MI%2048092&query_place_id=ChIJTeyAoSrbJIgRKcWY9NN9J88"}, {"name": "NYC Halal Eats", "address": "7407 Shadeland Ave, Indianapolis, IN 46250", "phone": "(317) 516-5116", "state": "Indiana", "products": ["Chicken", "Lamb", "Beef"], "expires": "Dec 31, 26", "certification": "HMS", "lat": 39.8889098, "lng": -86.04517009999999, "nav_url": "https://www.google.com/maps/search/?api=1&query=7407%20Shadeland%20Ave%2C%20Indianapolis%2C%20IN%2046250&query_place_id=ChIJ_SqebEpNa4gRRrkvrcdsFYs"}, {"name": "Tandoori Pizza & Grill", "address": "3601 N Jupiter Rd #450, Richardson, TX 75082", "phone": "(972) 437-0000", "state": "Texas", "products": ["Chicken", "Beef"], "expires": "Mar 29, 26", "certification": "HMS", "lat": 33.0016675, "lng": -96.6832376, "nav_url": "https://www.google.com/maps/search/?api=1&query=3601%20N%20Jupiter%20Rd%20%23450%2C%20Richardson%2C%20TX%2075082&query_place_id=ChIJk3SdamAZTIYRqstEqH4tPBM"}, {"name": "Holy Cow Midtown", "address": "906 3rd Ave, New York, NY 10022", "phone": "(646) 370-3665", "state": "New York", "products": ["Chicken", "Lamb", "Beef", "Turkey"], "expires": "Dec 31, 26", "certification": "HMS", "lat": 40.7588354, "lng": -73.9689978, "nav_url": "https://www.google.com/maps/search/?api=1&query=906%203rd%20Ave%2C%20New%20York%2C%20NY%2010022&query_place_id=ChIJB_eItiFZwokRXTQSgPVzPjY"}, {"name": "Halal Burgers", "address": "767 Lyons Road, Centerville, OH 45459", "phone": "(937) 838-7272", "state": "Ohio", "products": ["Chicken", "Beef"], "expires": "Jan 31, 26", "certification": "HMS", "lat": 39.6316468, "lng": -84.1932628, "nav_url": "https://www.google.com/maps/search/?api=1&query=767%20Lyons%20Road%2C%20Centerville%2C%20OH%2045459&query_place_id=ChIJMbNVJgOJQIgR28uEUlTmOh8"}, {"name": "Halal Burgers", "address": "7037 Yankee Road, Liberty Township, OH 45044", "phone": "(513) 644-2290", "state": "Ohio", "products": ["Chicken", "Beef"], "expires": "Jan 31, 26", "certification": "HMS", "lat": 39.3760849, "lng": -84.38186429999999, "nav_url": "https://www.google.com/maps/search/?api=1&query=7037%20Yankee%20Road%2C%20Liberty%20Township%2C%20OH%2045044&query_place_id=ChIJYY52zxJbQIgR1USkizAj_k4"}, {"name": "Cafe De Khan Murphy", "address": "410 W Farm To Market 544 Suite 104, Murphy, TX 75094", "phone": "(972) 423-6679", "state": "Texas", "products": ["Chicken", "Goat", "Beef"], "expires": "Jan 01, 10", "certification": "HMS", "lat": 33.0110057, "lng": -96.62168670000001, "nav_url": "https://www.google.com/maps/search/?api=1&query=410%20W%20Farm%20To%20Market%20544%20Suite%20104%2C%20Murphy%2C%20TX%2075094&query_place_id=ChIJJ6U-gnkbTIYRsWzoaVfwgVM"}, {"name": "Imperial Biryani", "address": "400 N Greenville Ave #23, Richardson, TX 75081", "phone": "(214) 432-2369", "state": "Texas", "products": ["Chicken", "Lamb", "Goat"], "expires": "Dec 31, 26", "certification": "HMS", "lat": 32.9542479, "lng": -96.7274279, "nav_url": "https://www.google.com/maps/search/?api=1&query=400%20N%20Greenville%20Ave%20%2323%2C%20Richardson%2C%20TX%2075081&query_place_id=ChIJk2Cn1aEfTIYRIGXHtxNDd4A"}, {"name": "Rickshaw Pakistani & Indian Street Eats", "address": "4304 N Pulaski Rd, Chicago, IL 60641", "phone": "(708) 831-5561", "state": "Illinois", "products": ["Chicken", "Lamb", "Beef"], "expires": "Dec 31, 26", "certification": "HMS", "lat": 41.9593314, "lng": -87.72790479999999, "nav_url": "https://www.google.com/maps/search/?api=1&query=4304%20N%20Pulaski%20Rd%2C%20Chicago%2C%20IL%2060641&query_place_id=ChIJF7U3i7PND4gRVMNmaqGucOw"}, {"name": "Fyve Bros", "address": "1581 Bloomingdale Rd, Glendale Heights, IL 60139", "phone": "(331) 806-3111", "state": "Illinois", "products": ["Chicken", "Beef"], "expires": "Dec 31, 26", "certification": "HMS", "lat": 41.9169721, "lng": -88.0808299, "nav_url": "https://www.google.com/maps/search/?api=1&query=1581%20Bloomingdale%20Rd%2C%20Glendale%20Heights%2C%20IL%2060139&query_place_id=ChIJ9YIG7OatD4gRDVaZizde3Uw"}, {"name": "Tandoor Samsa", "address": "706 S Buffalo Grove Rd, Buffalo Grove, IL 60089", "phone": "(847) 947-8284", "state": "Illinois", "products": ["Chicken", "Lamb", "Veal", "Beef"], "expires": "Jan 31, 26", "certification": "HMS", "lat": 42.1413854, "lng": -87.9593245, "nav_url": "https://www.google.com/maps/search/?api=1&query=706%20S%20Buffalo%20Grove%20Rd%2C%20Buffalo%20Grove%2C%20IL%2060089&query_place_id=ChIJYx_k88W9D4gRsoiSq56b0QQ"}, {"name": "Halal Pizza Bizza", "address": "8983 Potter Rd, Des Plaines, IL 60016", "phone": "(224) 361-3267", "state": "Illinois", "products": ["Chicken", "Goat", "Beef", "Turkey"], "expires": "Dec 31, 26", "certification": "HMS", "lat": 42.0429243, "lng": -87.8594833, "nav_url": "https://www.google.com/maps/search/?api=1&query=8983%20Potter%20Rd%2C%20Des%20Plaines%2C%20IL%2060016&query_place_id=ChIJE8gXriG3D4gRBpV_gFwYAp8"}, {"name": "Patelli's Gyros & Beef", "address": "572 Weston Ridge Dr, Naperville, IL 60563", "phone": "(331) 213-7173", "state": "Illinois", "products": ["Chicken", "Beef"], "expires": "Dec 31, 26", "certification": "HMS", "lat": 41.780981, "lng": -88.2126452, "nav_url": "https://www.google.com/maps/search/?api=1&query=572%20Weston%20Ridge%20Dr%2C%20Naperville%2C%20IL%2060563&query_place_id=ChIJMVlmuq75DogRXYdiHBWv724"}, {"name": "Brown's Chicken (Only This Location)", "address": "595 N Pinecrest Rd, Bolingbrook, IL 60440", "phone": "(630) 914-5479", "state": "Illinois", "products": ["Chicken", "Beef"], "expires": "Dec 31, 26", "certification": "HMS", "lat": 41.7169246, "lng": -88.0505185, "nav_url": "https://www.google.com/maps/search/?api=1&query=595%20N%20Pinecrest%20Rd%2C%20Bolingbrook%2C%20IL%2060440&query_place_id=ChIJeWuTOKdbDogRx0f4oFj7_uQ"}, {"name": "Holy Cow Hillside", "address": "87-48 Parsons Blvd, Jamaica, NY 11432", "phone": "(347) 233-2291", "state": "New York", "products": ["Chicken", "Lamb", "Beef", "Turkey"], "expires": "Dec 31, 26", "certification": "HMS", "lat": 40.7080358, "lng": -73.8032214, "nav_url": "https://www.google.com/maps/search/?api=1&query=87-48%20Parsons%20Blvd%2C%20Jamaica%2C%20NY%2011432&query_place_id=ChIJ5cZEGW1hwokRVJL5DXlW2dg"}, {"name": "Krunchy Krust", "address": "221-19 Linden Blvd, Cambria Heights, NY 11411", "phone": "(347) 548-0015", "state": "New York", "products": ["Chicken", "Lamb", "Beef"], "expires": "Dec 31, 26", "certification": "HMS", "lat": 40.6906183, "lng": -73.727767, "nav_url": "https://www.google.com/maps/search/?api=1&query=221-19%20Linden%20Blvd%2C%20Cambria%20Heights%2C%20NY%2011411&query_place_id=ChIJxYrbbqpmwokRR1m4KJ6KzZs"}, {"name": "Skokie Grill & Biryani", "address": "4209 Main St, Skokie, IL 60076", "phone": "(224) 470-5138", "state": "Illinois", "products": ["Chicken", "Lamb", "Goat", "Beef"], "expires": "Dec 31, 26", "certification": "HMS", "lat": 42.0333256, "lng": -87.7332624, "nav_url": "https://www.google.com/maps/search/?api=1&query=4209%20Main%20St%2C%20Skokie%2C%20IL%2060076&query_place_id=ChIJTUZLc6HPD4gRiTmu6mGGpSs"}, {"name": "Taco Verde", "address": "909 Greenwood Rd A, Glenview, IL 60025", "phone": "(224) 850-8226", "state": "Illinois", "products": ["Chicken", "Beef"], "expires": "Sep 12, 25", "certification": "HMS", "lat": 42.0721497, "lng": -87.83921389999999, "nav_url": "https://www.google.com/maps/search/?api=1&query=909%20Greenwood%20Rd%20A%2C%20Glenview%2C%20IL%2060025&query_place_id=ChIJY1fi1PjHD4gRCcK3bBxMOJc"}, {"name": "Burgermania 39 Street", "address": "68 39 Street, New York, NY 10018", "phone": "(646) 974-8786", "state": "New York", "products": ["Chicken", "Lamb", "Beef"], "expires": "Dec 31, 26", "certification": "HMS", "lat": 40.7526722, "lng": -73.9851249, "nav_url": "https://www.google.com/maps/search/?api=1&query=68%2039%20Street%2C%20New%20York%2C%20NY%2010018&query_place_id=ChIJ0ciFAVtZwokRY5DfdemMqMk"}, {"name": "One Stop India Restaurant", "address": "208 W Farm To Market 544 #107, Murphy, TX 75094", "phone": "(945) 284-9716", "state": "Texas", "products": ["Chicken", "Goat"], "expires": "Dec 31, 26", "certification": "HMS", "lat": 33.0102487, "lng": -96.61767979999999, "nav_url": "https://www.google.com/maps/search/?api=1&query=208%20W%20Farm%20To%20Market%20544%20%23107%2C%20Murphy%2C%20TX%2075094&query_place_id=ChIJP8o04BcbTIYRpBV9rMzELnI"}, {"name": "Pariwaar Delights", "address": "616 Washington St, Hoboken, NJ 07030", "phone": "(201) 238-2710", "state": "New Jersey", "products": ["Chicken", "Lamb", "Goat", "Beef"], "expires": "Dec 31, 26", "certification": "HMS", "lat": 40.7440547, "lng": -74.0291719, "nav_url": "https://www.google.com/maps/search/?api=1&query=616%20Washington%20St%2C%20Hoboken%2C%20NJ%2007030&query_place_id=ChIJA8H9YflZwokROEjxACz4CIE"}, {"name": "New York City Halal Grill (Aria Kabab)", "address": "72-55 Kissena Blvd, Flushing, NY 11367", "phone": "(718) 793-2984", "state": "New York", "products": ["Chicken", "Lamb", "Goat", "Beef"], "expires": "Dec 31, 26", "certification": "HMS", "lat": 40.7276054, "lng": -73.8129525, "nav_url": "https://www.google.com/maps/search/?api=1&query=72-55%20Kissena%20Blvd%2C%20Flushing%2C%20NY%2011367&query_place_id=ChIJ5YgBJvRgwokRXk7XR_qL5O0"}, {"name": "Al Kabeer Restaurant", "address": "6426 N Western Ave, Chicago, IL 60645", "phone": "(224) 724-9111", "state": "Illinois", "products": ["Chicken", "Lamb", "Goat", "Beef"], "expires": "Feb 23, 26", "certification": "HMS", "lat": 41.9986237, "lng": -87.6901027, "nav_url": "https://www.google.com/maps/search/?api=1&query=6426%20N%20Western%20Ave%2C%20Chicago%2C%20IL%2060645&query_place_id=ChIJm3fJN4zRD4gRHkjQbf-YoQs"}, {"name": "Dosa and Biryani House", "address": "350 Market Street, Saddle Brook, NJ 07663", "phone": "(201) 845-0001", "state": "New Jersey", "products": ["Chicken", "Lamb", "Goat", "Beef"], "expires": "Dec 31, 26", "certification": "HMS", "lat": 40.8966145, "lng": -74.09555329999999, "nav_url": "https://www.google.com/maps/search/?api=1&query=350%20Market%20Street%2C%20Saddle%20Brook%2C%20NJ%2007663&query_place_id=ChIJ0SjAfU_7wokRrErHy3KNbTk"}, {"name": "Firin Bakery", "address": "1815 West Campbell, #6 Garland, TX 75044", "phone": "(214) 501-3474", "state": "Texas", "products": ["Chicken", "Beef"], "expires": "Dec 31, 26", "certification": "HMS", "lat": 32.9758953, "lng": -96.6551645, "nav_url": "https://www.google.com/maps/search/?api=1&query=1815%20West%20Campbell%2C%20%236%20Garland%2C%20TX%2075044&query_place_id=ChIJp-onfAgdTIYRy4rfiNYB19w"}, {"name": "Al Mehran Restaurant", "address": "87-46 Parsons Blvd, Jamaica, NY 11432", "phone": "(718) 523-5533", "state": "New York", "products": ["Chicken", "Lamb", "Goat", "Beef"], "expires": "Dec 31, 26", "certification": "HMS", "lat": 40.70810120000001, "lng": -73.80318559999999, "nav_url": "https://www.google.com/maps/search/?api=1&query=87-46%20Parsons%20Blvd%2C%20Jamaica%2C%20NY%2011432&query_place_id=ChIJ8cVso91gwokRExFoEXeRDVI"}, {"name": "Milliy Family Restaurant", "address": "1279 Rickert Dr, Naperville, IL 60540", "phone": "(630) 995-3695", "state": "Illinois", "products": ["Chicken", "Lamb", "Veal", "Beef"], "expires": "Dec 31, 26", "certification": "HMS", "lat": 41.7642989, "lng": -88.2050881, "nav_url": "https://www.google.com/maps/search/?api=1&query=1279%20Rickert%20Dr%2C%20Naperville%2C%20IL%2060540&query_place_id=ChIJy_7bCeP5DogRQ_fOVp0gBX4"}, {"name": "Holy Cow Parkchester", "address": "1412 Castle Hill Ave, Bronx, NY 10462", "phone": "(718) 912-6488", "state": "New York", "products": ["Chicken", "Lamb", "Beef", "Turkey"], "expires": "Dec 31, 26", "certification": "HMS", "lat": 40.8359595, "lng": -73.8519415, "nav_url": "https://www.google.com/maps/search/?api=1&query=1412%20Castle%20Hill%20Ave%2C%20Bronx%2C%20NY%2010462&query_place_id=ChIJe3QQcwD1wokRyXMjAp5v0h4"}, {"name": "Moho Mexican Grill Astoria", "address": "35-06 Ditmars Blvd, Astoria, NY 11105", "phone": "(718) 744-0123", "state": "New York", "products": ["Chicken", "Beef"], "expires": "Dec 31, 26", "certification": "HMS", "lat": 40.7745811, "lng": -73.908874, "nav_url": "https://www.google.com/maps/search/?api=1&query=35-06%20Ditmars%20Blvd%2C%20Astoria%2C%20NY%2011105&query_place_id=ChIJVU0jLwRfwokRe00mV809WlI"}, {"name": "Hitit Burger", "address": "39-26 Bell Blvd, Bayside, NY 11361", "phone": "(718) 744-0101", "state": "New York", "products": ["Chicken", "Beef"], "expires": "Dec 31, 26", "certification": "HMS", "lat": 40.7645167, "lng": -73.7717851, "nav_url": "https://www.google.com/maps/search/?api=1&query=39-26%20Bell%20Blvd%2C%20Bayside%2C%20NY%2011361&query_place_id=ChIJnWJTs7yLwokRgHezdHwp9h4"}, {"name": "Al Maidah Indian Restaurant", "address": "1921 Main St, Unit c, Tewksbury, MA 01876, USA", "phone": "(781) 300-0100", "state": "Massachusetts", "products": ["Chicken", "Lamb", "Goat", "Beef"], "expires": "Dec 31, 26", "certification": "HMS", "lat": 42.5903176, "lng": -71.205159, "nav_url": "https://www.google.com/maps/search/?api=1&query=1921%20Main%20St%2C%20Unit%20c%2C%20Tewksbury%2C%20MA%2001876%2C%20USA&query_place_id=ChIJ1SP_NfCh44kRsAx7aKcwoj0"}, {"name": "Halal Food Studio", "address": "6405 N Bell Ave, Chicago, IL 60645", "phone": "(773) 739-9090", "state": "Illinois", "products": ["Chicken", "Lamb", "Goat", "Veal", "Beef"], "expires": "Dec 31, 26", "certification": "HMS", "lat": 41.9980899, "lng": -87.68602229999999, "nav_url": "https://www.google.com/maps/search/?api=1&query=6405%20N%20Bell%20Ave%2C%20Chicago%2C%20IL%2060645&query_place_id=ChIJWwDmHwzRD4gRXMMk_5VgbmM"}, {"name": "Maria's Halal Pizzeria", "address": "116 S Bolingbrook Drive, Bolingbrook, IL 60440", "phone": "(630) 410-2300", "state": "Illinois", "products": ["Chicken", "Lamb", "Beef"], "expires": "Dec 31, 26", "certification": "HMS", "lat": 41.6979238, "lng": -88.0667834, "nav_url": "https://www.google.com/maps/search/?api=1&query=116%20S%20Bolingbrook%20Drive%2C%20Bolingbrook%2C%20IL%2060440&query_place_id=ChIJm0mLq7xbDogRjtS6QQvz6mU"}, {"name": "Khorasan Kabab", "address": "567 Middlesex Ave, Metuchen, NJ 08840", "phone": "(732) 318-6050", "state": "New Jersey", "products": ["Chicken", "Lamb", "Beef"], "expires": "Dec 31, 26", "certification": "HMS", "lat": 40.5422886, "lng": -74.3642686, "nav_url": "https://www.google.com/maps/search/?api=1&query=567%20Middlesex%20Ave%2C%20Metuchen%2C%20NJ%2008840&query_place_id=ChIJg54BbAC3w4kROdEArYRYTmA"}, {"name": "Firebird Piri Piri Grill", "address": "4546 N Magnolia Ave, Chicago, IL 60640", "phone": "+1 (773) 739-9220", "state": "Illinois", "products": ["Chicken", "Beef"], "expires": "Feb 23, 26", "certification": "HMS", "lat": 41.9650359, "lng": -87.6612938, "nav_url": "https://www.google.com/maps/search/?api=1&query=4546%20N%20Magnolia%20Ave%2C%20Chicago%2C%20IL%2060640&query_place_id=ChIJIxlofQDTD4gRCp__zjyxTvA"}, {"name": "Turan Uyghur Kitchen (Houston)", "address": "9330 Bellaire Blvd, Houston, TX 77036", "phone": "(281) 888-5118", "state": "Texas", "products": ["Chicken", "Lamb", "Goat", "Beef"], "expires": "Dec 31, 26", "certification": "HMS", "lat": 29.7059775, "lng": -95.5480496, "nav_url": "https://www.google.com/maps/search/?api=1&query=9330%20Bellaire%20Blvd%2C%20Houston%2C%20TX%2077036&query_place_id=ChIJqfXedgDDQIYRBVj0m2qXD5c"}, {"name": "Sweet Reserve Cafe & Bakery (Schaumburg)", "address": "160 S Roselle Rd C, Schaumburg, IL 60193", "phone": "(630) 376-6150", "state": "Illinois", "products": ["Chicken", "Beef"], "expires": "Dec 31, 26", "certification": "HMS", "lat": 42.02504649999999, "lng": -88.0820334, "nav_url": "https://www.google.com/maps/search/?api=1&query=160%20S%20Roselle%20Rd%20C%2C%20Schaumburg%2C%20IL%2060193&query_place_id=ChIJ9azOozmvD4gRtLl9eKrM8m4"}, {"name": "Sweet Reserve Cafe & Bakery (Skokie)", "address": "4845 Oakton St, Skokie, IL 60077", "phone": "(630) 376-6150", "state": "Illinois", "products": ["Chicken", "Beef"], "expires": "Dec 31, 26", "certification": "HMS", "lat": 42.0260761, "lng": -87.7493837, "nav_url": "https://www.google.com/maps/search/?api=1&query=4845%20Oakton%20St%2C%20Skokie%2C%20IL%2060077&query_place_id=ChIJHXIPsDXPD4gRF4yhDG0w3E0"}, {"name": "Taqueria Los Sombreros", "address": "9370 Ballard Rd, Des Plaines, IL 60016", "phone": "(847) 824-4646", "state": "Illinois", "products": ["Chicken", "Beef", "Turkey"], "expires": "Dec 31, 26", "certification": "HMS", "lat": 42.0437605, "lng": -87.858716, "nav_url": "https://www.google.com/maps/search/?api=1&query=9370%20Ballard%20Rd%2C%20Des%20Plaines%2C%20IL%2060016&query_place_id=ChIJ5cOYfua3D4gRjqicJPn30cg"}, {"name": "Everything Halal", "address": "3701 Esters Rd # 106, Irving, TX 75038", "phone": "(972) 887-3742", "state": "Texas", "products": ["Chicken", "Lamb", "Beef"], "expires": "Dec 31, 26", "certification": "HMS", "lat": 32.8576863, "lng": -97.00851109999999, "nav_url": "https://www.google.com/maps/search/?api=1&query=3701%20Esters%20Rd%20%23%20106%2C%20Irving%2C%20TX%2075038&query_place_id=ChIJmec075uBToYR5VRfbJ9_HwY"}, {"name": "Kababjees Selden", "address": "1245 Middle Country Rd, Selden, NY 11784", "phone": "(516) 597-5777", "state": "New York", "products": ["Chicken", "Lamb", "Goat", "Beef"], "expires": "Dec 31, 26", "certification": "HMS", "lat": 40.8633335, "lng": -73.05427089999999, "nav_url": "https://www.google.com/maps/search/?api=1&query=1245%20Middle%20Country%20Rd%2C%20Selden%2C%20NY%2011784&query_place_id=ChIJB5UBw_JH6IkRWuW3N6qyT1U"}, {"name": "Holy Cow East Village", "address": "600 E 14 Street, New York, NY 10009", "phone": "(646) 918-7075", "state": "New York", "products": ["Chicken", "Beef", "Turkey"], "expires": "Dec 31, 26", "certification": "HMS", "lat": 40.72920999999999, "lng": -73.9779707, "nav_url": "https://www.google.com/maps/search/?api=1&query=600%20E%2014%20Street%2C%20New%20York%2C%20NY%2010009&query_place_id=ChIJ09fRc0pZwokR5IEEGSPaLBk"}, {"name": "Holy Buckets Lombard", "address": "507 E Roosevelt Rd, Lombard, IL 60148", "phone": "(708) 931-4659", "state": "Illinois", "products": ["Chicken", "Beef"], "expires": "Dec 31, 26", "certification": "HMS", "lat": 41.8586872, "lng": -88.00468920000002, "nav_url": "https://www.google.com/maps/search/?api=1&query=507%20E%20Roosevelt%20Rd%2C%20Lombard%2C%20IL%2060148&query_place_id=ChIJ_29fZABNDogRdy--MMryUMM"}, {"name": "Holy Cow Upper West Side", "address": "23 W 100 Street, New York, NY 10025", "phone": "(929) 708- 2671", "state": "New York", "products": ["Chicken", "Lamb", "Beef", "Turkey"], "expires": "Dec 31, 26", "certification": "HMS", "lat": 40.7948368, "lng": -73.9639605, "nav_url": "https://www.google.com/maps/search/?api=1&query=23%20W%20100%20Street%2C%20New%20York%2C%20NY%2010025&query_place_id=ChIJ4yA6UQD3wokRvoi0avrUDHE"}, {"name": "Halal Bros Kabab Grill & Pizza", "address": "667 Elmont Rd, Elmont, NY 11003", "phone": "(516) 758-7200", "state": "New York", "products": ["Chicken", "Lamb", "Beef"], "expires": "Dec 31, 26", "certification": "HMS", "lat": 40.6933691, "lng": -73.7176764, "nav_url": "https://www.google.com/maps/search/?api=1&query=667%20Elmont%20Rd%2C%20Elmont%2C%20NY%2011003&query_place_id=ChIJg1FyU4BjwokRyTOc6oznBNw"}, {"name": "Byrd's Hot Chicken Union Station", "address": "319 S Jefferson St, Chicago, IL 60661", "phone": "(312) 837-3800", "state": "Illinois", "products": ["Chicken"], "expires": "Dec 31, 26", "certification": "HMS", "lat": 41.8774415, "lng": -87.64221529999999, "nav_url": "https://www.google.com/maps/search/?api=1&query=319%20S%20Jefferson%20St%2C%20Chicago%2C%20IL%2060661&query_place_id=ChIJYz2Oj7QtDogRvhdSbbuCw08"}, {"name": "Nawaz Gulshan", "address": "6237 N Western Ave, Chicago, IL 60659", "phone": "(773) 312-1595", "state": "Illinois", "products": ["Chicken", "Lamb", "Goat", "Beef"], "expires": "Dec 31, 26", "certification": "HMS", "lat": 41.9951946, "lng": -87.6896041, "nav_url": "https://www.google.com/maps/search/?api=1&query=6237%20N%20Western%20Ave%2C%20Chicago%2C%20IL%2060659&query_place_id=ChIJhZQn4NDRD4gRVY2nw9VgOlg"}, {"name": "Zaiqa House", "address": "1709 Belt Line Rd, Garland, TX 75044", "phone": "(469) 781-5637", "state": "Texas", "products": ["Chicken", "Lamb", "Goat", "Beef"], "expires": "Dec 31, 26", "certification": "HMS", "lat": 32.9455506, "lng": -96.65399269999999, "nav_url": "https://www.google.com/maps/search/?api=1&query=1709%20Belt%20Line%20Rd%2C%20Garland%2C%20TX%2075044&query_place_id=ChIJu2ONb8YdTIYRlgBd09U58Kw"}, {"name": "Masala Magic", "address": "1011 N Orleans St, Chicago, IL 60610", "phone": "(872) 342-3849", "state": "Illinois", "products": ["Chicken", "Lamb", "Goat", "Veal", "Beef"], "expires": "Dec 31, 26", "certification": "HMS", "lat": 41.9008866, "lng": -87.63718469999999, "nav_url": "https://www.google.com/maps/search/?api=1&query=1011%20N%20Orleans%20St%2C%20Chicago%2C%20IL%2060610&query_place_id=ChIJq6nI8knTD4gRAwc_JRQ45ag"}, {"name": "Holy Buckets Bridgeview", "address": "7331 W 87th St, Bridgeview, IL 60455", "phone": "(708) 931-4659", "state": "Illinois", "products": ["Chicken", "Beef"], "expires": "Dec 31, 26", "certification": "HMS", "lat": 41.7330479, "lng": -87.80275619999999, "nav_url": "https://www.google.com/maps/search/?api=1&query=7331%20W%2087th%20St%2C%20Bridgeview%2C%20IL%2060455&query_place_id=ChIJC2TlXRs5DogRLQjVW1I7h5w"}, {"name": "Kabab King Grill", "address": "2305 W. Devon Ave, Chicago, IL 60659", "phone": "(773) 856-3786", "state": "Illinois", "products": ["Chicken", "Lamb", "Goat", "Veal", "Beef"], "expires": "Dec 31, 26", "certification": "HMS", "lat": 41.9975885, "lng": -87.6877116, "nav_url": "https://www.google.com/maps/search/?api=1&query=2305%20W.%20Devon%20Ave%2C%20Chicago%2C%20IL%2060659&query_place_id=ChIJpfUT2bfRD4gRXeQwTZ9niNc"}, {"name": "Hyderabad House Devon", "address": "2225 W. Devon Ave., Chicago, IL 60659", "phone": "(773)381-1230", "state": "Illinois", "products": ["Chicken", "Lamb", "Goat", "Veal", "Beef"], "expires": "Dec 31, 26", "certification": "HMS", "lat": 41.9976086, "lng": -87.6858282, "nav_url": "https://www.google.com/maps/search/?api=1&query=2225%20W.%20Devon%20Ave.%2C%20Chicago%2C%20IL%2060659&query_place_id=ChIJbWP15MLRD4gRahJkOoR68F8"}, {"name": "Hyderabad House Villa Park", "address": "100 E Roosevelt Rd Ste 34, Villa Park, IL 60181", "phone": "(630) 501-0021", "state": "Illinois", "products": ["Chicken", "Lamb", "Goat", "Veal", "Beef"], "expires": "Dec 31, 26", "certification": "HMS", "lat": 41.8615038, "lng": -87.97490839999999, "nav_url": "https://www.google.com/maps/search/?api=1&query=100%20E%20Roosevelt%20Rd%20Ste%2034%2C%20Villa%20Park%2C%20IL%2060181&query_place_id=ChIJu85eRcJNDogR-G_zwmViYnI"}, {"name": "Holy Cow Woodland Park", "address": "654 Mcbride Ave, A, Woodland Park, NJ 07424", "phone": "(973) 333- 5729", "state": "New Jersey", "products": ["Chicken", "Lamb", "Beef", "Turkey"], "expires": "Dec 31, 26", "certification": "HMS", "lat": 40.9026786, "lng": -74.1997093, "nav_url": "https://www.google.com/maps/search/?api=1&query=654%20Mcbride%20Ave%2C%20A%2C%20Woodland%20Park%2C%20NJ%2007424&query_place_id=ChIJUSozXhP_wokRDtowticVb6Q"}, {"name": "Pali Pali Pizza & Korean Chicken", "address": "100 W Northwest Hwy, Palatine, IL 60067", "phone": "(224) 539-8192", "state": "Illinois", "products": ["Chicken", "Beef"], "expires": "Dec 31, 26", "certification": "HMS", "lat": 42.1223623, "lng": -88.0462804, "nav_url": "https://www.google.com/maps/search/?api=1&query=100%20W%20Northwest%20Hwy%2C%20Palatine%2C%20IL%2060067&query_place_id=ChIJm3N15QWlD4gR2M-a37y7whE"}, {"name": "Kolachi Kitchen", "address": "45300 Hanford Rd, Canton, MI 48187", "phone": "(734) 331-7909", "state": "Michigan", "products": ["Chicken", "Lamb", "Goat", "Veal", "Beef"], "expires": "Dec 31, 26", "certification": "HMS", "lat": 42.3295676, "lng": -83.4872329, "nav_url": "https://www.google.com/maps/search/?api=1&query=45300%20Hanford%20Rd%2C%20Canton%2C%20MI%2048187&query_place_id=ChIJdciDbw9TO4gRmM8Kx59AgcU"}, {"name": "Holy Cow Oakland Gardens", "address": "78-35D Springfield Blvd, Oakland Gardens, NY 11364", "phone": "(929) 759-0066", "state": "New York", "products": ["Chicken", "Lamb", "Beef", "Turkey"], "expires": "Dec 31, 26", "certification": "HMS", "lat": 40.73622140000001, "lng": -73.7467194, "nav_url": "https://www.google.com/maps/search/?api=1&query=78-35D%20Springfield%20Blvd%2C%20Oakland%20Gardens%2C%20NY%2011364&query_place_id=ChIJw5p3ZYdjwokRvo2i0C6pSPk"}, {"name": "Holy Cow Fulton Street", "address": "1460 Fulton Street, Brooklyn, NY 11216", "phone": "(718) 310-6092", "state": "New York", "products": ["Chicken", "Lamb", "Beef", "Turkey"], "expires": "Dec 31, 26", "certification": "HMS", "lat": 40.6798337, "lng": -73.94244, "nav_url": "https://www.google.com/maps/search/?api=1&query=1460%20Fulton%20Street%2C%20Brooklyn%2C%20NY%2011216&query_place_id=ChIJqQcq0LVbwokRbAE51EkxAVI"}, {"name": "Byrd's Hot Chicken Lombard", "address": "2770 S Highland Ave Ste 102, Lombard, IL", "phone": "(630) 785-3095", "state": "Illinois", "products": ["Chicken"], "expires": "Dec 31, 26", "certification": "HMS", "lat": 41.837042, "lng": -88.01261699999999, "nav_url": "https://www.google.com/maps/search/?api=1&query=2770%20S%20Highland%20Ave%20Ste%20102%2C%20Lombard%2C%20IL&query_place_id=ChIJB5Hx21NTDogRqHjh5l5jTMg"}, {"name": "Halal Smash Burger & Phillies", "address": "6404 N. California Ave, Chicago, IL 60645", "phone": "(773) 856-0236", "state": "Illinois", "products": ["Chicken", "Lamb", "Beef"], "expires": "Dec 31, 26", "certification": "HMS", "lat": 41.9978511, "lng": -87.6998832, "nav_url": "https://www.google.com/maps/search/?api=1&query=6404%20N.%20California%20Ave%2C%20Chicago%2C%20IL%2060645&query_place_id=ChIJgVS06rrPD4gR6YvjzkxPcr4"}, {"name": "Hangry Joe's Hot Chicken", "address": "1025 N Elmhurst Rd, Mt Prospect, IL 60056", "phone": "(224) 857-8113", "state": "Illinois", "products": ["Chicken"], "expires": "Dec 31, 26", "certification": "HMS", "lat": 42.0840511, "lng": -87.9363717, "nav_url": "https://www.google.com/maps/search/?api=1&query=1025%20N%20Elmhurst%20Rd%2C%20Mt%20Prospect%2C%20IL%2060056&query_place_id=ChIJQbkJBMG7D4gRm1MjSD8sibU"}, {"name": "Fiesta Healthy Mexican Grill", "address": "4 Bedford Ave, Bergenfield, NJ 07621", "phone": "(732) 229-3999", "state": "New Jersey", "products": ["Chicken", "Lamb", "Beef"], "expires": "Dec 31, 26", "certification": "HMS", "lat": 40.925491, "lng": -73.9970206, "nav_url": "https://www.google.com/maps/search/?api=1&query=4%20Bedford%20Ave%2C%20Bergenfield%2C%20NJ%2007621&query_place_id=ChIJG2srEGTxwokR32GO8CXWZVk"}, {"name": "NYC Halal Eats", "address": "24311 Halsted Rd, Farmington Hills, MI 48335", "phone": "(248) 987-7100", "state": "Michigan", "products": ["Chicken", "Lamb", "Beef"], "expires": "Dec 31, 26", "certification": "HMS", "lat": 42.46961659999999, "lng": -83.41644149999999, "nav_url": "https://www.google.com/maps/search/?api=1&query=24311%20Halsted%20Rd%2C%20Farmington%20Hills%2C%20MI%2048335&query_place_id=ChIJDy04joKxJIgRRnW1KWEMI1I"}, {"name": "The Halal Burger", "address": "6234 N California Ave, Chicago, IL 60659", "phone": "(773) 856-6663", "state": "Illinois", "products": ["Chicken", "Beef"], "expires": "Dec 31, 26", "certification": "HMS", "lat": 41.9950129, "lng": -87.6999213, "nav_url": "https://www.google.com/maps/search/?api=1&query=6234%20N%20California%20Ave%2C%20Chicago%2C%20IL%2060659&query_place_id=ChIJg0P2nR_OD4gRmp-k8AOMc7U"}, {"name": "Hot Spot", "address": "959 Broadway St, Buffalo, NY 14212", "phone": "(716) 897-9465", "state": "New York", "products": ["Chicken", "Lamb", "Beef"], "expires": "Dec 31, 26", "certification": "HMS", "lat": 42.89292270000001, "lng": -78.839045, "nav_url": "https://www.google.com/maps/search/?api=1&query=959%20Broadway%20St%2C%20Buffalo%2C%20NY%2014212&query_place_id=ChIJdyAjm3gS04kRaeerPgUKlYw"}, {"name": "Kabab House", "address": "3411 Old Parham Rd, Richmond, VA 23294", "phone": "(804) 837-1748", "state": "Virginia", "products": ["Chicken", "Lamb", "Goat", "Veal", "Beef"], "expires": "Dec 31, 26", "certification": "HMS", "lat": 37.6287847, "lng": -77.5358682, "nav_url": "https://www.google.com/maps/search/?api=1&query=3411%20Old%20Parham%20Rd%2C%20Richmond%2C%20VA%2023294&query_place_id=ChIJYYdESRQVsYkRQRWKDTZ2r5c"}, {"name": "3 Chef's Persian Cuisine", "address": "1521 Ogden Ave, Aurora, IL 60503", "phone": "(331) 707-5968", "state": "Illinois", "products": ["Chicken", "Lamb", "Goat", "Veal", "Beef"], "expires": "Dec 31, 26", "certification": "HMS", "lat": 41.7206106, "lng": -88.27755959999999, "nav_url": "https://www.google.com/maps/search/?api=1&query=1521%20Ogden%20Ave%2C%20Aurora%2C%20IL%2060503&query_place_id=ChIJC4M7W3vxDogRTidExzd7-5c"}, {"name": "Wah Taj", "address": "1014 S. ELMHURST RD, MOUNT PROSPECT, IL 60056", "phone": "(224) 857-8156", "state": "Illinois", "products": ["Chicken", "Lamb", "Goat", "Veal", "Beef"], "expires": "Dec 31, 26", "certification": "HMS", "lat": 42.04683199999999, "lng": -87.9422448, "nav_url": "https://www.google.com/maps/search/?api=1&query=1014%20S.%20ELMHURST%20RD%2C%20MOUNT%20PROSPECT%2C%20IL%2060056&query_place_id=ChIJ4adcQRyxD4gR62iO6PuzMy4"}, {"name": "Thali Corner", "address": "2350 W. Devon Ave, Chicago, IL 60659", "phone": "(773) 856-7860", "state": "Illinois", "products": ["Chicken", "Lamb", "Goat"], "expires": "Dec 31, 26", "certification": "HMS", "lat": 41.99791039999999, "lng": -87.6893681, "nav_url": "https://www.google.com/maps/search/?api=1&query=2350%20W.%20Devon%20Ave%2C%20Chicago%2C%20IL%2060659&query_place_id=ChIJGTqckrbRD4gRt0SnRhKOQ5Q"}, {"name": "Hangry Joe's Arlington Heights and Chicago Pie", "address": "2932 W Euclid Ave #1, Arlington Heights, IL 60005", "phone": "(847) 749-1052", "state": "Illinois", "products": ["Chicken", "Beef"], "expires": "Dec 31, 26", "certification": "HMS", "lat": 42.0891421, "lng": -88.01951199999999, "nav_url": "https://www.google.com/maps/search/?api=1&query=2932%20W%20Euclid%20Ave%20%231%2C%20Arlington%20Heights%2C%20IL%2060005&query_place_id=ChIJ3Yy2_4GlD4gRwbpSzTEo7B0"}, {"name": "Burger Moovment", "address": "7512 W North Ave, Elmwood Park, IL 60707", "phone": "(708) 452-7288", "state": "Illinois", "products": ["Chicken", "Beef"], "expires": "Dec 31, 26", "certification": "HMS", "lat": 41.9088157, "lng": -87.8137921, "nav_url": "https://www.google.com/maps/search/?api=1&query=7512%20W%20North%20Ave%2C%20Elmwood%20Park%2C%20IL%2060707&query_place_id=ChIJ-yld2CfLD4gRWEpBgoFWmLE"}, {"name": "Kababish Indian Cuisine", "address": "2735 Hassert Blvd #143, Naperville, IL 60564", "phone": "(331) 472-4151", "state": "Illinois", "products": ["Chicken", "Lamb", "Goat"], "expires": "Apr 02, 26", "certification": "HMS", "lat": 41.681594, "lng": -88.20318209999999, "nav_url": "https://www.google.com/maps/search/?api=1&query=2735%20Hassert%20Blvd%20%23143%2C%20Naperville%2C%20IL%2060564&query_place_id=ChIJEw58_RD3DogRalspSZb-eJk"}, {"name": "Halal Smash Burger & Phillies", "address": "5019 N. Western Ave, Chicago, IL 60625", "phone": "(872) 241-4116", "state": "Illinois", "products": ["Chicken", "Lamb", "Beef"], "expires": "Dec 31, 26", "certification": "HMS", "lat": 41.9729087, "lng": -87.6888381, "nav_url": "https://www.google.com/maps/search/?api=1&query=5019%20N.%20Western%20Ave%2C%20Chicago%2C%20IL%2060625&query_place_id=ChIJYScp79_TD4gRhD4FMDuiyBc"}, {"name": "Gyro Hut and Grill", "address": "22-28 Hempstead Turnpike, Farmingdale, NY 11735", "phone": "(516) 249-7414", "state": "New York", "products": ["Chicken", "Lamb", "Beef"], "expires": "Dec 31, 26", "certification": "HMS", "lat": 40.7294175, "lng": -73.46256009999999, "nav_url": "https://www.google.com/maps/search/?api=1&query=22-28%20Hempstead%20Turnpike%2C%20Farmingdale%2C%20NY%2011735&query_place_id=ChIJnfAxGwAr6IkR3y3YQEYK2GY"}, {"name": "Smash IT Burgers", "address": "6037 Dempster St, Morton Grove, IL 60053", "phone": "(224) 251-7083", "state": "Illinois", "products": ["Chicken", "Beef"], "expires": "Dec 31, 26", "certification": "HMS", "lat": 42.0407743, "lng": -87.77772859999999, "nav_url": "https://www.google.com/maps/search/?api=1&query=6037%20Dempster%20St%2C%20Morton%20Grove%2C%20IL%2060053&query_place_id=ChIJpdZnh7vJD4gRmnYkzTcbgfI"}, {"name": "Byrd's Hot Chicken Novi", "address": "43444 West Oaks Drive, Novi, MI 48377", "phone": "(248) 513-3700", "state": "Michigan", "products": ["Chicken"], "expires": "Dec 31, 26", "certification": "HMS", "lat": 42.49454739999999, "lng": -83.4777269, "nav_url": "https://www.google.com/maps/search/?api=1&query=43444%20West%20Oaks%20Drive%2C%20Novi%2C%20MI%2048377&query_place_id=ChIJnS-KnXWvJIgRGAo-2UXnRiE"}, {"name": "Abdu Restaurant", "address": "46090 Michigan Ave, Canton, MI 48188", "phone": "(734) 335-7308", "state": "Michigan", "products": ["Chicken", "Lamb", "Goat", "Beef"], "expires": "Dec 31, 26", "certification": "HMS", "lat": 42.2718463, "lng": -83.4922641, "nav_url": "https://www.google.com/maps/search/?api=1&query=46090%20Michigan%20Ave%2C%20Canton%2C%20MI%2048188&query_place_id=ChIJM7ntzJNRO4gRTSaQ9Cv7kDM"}, {"name": "Dhaka Restaurant", "address": "168-32 Hillside Ave, Jamaica, NY 11432", "phone": "(718) 262-9774", "state": "New York", "products": ["Chicken", "Lamb", "Goat", "Beef"], "expires": "Dec 31, 26", "certification": "HMS", "lat": 40.7103036, "lng": -73.79360799999999, "nav_url": "https://www.google.com/maps/search/?api=1&query=168-32%20Hillside%20Ave%2C%20Jamaica%2C%20NY%2011432&query_place_id=ChIJ6S7Pzh9hwokRSfYqS3syWgg"}, {"name": "Moho Mexican Grill", "address": "38-05 Bell Blvd, Bayside, NY 11361", "phone": "(718) 709-9695", "state": "New York", "products": ["Chicken", "Beef"], "expires": "Dec 31, 26", "certification": "HMS", "lat": 40.76633, "lng": -73.7722656, "nav_url": "https://www.google.com/maps/search/?api=1&query=38-05%20Bell%20Blvd%2C%20Bayside%2C%20NY%2011361&query_place_id=ChIJLWQJgFWLwokRzExNPnQWRA4"}, {"name": "Al Haramain Restaurant", "address": "24065 Orchard Lake Rd, Farmington, MI 48336", "phone": "(248) 476-0300", "state": "Michigan", "products": ["Chicken", "Lamb", "Goat", "Veal", "Beef"], "expires": "Dec 31, 25", "certification": "HMS", "lat": 42.4691774, "lng": -83.3582089, "nav_url": "https://www.google.com/maps/search/?api=1&query=24065%20Orchard%20Lake%20Rd%2C%20Farmington%2C%20MI%2048336&query_place_id=ChIJZT4UhhixJIgRBAU_H0J4m8E"}, {"name": "Sagar Restaurant (ONLY THIS RESTAURANT, VERIFY ADDRESS)", "address": "168-25B Hillside Ave, Jamaica, NY 11432", "phone": "(718) 298-5696", "state": "New York", "products": ["Chicken", "Lamb", "Goat", "Beef"], "expires": "Dec 31, 26", "certification": "HMS", "lat": 40.7104377, "lng": -73.79415019999999, "nav_url": "https://www.google.com/maps/search/?api=1&query=168-25B%20Hillside%20Ave%2C%20Jamaica%2C%20NY%2011432&query_place_id=ChIJHe510R9hwokRChLemd8Nkac"}, {"name": "Holy Cow JFK", "address": "125 JFK Travel Plaza, Jamaica, NY 11430", "phone": "(718) 691-6382", "state": "New York", "products": ["Chicken", "Lamb", "Beef", "Turkey"], "expires": "Dec 31, 26", "certification": "HMS", "lat": 40.6630036, "lng": -73.7929777, "nav_url": "https://www.google.com/maps/search/?api=1&query=125%20JFK%20Travel%20Plaza%2C%20Jamaica%2C%20NY%2011430&query_place_id=ChIJAYIj7JhnwokR0uSreSWZ974"}, {"name": "Azka BBQ", "address": "87-16 Parsons Blvd, Jamaica, NY 11432", "phone": "(718) 750-2952", "state": "New York", "products": ["Chicken", "Lamb", "Goat", "Beef"], "expires": "Dec 31, 26", "certification": "HMS", "lat": 40.7085263, "lng": -73.80368670000001, "nav_url": "https://www.google.com/maps/search/?api=1&query=87-16%20Parsons%20Blvd%2C%20Jamaica%2C%20NY%2011432&query_place_id=ChIJC7v4RPthwokRIhxtteOP6DQ"}, {"name": "Two Brothers Chicken Express", "address": "9745 Liberia Ave, Manassas, VA 20110", "phone": "(703) 595-0109", "state": "Virginia", "products": ["Chicken", "Lamb", "Goat", "Beef"], "expires": "Dec 31, 26", "certification": "HMS", "lat": 38.7441047, "lng": -77.4501511, "nav_url": "https://www.google.com/maps/search/?api=1&query=9745%20Liberia%20Ave%2C%20Manassas%2C%20VA%2020110&query_place_id=ChIJl_xwAQVbtokR8dklUSPwXJU"}, {"name": "Moon Restaurant", "address": "69-11 Woodside Ave, Woodside, NY 11377", "phone": "(718) 335-1828", "state": "New York", "products": ["Chicken", "Lamb", "Goat", "Beef"], "expires": "Dec 31, 26", "certification": "HMS", "lat": 40.7427531, "lng": -73.8951434, "nav_url": "https://www.google.com/maps/search/?api=1&query=69-11%20Woodside%20Ave%2C%20Woodside%2C%20NY%2011377&query_place_id=ChIJY1w2JeBfwokRGE7NP_DaQhQ"}, {"name": "Mannan Bakery Factory", "address": "149-21 Jamaica Ave, Jamaica, NY 11435", "phone": "0000000000", "state": "New York", "products": ["Chicken", "Lamb", "Goat", "Beef"], "expires": "Dec 31, 26", "certification": "HMS", "lat": 40.7100794, "lng": -73.7950784, "nav_url": "https://www.google.com/maps/search/?api=1&query=149-21%20Jamaica%20Ave%2C%20Jamaica%2C%20NY%2011435&query_place_id=ChIJHzcwHxRhwokR0x3k4QlCe-k"}, {"name": "Mannan Bakery & Restaurant", "address": "New York, NY, USA", "phone": "(718) 374-3679", "state": "New York", "products": ["Chicken", "Lamb", "Goat", "Veal", "Beef"], "expires": "Dec 31, 26", "certification": "HMS", "lat": 40.7100187, "lng": -73.79525319999999, "nav_url": "https://www.google.com/maps/search/?api=1&query=New%20York%2C%20NY%2C%20USA&query_place_id=ChIJHzcwHxRhwokR0x3k4QlCe-k"}, {"name": "Asia Grocers", "address": "27616 Middlebelt Rd, Farmington Hills, MI 48334", "phone": "(248) 426-9000", "state": "Michigan", "products": ["Chicken", "Lamb", "Goat", "Veal", "Beef"], "expires": "Dec 31, 26", "certification": "HMS", "lat": 42.4978142, "lng": -83.33762019999999, "nav_url": "https://www.google.com/maps/search/?api=1&query=27616%20Middlebelt%20Rd%2C%20Farmington%20Hills%2C%20MI%2048334&query_place_id=ChIJx-Z2VrSwJIgRMsocP2s4ie4"}, {"name": "Eatzy Thai", "address": "33-09 Broadway, Astoria, NY 11106", "phone": "(718) 956-7117", "state": "New York", "products": ["Chicken", "Lamb", "Beef"], "expires": "Dec 31, 26", "certification": "HMS", "lat": 40.7611523, "lng": -73.92333649999999, "nav_url": "https://www.google.com/maps/search/?api=1&query=33-09%20Broadway%2C%20Astoria%2C%20NY%2011106&query_place_id=ChIJh3du_ddfwokRFatN-f8F0-U"}, {"name": "Eatzy Chinese", "address": "37 - 21 72nd Street, Jackson Heights, NY 11372", "phone": "(718) 533-9131", "state": "New York", "products": ["Chicken", "Lamb", "Goat", "Veal", "Beef"], "expires": "Dec 31, 26", "certification": "HMS", "lat": 40.7480732, "lng": -73.8935493, "nav_url": "https://www.google.com/maps/search/?api=1&query=37%20-%2021%2072nd%20Street%2C%20Jackson%20Heights%2C%20NY%2011372&query_place_id=ChIJy0VDjRVfwokR4AFVAogIVuk"}, {"name": "Fried Junction", "address": "6349 N Claremont Ave, Chicago, IL 60659", "phone": "(872) 330-7576", "state": "Illinois", "products": ["Chicken", "Lamb", "Goat", "Veal"], "expires": "Dec 31, 26", "certification": "HMS", "lat": 41.9973605, "lng": -87.6884595, "nav_url": "https://www.google.com/maps/search/?api=1&query=6349%20N%20Claremont%20Ave%2C%20Chicago%2C%20IL%2060659&query_place_id=ChIJPwlj_rXRD4gRGnfR98PBDHA"}, {"name": "Ruman Chai Shai & Restaurant", "address": "6348 N Artesian Ave, Chicago, IL 60659", "phone": "(773) 654-8056", "state": "Illinois", "products": ["Chicken", "Lamb", "Goat", "Veal", "Beef"], "expires": "Dec 31, 26", "certification": "HMS", "lat": 41.9973694, "lng": -87.69122019999999, "nav_url": "https://www.google.com/maps/search/?api=1&query=6348%20N%20Artesian%20Ave%2C%20Chicago%2C%20IL%2060659&query_place_id=ChIJybI-xE_RD4gRxngFJCbWPYk"}, {"name": "Anor 1985", "address": "1450 W Webster Ave, Chicago, IL 60614", "phone": "(872) 946-2024", "state": "Illinois", "products": ["Chicken", "Lamb", "Beef"], "expires": "Jan 31, 26", "certification": "HMS", "lat": 41.92169, "lng": -87.6650003, "nav_url": "https://www.google.com/maps/search/?api=1&query=1450%20W%20Webster%20Ave%2C%20Chicago%2C%20IL%2060614&query_place_id=ChIJl9p7L6rTD4gRL1-gAkyqXEo"}, {"name": "Khanum's Kitchen", "address": "4416 Belfast Rd, Glen Allen, VA 23060", "phone": "(804) 814-0230", "state": "Virginia", "products": ["Chicken", "Lamb", "Goat", "Veal", "Beef"], "expires": "Dec 31, 26", "certification": "HMS", "lat": 37.657391, "lng": -77.59606289999999, "nav_url": "https://www.google.com/maps/search/?api=1&query=4416%20Belfast%20Rd%2C%20Glen%20Allen%2C%20VA%2023060&query_place_id=ChIJcRK41ZxqsYkRQnJ-7CZ5GPc"}, {"name": "Burgery", "address": "149-21 Jamaica Ave, Jamaica, NY 11345", "phone": "(917) 892-4929", "state": "New York", "products": ["Chicken", "Lamb", "Beef"], "expires": "Dec 31, 26", "certification": "HMS", "lat": 40.7022514, "lng": -73.80496049999999, "nav_url": "https://www.google.com/maps/search/?api=1&query=149-21%20Jamaica%20Ave%2C%20Jamaica%2C%20NY%2011345&query_place_id=ChIJI4Pvl4JhwokRQiJXyWrqbNQ"}, {"name": "DUA Italian Cuisine and Steak House", "address": "742 Higgins Rd Ste 1, Park Ridge, IL 60068, USA", "phone": "(224) 775-3115", "state": "Illinois", "products": ["Chicken", "Lamb", "Beef"], "expires": "Dec 31, 26", "certification": "HMS", "lat": 41.9863276, "lng": -87.834914, "nav_url": "https://www.google.com/maps/search/?api=1&query=742%20Higgins%20Rd%20Ste%201%2C%20Park%20Ridge%2C%20IL%2060068%2C%20USA&query_place_id=ChIJpZxBbVfJD4gRTA2VsU-iuxQ"}, {"name": "Holy Cow Mount Vernon", "address": "524 Gramatan Ave, Mount Vernon, NY 10552", "phone": "(914) 371-1765", "state": "New York", "products": ["Chicken", "Lamb", "Beef", "Turkey"], "expires": "Dec 31, 26", "certification": "HMS", "lat": 40.9251617, "lng": -73.8362355, "nav_url": "https://www.google.com/maps/search/?api=1&query=524%20Gramatan%20Ave%2C%20Mount%20Vernon%2C%20NY%2010552&query_place_id=ChIJodZQXIyNwokRDa5LpmkkXBs"},